     2.11           OBSERVATION DATA    G (GPS)             RINEX VERSION / TYPE
teqc  2019Feb25     root                20210227 05:24:30UTCPGM / RUN BY / DATE
Linux 2.4.21-27.ELsmp|Opteron|gcc|Linux 64|=+               COMMENT
     2.11           OBSERVATION DATA    M (MIXED)           COMMENT
teqc  2010Oct21     CORS/NGS/NOAA       20111123 02:47:03UTCCOMMENT
Solaris x86 5.10|AMD64|cc SC5.8 -xarch=amd64|=+|=+          COMMENT
teqc  2010Oct21     CORS-ADM Account    20111123 02:38:35UTCCOMMENT
teqc  2010Oct21     CORS/NGS/NOAA       20111123 02:37:24UTCCOMMENT
+38.838901075 (latitude)                                    COMMENT
-081.10877332 (longitude)                                   COMMENT
+296.835      (elevation)                                   COMMENT
+.000000      (antenna height)                              COMMENT
BIT 2 OF LLI FLAGS DATA COLLECTED UNDER A/S CONDITION       COMMENT
 SNR is mapped to RINEX snr flag value [0-9]                COMMENT
  L1 & L2: min(max(int(snr_dBHz/6), 0), 9)                  COMMENT
Forced Modulo Decimation to 30 seconds                      COMMENT
WVMZ                                                        MARKER NAME
19                                                          MARKER NUMBER
Peter J Dailey      Rahall Appalachian Transportation InstitOBSERVER / AGENCY
4922K62061          TRIMBLE NETR5       4.41                REC # / TYPE / VERS
1440921295          TRM57971.00     NONE                    ANT # / TYPE
   768899.6923 -4915014.5097  3978588.7186                  APPROX POSITION XYZ
        0.0000        0.0000        0.0000                  ANTENNA: DELTA H/E/N
     1     1                                                WAVELENGTH FACT L1/2
     8    L1    L2    C1    C2    P1    P2    S1    S2      # / TYPES OF OBSERV
    30.0000                                                 INTERVAL
teqc.w windowed: start @ 2011 Nov 22 00:00:00.000           COMMENT
teqc.w windowed:  end  @ 2011 Nov 23 00:00:00.000           COMMENT
teqc.w edited: all GLONASS satellites excluded              COMMENT
  2011    11    22     0     0    0.0000000     GPS         TIME OF FIRST OBS
                                                            END OF HEADER
 11 11 22  0  0  0.0000000  0 11G03G05G06G09G14G15G18G21G22G26G29
 126679317.031 6  98711243.05843  24106273.117
  24106281.207          38.800          19.000
 133174200.713 6 103772200.54244  25342188.141
  25342195.254          40.800          24.000
 126411931.472 7  98502867.34844  24055375.930
  24055383.375          43.700          29.600
 115582886.398 8  90064668.66546  21994678.203
  21994684.109          48.300          36.200
 131802940.888 5 102703479.63842  25081227.586
  25081234.789          33.400          16.900
 110194088.536 8  85865597.13847  20969195.547
  20969199.898          51.300          42.300
 111352427.117 8  86768162.19446  21189622.328
  21189626.590          50.100          40.600
 107396186.583 7  83685426.10446  20436780.414
  20436783.453          47.800          39.600
 124680489.470 7  97153717.80645  23725901.297
  23725905.664          46.000          30.400
 123424007.508 7  96174588.30944  23486748.898
  23486755.496          44.100          27.000
 128141611.105 6  99850595.75644  24384482.289
  24384489.934          41.500          28.100
 11 11 22  0  0 30.0000000  0 11G03G05G06G09G14G15G18G21G22G26G29
 126666200.697 6  98701022.64443  24103777.477
  24103785.699          40.900          19.900
 133257079.098 6 103836781.10143  25357959.844
  25357966.609          39.600          22.500
 126404241.128 7  98496874.90544  24053912.375
  24053919.461          42.400          28.900
 115495819.090 7  89996824.06345  21978109.906
  21978114.734          47.700          35.100
 131702682.334 5 102625356.38342  25062148.320
  25062156.113          31.800          16.900
 110252538.261 8  85911142.38047  20980318.141
  20980322.242          50.400          42.900
 111312829.255 8  86737306.74746  21182086.969
  21182090.863          50.500          39.500
 107375152.461 8  83669035.88646  20432777.680
  20432781.078          48.300          39.600
 124604296.043 7  97094346.39345  23711402.461
  23711406.230          46.300          30.400
 123536837.905 7  96262508.06844  23508219.422
  23508226.234          42.100          26.000
 128242386.633 6  99929122.08544  24403659.906
  24403667.219          41.400          26.600
 11 11 22  0  1  0.0000000  0 11G03G05G06G09G14G15G18G21G22G26G29
 126653635.764 6  98691231.84743  24101386.805
  24101393.902          39.600          19.600
 133339989.965 6 103901386.98443  25373736.742
  25373743.363          39.100          22.500
 126397051.639 7  98491272.78644  24052543.688
  24052551.621          42.200          28.800
 115409146.834 8  89929287.27945  21961616.320
  21961620.891          48.100          35.000
 131602542.825 5 102547325.73542  25043091.625
  25043100.383          32.000          16.900
 110311328.602 8  85956953.04847  20991505.594
  20991510.121          50.800          42.600
 111273392.880 8  86706577.13646  21174582.578
  21174586.238          50.700          39.800
 107354625.622 8  83653040.96646  20428871.336
  20428874.926          48.000          40.100
 124528149.513 7  97035011.51545  23696911.953
  23696915.305          45.800          30.800
 123649788.892 7  96350521.77044  23529714.516
  23529719.836          42.700          25.400
 128343129.104 6 100007622.67444  24422829.445
  24422837.531          40.900          27.400
 11 11 22  0  1 30.0000000  0 11G03G05G06G09G14G15G18G21G22G26G29
 126641622.025 6  98681870.62843  24099099.750
  24099107.844          40.900          20.600
 133422933.429 6 103966018.28543  25389519.563
  25389526.883          38.400          22.200
 126390362.555 7  98486060.53744  24051270.898
  24051278.676          42.400          29.800
 115322872.687 8  89862060.73446  21945199.016
  21945204.617          49.600          36.500
 131502523.380 5 102469388.65042  25024058.555
  25024067.016          35.500          15.600
 110370457.100 8  86003027.20847  21002757.203
  21002761.508          50.500          42.300
 111234118.449 8  86675973.72346  21167108.477
  21167112.895          50.300          39.700
 107334607.442 7  83637442.40246  20425062.367
  20425065.391          47.900          40.400
 124452049.833 7  96975713.16245  23682430.852
  23682433.602          44.300          31.300
 123762857.617 7  96438627.25844  23551230.500
  23551235.613          43.000          26.000
 128443835.639 7 100086095.24944  24441994.094
  24442000.742          42.900          25.800
 11 11 22  0  2  0.0000000  0 11G03G05G06G09G14G15G18G21G22G26G29
 126630159.281 6  98672938.66543  24096917.820
  24096927.730          39.200          19.000
 133505909.466 6 104030674.99043  25405309.469
  25405317.520          39.900          22.300
 126384173.520 7  98481237.95844  24050093.398
  24050100.430          42.400          28.200
 115237000.185 8  89795147.15546  21928858.266
  21928864.164          49.400          37.800
 131402625.247 6 102391546.11142  25005049.641
  25005056.840          38.700          17.800
 110429921.849 8  86049363.39147  21014073.125
  21014077.586          50.600          42.700
 111195006.611 8  86645496.99646  21159665.898
  21159670.246          49.700          40.500
 107315099.331 7  83622241.28946  20421349.633
  20421353.285          47.500          40.200
 124375997.432 7  96916451.64045  23667958.719
  23667962.152          45.800          31.400
 123876041.599 7  96526822.55444  23572769.438
  23572774.246          43.400          26.500
 128544503.534 7 100164537.73744  24461150.508
  24461157.328          42.600          25.800
 11 11 22  0  2 30.0000000  0 11G03G05G06G09G14G15G18G21G22G26G29
 126619246.953 6  98664435.66743  24094840.766
  24094850.309          40.200          19.600
 133588917.251 6 104095356.36543  25421105.906
  25421112.770          40.700          22.600
 126378483.869 7  98476804.53844  24049010.438
  24049016.945          43.200          29.000
 115151532.141 8  89728548.76846  21912594.195
  21912600.980          49.500          38.700
 131302849.361 6 102313798.80342  24986062.000
  24986069.348          36.500          16.900
 110489720.161 8  86095959.48547  21025452.344
  21025456.969          51.500          42.400
 111156057.419 8  86615146.99946  21152254.180
  21152258.641          50.200          40.300
 107296102.366 7  83607438.47546  20417734.867
  20417738.578          47.600          39.900
 124299992.336 7  96857226.95345  23653495.086
  23653498.469          44.300          31.300
 123989337.682 7  96615105.22244  23594328.438
  23594333.957          42.900          27.200
 128645129.549 7 100242947.60544  24480298.523
  24480305.965          42.100          26.000
 11 11 22  0  3  0.0000000  0 11G03G05G06G09G14G15G18G21G22G26G29
 126608885.347 6  98656361.79743  24092869.750
  24092878.379          39.600          18.600
 133671956.888 6 104160062.53543  25436907.320
  25436914.266          39.200          21.500
 126373293.771 7  98472760.33044  24048023.125
  24048029.945          42.700          29.400
 115066472.533 8  89662268.61546  21896407.672
  21896414.008          48.500          37.500
 131203197.759 5 102236148.39542  24967098.297
  24967106.078          33.800          16.300
 110549850.249 8  86142814.10447  21036894.828
  21036899.195          52.100          42.500
 111117272.370 8  86584924.92446  21144873.859
  21144877.887          50.600          40.800
 107277618.345 7  83593035.35846  20414217.414
  20414221.098          46.800          39.700
 124224035.126 7  96798039.59345  23639040.969
  23639044.777          46.300          32.300
 124102743.912 7  96703473.71143  23615907.961
  23615914.043          42.100          23.900
 128745711.558 7 100321323.15644  24499438.188
  24499446.363          42.000          25.800
 11 11 22  0  3 30.0000000  0 11G03G05G06G09G14G15G18G21G22G26G29
 126599074.073 6  98648716.72843  24091003.117
  24091010.516          40.500          19.000
 133755028.510 6 104224793.65843  25452716.023
  25452722.855          39.900          21.500
 126368602.500 7  98469104.86144  24047130.391
  24047137.023          43.200          29.100
 114981824.305 8  89596309.03346  21880299.555
  21880305.145          49.200          37.300
 131103671.726 6 102158595.83142  24948159.609
  24948166.918          37.700          16.900
 110610310.056 8  86189925.65147  21048399.828
  21048404.195          50.500          42.400
 111078651.088 8  86554830.45146  21137524.570
  21137528.430          50.200          40.800
 107259648.571 7  83579032.94546  20410798.102
  20410801.473          47.100          40.200
 124148126.128 7  96738889.84745  23624595.531
  23624599.297          46.500          32.300
 124216257.345 6  96791925.66344  23637510.211
  23637515.023          39.600          24.200
 128846246.319 6 100399661.91344  24518569.688
  24518577.121          41.400          25.600
 11 11 22  0  4  0.0000000  0 11G03G05G06G09G14G15G18G21G22G26G29
 126589813.506 6  98641500.79043  24089241.047
  24089248.617          39.900          19.000
 133838132.383 6 104289549.89343  25468529.828
  25468537.195          39.200          20.100
 126364410.172 7  98465838.14944  24046332.563
  24046339.434          43.300          29.800
 114897591.337 8  89530673.02146  21864270.586
  21864275.449          50.000          36.100
 131004272.921 6 102081142.35242  24929243.555
  24929252.301          37.100          16.300
 110671097.897 8  86237292.80547  21059967.148
  21059971.992          51.000          43.400
 111040194.752 8  86524864.50846  21130206.094
  21130210.645          50.300          40.700
 107242195.166 7  83565432.89946  20407476.477
  20407480.008          46.600          39.500
 124072266.240 7  96679778.32445  23610159.648
  23610162.953          47.000          31.900
 124329876.149 7  96880459.81844  23659130.820
  23659136.129          42.100          24.800
 128946731.807 7 100477962.23044  24537691.633
  24537699.117          43.100          25.600
 11 11 22  0  4 30.0000000  0 11G03G05G06G09G14G15G18G21G22G26G29
 126581101.945 6  98634712.64443  24087582.227
  24087590.867          40.400          18.600
 133921266.899 6 104354330.00443  25484349.813
  25484357.238          40.100          22.900
 126360714.919 6  98462958.79344  24045628.281
  24045635.957          41.600          26.500
 114813775.356 8  89465361.89846  21848321.023
  21848325.996          49.800          37.300
 130905001.260 5 102003787.97842  24910352.656
  24910360.941          32.000          14.800
 110732209.769 8  86284912.44747  21071596.531
  21071600.918          49.900          42.400
 111001902.708 8  86495026.58346  21122919.664
  21122923.590          50.500          39.900
 107225257.974 7  83552235.09646  20404253.633
  20404257.000          45.400          39.500
 123996454.815 7  96620704.59445  23595733.445
  23595737.102          46.600          31.800
 124443596.262 6  96969072.88244  23680770.586
  23680776.609          41.400          25.900
 129047164.007 6 100556221.07544  24556802.813
  24556810.965          41.400          26.800
 11 11 22  0  5  0.0000000  0 11G03G05G06G09G14G15G18G21G22G26G29
 126572940.468 6  98628353.13542  24086029.664
  24086037.496          38.900          17.800
 134004433.235 6 104419134.89143  25500175.141
  25500182.398          37.600          19.900
 126357517.528 6  98460467.38144  24045020.469
  24045028.555          41.900          27.000
 114730381.099 8  89400379.40646  21832451.891
  21832456.574          50.200          36.900
 130805859.427 5 101926534.93042  24891486.938
  24891494.719          34.300          16.300
 110793644.837 8  86332783.94047  21083287.258
  21083291.652          51.000          42.100
 110963776.927 8  86465318.21346  21115664.484
  21115668.570          50.700          40.700
 107208839.624 7  83539441.60046  20401129.094
  20401132.836          47.700          39.400
 123920692.257 7  96561668.90345  23581316.305
  23581319.641          46.700          31.700
 124557416.429 6  97057763.86444  23702430.008
  23702436.754          40.600          24.500
 129147541.581 6 100634437.32944  24575903.898
  24575912.023          41.500          24.800
 11 11 22  0  5 30.0000000  0 11G03G05G06G09G14G15G18G21G22G26G29
 126565328.764 6  98622422.02743  24084580.992
  24084589.496          41.600          19.000
 134087631.603 6 104483964.75043  25516007.531
  25516014.969          37.600          21.300
 126354817.645 7  98458363.63144  24044506.672
  24044513.672          42.000          26.400
 114647411.871 8  89335728.09946  21816662.953
  21816668.910          48.900          37.700
 130706848.851 5 101849383.98542  24872645.008
  24872654.109          35.800          16.300
 110855401.102 8  86380905.71847  21095038.992
  21095043.551          50.700          42.300
 110925817.855 8  86435739.74146  21108441.164
  21108445.023          50.500          40.700
 107192941.480 7  83527053.43746  20398104.000
  20398107.555          47.900          39.600
 123844979.229 7  96502671.86245  23566908.352
  23566912.789          46.700          30.900
 124671333.923 7  97146530.73644  23724107.656
  23724113.996          42.700          25.400
 129247861.218 6 100712608.40643  24594995.055
  24595003.363          41.800          22.900
 11 11 22  0  6  0.0000000  0 11G03G05G06G09G14G15G18G21G22G26G29
 126558266.047 6  98616918.67843  24083236.914
  24083244.461          39.900          18.600
 134170861.421 6 104548819.06743  25531845.828
  25531853.367          37.600          18.600
 126352614.334 6  98456646.83744  24044087.266
  24044094.324          40.400          26.900
 114564870.194 8  89271409.99146  21800955.422
  21800962.137          48.900          37.900
 130607970.509 6 101772336.08642  24853829.875
  24853837.500          37.200          17.400
 110917476.595 8  86429276.22847  21106851.922
  21106856.617          49.900          42.700
 110888025.256 8  86406291.00546  21101249.234
  21101253.473          50.500          41.400
 107177564.980 7  83515071.77046  20395177.781
  20395181.645          45.400          39.900
 123769316.100 7  96443713.70045  23552509.813
  23552513.773          45.300          31.000
 124785345.982 7  97235371.27244  23745803.891
  23745809.465          42.900          25.900
 129348120.396 7 100790732.46744  24614073.320
  24614082.195          43.000          25.300
 11 11 22  0  6 30.0000000  0 11G03G05G06G09G14G15G18G21G22G26G29
 126551752.231 6  98611843.02743  24081997.695
  24082005.633          40.100          19.900
 134254122.642 5 104613697.97742  25547689.766
  25547697.773          34.600          16.900
 126350907.259 6  98455316.71044  24043762.281
  24043769.750          40.500          25.300
 114482759.855 8  89207427.99846  21785329.828
  21785336.621          48.900          37.600
 130509226.104 6 101695392.59942  24835039.133
  24835046.469          39.300          17.400
 110979868.434 8  86477893.25947  21118724.703
  21118729.246          51.900          43.000
 110850400.675 8  86376973.17546  21094089.539
  21094093.691          50.800          41.200
 107162710.844 7  83503497.11946  20392351.289
  20392354.820          46.900          39.800
 123693703.455 7  96384794.86645  23538121.117
  23538125.004          45.800          30.900
 124899450.595 7  97324283.97444  23767517.031
  23767522.695          42.600          26.200
 129448316.317 7 100868807.15644  24633140.094
  24633148.273          44.000          26.500
 11 11 22  0  7  0.0000000  0 11G03G05G06G09G14G15G18G21G22G26G29
 126545785.820 6  98607193.95243  24080863.016
  24080870.125          40.900          19.000
 134337414.511 6 104678600.72143  25563540.211
  25563547.250          38.400          18.300
 126349695.298 6  98454372.33444  24043530.727
  24043539.359          39.100          24.700
 114401082.983 8  89143783.74546  21769787.359
  21769793.523          49.900          37.500
 130410615.733 6 101618553.42042  24816273.414
  24816280.754          37.800          17.400
 111042573.957 8  86526754.71447  21130656.914
  21130661.410          50.500          42.500
 110812943.214 8  86347785.56846  21086961.711
  21086965.945          50.300          41.200
 107148379.772 7  83492330.06946  20389624.078
  20389627.582          47.500          39.900
 123618140.635 7  96325914.86144  23523742.188
  23523746.055          44.600          29.100
 125013644.379 6  97413266.15243  23789246.766
  23789253.172          41.500          22.000
 129548445.430 7 100946829.75943  24652194.125
  24652202.465          42.200          22.200
 11 11 22  0  7 30.0000000  0 11G03G05G06G09G14G15G18G21G22G26G29
 126540367.217 6  98602971.72743  24079831.531
  24079839.016          37.400          21.100
 134420737.677 6 104743527.76743  25579396.008
  25579402.727          38.900          19.000
 126348978.290 6  98453813.75344  24043395.234
  24043402.824          38.900          24.600
 114319843.436 8  89080480.24446  21754328.594
  21754333.375          50.400          38.400
 130312141.675 6 101541820.62342  24797535.492
  24797542.020          37.700          13.900
 111105591.802 8  86575859.53146  21142648.563
  21142653.082          50.600          41.800
 110775654.507 8  86318729.47646  21079865.813
  21079870.043          50.700          41.300
 107134573.711 8  83481572.10846  20386996.977
  20387000.504          48.200          40.300
 123542628.480 7  96267074.32545  23509372.813
  23509376.414          44.100          30.400
 125127925.351 7  97502316.25444  23810993.406
  23811000.082          42.500          25.300
 129648505.752 7 101024798.81643  24671235.000
  24671241.602          43.300          21.300
 11 11 22  0  8  0.0000000  0 11G03G05G06G09G14G15G18G21G22G26G29
 126535496.223 6  98599176.25543  24078904.648
  24078911.734          39.400          20.400
 134504092.017 6 104808479.11942  25595257.578
  25595265.555          37.000          16.900
 126348756.067 6  98453640.62244  24043352.305
  24043360.129          38.200          24.300
 114239044.722 8  89017520.24146  21738953.305
  21738957.543          50.900          37.400
 130213805.274 6 101465195.00342  24778821.844
  24778828.879          37.500          15.600
 111168919.990 8  86625206.18147  21154699.672
  21154704.156          51.700          42.300
 110738535.265 8  86289805.42546  21072802.117
  21072806.430          51.100          41.700
 107121294.258 7  83471224.49246  20384469.727
  20384473.324          47.900          40.300
 123467167.464 7  96208273.63744  23495012.922
  23495015.859          44.400          27.400
 125242291.425 6  97591432.66744  23832757.508
  23832763.590          41.100          26.300
 129748494.873 7 101102712.40943  24690262.117
  24690268.727          44.100          22.500
 11 11 22  0  8 30.0000000  0 11G03G05G06G09G14G15G18G21G22G26G29
 126531172.010 6  98595806.72843  24078080.805
  24078089.047          40.200          19.600
 134587476.620 6 104873454.10842  25611125.742
  25611132.953          37.700          17.800
 126349027.227 6  98453851.97444  24043404.938
  24043412.000          41.100          26.100
 114158689.497 8  88954905.81546  21723661.883
  21723667.762          49.600          37.300
 130115607.210 6 101388677.19143  24760135.945
  24760142.477          39.200          18.300
 111232555.700 8  86674792.44547  21166809.148
  21166813.418          51.500          42.000
 110701585.275 8  86261013.24746  21065771.039
  21065775.508          50.700          41.700
 107108542.056 7  83461287.72946  20382043.133
  20382046.859          47.500          39.900
 123391757.271 7  96149512.56645  23480662.570
  23480666.637          44.700          30.400
 125356739.292 6  97680612.78744  23854536.117
  23854542.973          41.500          24.300
 129848409.302 7 101180567.77343  24709276.094
  24709281.945          44.000          21.800
 11 11 22  0  9  0.0000000  0 11G03G05G06G09G14G15G18G21G22G26G29
 126527395.192 6  98592863.85043  24077362.563
  24077370.559          41.600          21.800
 134670892.757 5 104938453.63442  25626998.508
  25627005.742          33.800          16.300
 126349792.046 6  98454447.98844  24043549.094
  24043557.254          38.500          24.900
 114078781.447 8  88892639.88146  21708455.547
  21708461.645          49.100          38.100
 130017549.614 6 101312268.83343  24741475.914
  24741482.883          38.900          18.600
 111296497.466 8  86724617.20247  21178976.922
  21178981.398          51.600          42.000
 110664806.410 8  86232354.42046  21058772.047
  21058775.945          51.300          41.900
 107096319.232 7  83451763.46446  20379717.289
  20379720.977          44.100          40.000
 123316399.561 7  96090792.37744  23466322.039
  23466325.883          44.900          28.600
 125471267.558 6  97769855.59643  23876329.992
  23876337.004          40.200          22.900
 129948247.428 7 101258363.66443  24728274.000
  24728280.969          44.100          20.900
 11 11 22  0  9 30.0000000  0 11G03G05G06G09G14G15G18G21G22G26G29
 126524164.411 6  98590346.38543  24076748.008
  24076754.793          40.100          18.600
 134754339.565 5 105003477.10142  25642877.234
  25642885.324          35.700          17.800
 126351049.528 6  98455427.89444  24043789.164
  24043796.152          41.400          27.600
 113999323.579 8  88830724.73446  21693335.305
  21693341.516          49.500          38.600
 129919633.548 6 101235970.73443  24722843.203
  24722849.289          39.200          19.600
 111360742.900 8  86774678.60146  21191202.383
  21191206.414          51.500          41.300
 110628198.587 8  86203828.86747  21051806.164
  21051810.285          50.800          42.000
 107084626.351 7  83442652.14046  20377492.688
  20377495.598          46.900          40.100
 123241093.790 7  96032112.65144  23451991.797
  23451995.230          43.400          28.900
 125585873.359 6  97859158.77743  23898138.922
  23898145.449          39.000          22.900
 130048006.164 7 101336097.69243  24747257.508
  24747264.848          42.300          19.600
 11 11 22  0 10  0.0000000  0 11G03G05G06G09G14G15G18G21G22G26G29
 126521479.018 6  98588253.95743  24076236.672
  24076243.902          40.800          19.300
 134837817.031 5 105068524.44742  25658763.313
  25658770.219          34.100          16.300
 126352798.785 6  98456790.98944  24044122.555
  24044128.477          41.700          26.200
 113920318.793 8  88769162.61746  21678301.242
  21678307.500          51.300          39.700
 129821859.989 6 101159783.70642  24704237.273
  24704243.352          39.400          17.400
 111425289.902 8  86824974.99146  21203485.328
  21203489.809          51.400          41.900
 110591762.201 8  86175436.91946  21044872.352
  21044875.930          50.200          41.600
 107073464.726 7  83433954.78246  20375368.016
  20375371.496          47.300          39.900
 123165840.517 7  95973473.80144  23437671.188
  23437675.074          46.600          28.400
 125700554.021 6  97948520.30243  23919961.695
  23919969.004          40.000          23.400
 130147682.823 6 101413767.83743  24766225.000
  24766233.496          39.500          20.400
 11 11 22  0 10 30.0000000  0 11G03G05G06G09G14G15G18G21G22G26G29
 126519338.712 7  98586586.21343  24075828.789
  24075837.434          42.300          19.300
 134921324.623 5 105133595.22942  25674652.094
  25674662.277          31.000          16.300
 126355039.312 7  98458536.89644  24044548.820
  24044555.691          42.000          27.900
 113841770.209 8  88707955.99646  21663354.180
  21663359.488          51.000          38.800
 129724230.400 6 101083708.76242  24685658.750
  24685665.082          40.300          17.800
 111490136.231 8  86875504.59447  21215825.125
  21215830.328          51.000          42.100
 110555498.127 8  86147179.22146  21037971.438
  21037975.504          50.100          41.900
 107062835.350 7  83425672.17546  20373345.531
  20373349.070          47.200          40.200
 123090640.022 7  95914876.09044  23423361.789
  23423364.410          46.600          28.900
 125815307.098 6  98037938.29944  23941798.578
  23941804.949          41.400          24.200
 130247274.643 6 101491371.83943  24785177.242
  24785186.469          40.900          22.500
 11 11 22  0 11  0.0000000  0 11G03G05G06G09G14G15G18G21G22G26G29
 126517742.906 7  98585342.88643  24075525.555
  24075532.578          43.000          18.600
 135004863.287 5 105198690.23542  25690551.914
  25690558.961          32.000          14.800
 126357770.582 6  98460665.15444  24045068.594
  24045075.961          41.500          28.100
 113763681.586 8  88647107.77146  21648494.078
  21648499.441          50.300          38.100
 129626746.563 6 101007747.46143  24667108.563
  24667114.871          39.600          18.600
 111555279.947 8  86926265.93946  21228221.102
  21228226.418          51.300          41.600
 110519407.398 8  86119056.60546  21031103.602
  21031107.527          50.200          41.600
 107052739.861 7  83417805.57446  20371424.203
  20371427.719          45.800          39.900
 123015493.063 7  95856320.08044  23409061.359
  23409065.047          47.000          29.400
 125930130.687 6  98127411.23944  23963648.500
  23963655.066          41.800          26.000
 130346779.313 6 101568907.89643  24804112.352
  24804120.297          41.200          20.400
 11 11 22  0 11 30.0000000  0 11G03G05G06G09G14G15G18G21G22G26G29
 126516690.739 7  98584523.06643  24075324.367
  24075332.813          42.700          19.300
 135088432.372 5 105263808.91642  25706454.781
  25706462.043          32.800          14.800
 126360991.329 6  98463174.88544  24045681.047
  24045687.914          39.400          26.500
 113686055.464 8  88586619.93046  21633722.430
  21633726.676          50.200          37.600
 129529409.132 6 100931900.29342  24648584.742
  24648591.219          37.600          17.800
 111620718.281 8  86977256.83347  21240673.875
  21240678.777          50.500          42.100
 110483490.047 8  86091069.09847  21024268.266
  21024272.750          50.300          42.100
 107043178.691 7  83410355.31846  20369604.656
  20369608.492          44.900          40.100
 122940399.510 7  95797805.68545  23394771.867
  23394774.996          46.500          30.700
 126045021.944 7  98216936.87344  23985511.461
  23985517.984          42.600          26.000
 130446193.708 7 101646373.60743  24823031.078
  24823036.004          42.000          18.300
 11 11 22  0 12  0.0000000  0 11G03G05G06G09G14G15G18G21G22G26G29
 126516181.343 7  98584126.23043  24075227.211
  24075234.336          42.600          19.000
 135172031.287 5 105328950.92042  25722362.719
  25722370.422          32.900          14.800
 126364700.969 7  98466065.56244  24046386.766
  24046393.699          42.100          26.000
 113608894.976 8  88526494.91446  21619038.664
  21619043.520          51.100          37.500
 129432219.109 6 100856167.90443  24630090.617
  24630096.453          40.700          19.300
 111686449.134 8  87028475.69247  21253182.359
  21253186.609          50.700          42.300
 110447746.972 8  86063217.36947  21017466.867
  21017471.090          48.700          42.300
 107034153.324 7  83403322.57546  20367887.688
  20367890.691          45.400          40.400
 122865359.538 7  95739333.04844  23380492.367
  23380495.000          47.100          29.900
 126159978.340 6  98306513.31944  24007386.922
  24007393.043          41.400          25.500
 130545515.088 6 101723766.85243  24841931.453
  24841936.785          40.400          18.300
 11 11 22  0 12 30.0000000  0 11G03G05G06G09G14G15G18G21G22G26G29
 126516215.074 7  98584152.58343  24075234.219
  24075241.398          42.600          19.900
 135255660.944 4 105394116.83242  25738273.805
  25738285.910          28.300          14.800
 126368899.204 6  98469336.93144  24047185.617
  24047192.973          41.800          25.400
 113532203.736 8  88466735.55246  21604444.938
  21604450.684          50.600          38.900
 129335178.335 6 100780551.82843  24611624.289
  24611629.977          40.600          21.100
 111752470.899 8  87079921.23547  21265746.242
  21265750.242          51.700          42.400
 110412178.541 8  86035501.73247  21010698.680
  21010702.281          49.600          42.000
 107025665.092 7  83396708.37946  20366271.508
  20366275.492          44.200          40.600
 122790374.280 7  95680903.04945  23366222.242
  23366225.539          47.200          31.200
 126274998.235 6  98396139.21144  24029275.133
  24029281.598          40.600          26.000
 130644741.346 6 101801085.97143  24860813.789
  24860820.777          37.800          21.300
 11 11 22  0 13  0.0000000  0 10G03G06G09G14G15G18G21G22G26G29
 126516790.890 7  98584601.30343  24075344.148
  24075351.625          43.500          19.600
 126373585.193 7  98472988.36344  24048077.922
  24048083.723          43.900          24.400
 113455984.438 8  88407343.95646  21589941.227
  21589947.617          51.300          39.400
 129238288.241 6 100705053.15043  24593186.602
  24593193.035          40.100          19.900
 111818781.619 8  87131591.94446  21278364.234
  21278368.496          51.600          41.300
 110376785.809 8  86007923.01247  21003963.344
  21003967.262          50.200          42.800
 107017715.219 7  83390513.69846  20364759.195
  20364763.176          46.200          40.100
 122715443.989 7  95622515.86345  23351963.867
  23351967.074          47.100          32.000
 126390079.090 6  98485812.58143  24051173.672
  24051180.723          39.600          22.800
 130743870.135 6 101878329.11443  24879675.211
  24879685.734          40.300          21.700
 11 11 22  0 13 30.0000000  0 10G03G06G09G14G15G18G21G22G26G29
 126517907.665 7  98585471.62043  24075557.203
  24075564.184          42.600          20.400
 126378757.718 7  98477018.96144  24049061.945
  24049068.523          43.400          25.100
 113380239.836 8  88348322.25246  21575527.766
  21575533.523          51.500          40.300
 129141549.714 6 100629672.61443  24574778.016
  24574784.785          39.400          20.600
 111885378.536 8  87183485.67446  21291037.117
  21291041.348          51.200          41.900
 110341568.957 8  85980481.33947  20997262.055
  20997265.695          50.400          42.000
 107010304.151 7  83384738.85446  20363348.891
  20363352.652          46.600          40.400
 122640568.770 7  95564171.62445  23337715.758
  23337719.238          46.800          32.100
 126505218.256 6  98575531.42543  24073084.359
  24073090.469          41.300          23.500
 130842898.334 6 101955493.94843  24898522.203
  24898528.398          41.700          20.100
 11 11 22  0 14  0.0000000  0 10G03G06G09G14G15G18G21G22G26G29
 126519564.895 7  98586763.01743  24075871.867
  24075879.340          43.400          19.000
 126384416.125 7  98481428.10844  24050139.188
  24050145.371          45.200          27.100
 113304973.328 8  88289673.08346  21561204.898
  21561210.664          50.300          39.200
 129044964.010 6 100554411.10843  24556398.742
  24556404.176          39.200          19.900
 111952259.713 8  87235600.89746  21303763.609
  21303768.543          50.900          40.300
 110306528.818 8  85953177.35447  20990593.930
  20990598.016          50.500          42.000
 107003433.200 7  83379384.88146  20362041.289
  20362045.086          46.400          39.900
 122565749.086 7  95505870.65745  23323477.664
  23323481.125          45.900          32.000
 126620413.508 7  98665293.99043  24095004.945
  24095011.547          42.500          22.900
 130941823.340 6 102032578.35642  24917345.000
  24917351.742          39.200          17.400
 11 11 22  0 14 30.0000000  0 10G03G06G09G14G15G18G21G22G26G29
 126521761.631 6  98588474.81043  24076289.242
  24076297.375          41.800          20.600
 126390559.220 7  98486214.98044  24051307.617
  24051313.711          43.800          24.000
 113230187.599 8  88231398.55646  21546973.367
  21546978.684          50.300          38.700
 128948532.275 6 100479269.64443  24538047.398
  24538053.297          39.400          21.100
 112019422.700 8  87287935.69046  21316544.570
  21316549.770          50.600          41.800
 110271665.899 8  85926011.46747  20983959.617
  20983963.766          50.300          42.500
 106997102.916 7  83374452.20646  20360836.656
  20360840.340          45.600          40.400
 122490984.985 7  95447612.99645  23309251.148
  23309254.121          45.700          32.100
 126735662.079 6  98755098.05343  24116935.391
  24116942.676          41.900          22.300
 131040642.266 5 102109579.95042  24936150.344
  24936157.402          34.000          17.800
 11 11 22  0 15  0.0000000  0 10G03G06G09G14G15G18G21G22G26G29
 126524497.977 7  98590607.06243  24076810.859
  24076817.559          44.100          21.700
 126397186.815 7  98491379.35944  24052569.180
  24052574.324          44.900          26.300
 113155886.009 8  88173501.28246  21532833.703
  21532838.410          49.500          37.200
 128852256.161 6 100404249.40043  24519727.016
  24519733.129          40.300          22.800
 112086865.903 8  87340488.84347  21329378.953
  21329383.820          51.600          42.000
 110236981.230 8  85898984.48546  20977359.234
  20977363.328          50.800          41.700
 106991315.158 7  83369942.27646  20359735.430
  20359739.070          43.900          40.000
 122416277.734 7  95389399.63245  23295034.398
  23295037.848          44.700          31.200
 126850962.498 6  98844942.51343  24138877.680
  24138883.602          41.600          22.900
 131139353.490 6 102186497.74143  24954934.172
  24954941.598          39.200          20.100
 11 11 22  0 15 30.0000000  0 10G03G06G09G14G15G18G21G22G26G29
 126527772.754 7  98593158.90143  24077433.555
  24077441.363          44.500          20.400
 126404297.817 7  98496920.46044  24053921.750
  24053929.215          43.900          25.100
 113082071.553 8  88115983.56746  21518787.164
  21518791.570          50.600          37.900
 128756136.705 6 100329351.24243  24501435.164
  24501441.906          38.400          21.800
 112154586.840 8  87393258.39846  21342265.938
  21342270.246          51.700          41.700
 110202475.350 8  85872096.81446  20970792.852
  20970797.078          50.200          41.800
 106986070.486 7  83365855.52346  20358738.039
  20358740.910          44.100          40.800
 122341627.292 7  95331230.56645  23280828.625
  23280831.316          46.200          30.700
 126966312.187 6  98934825.40643  24160827.773
  24160833.195          41.500          22.000
 131237954.074 6 102263329.34843  24973698.195
  24973704.926          41.800          23.400
 11 11 22  0 16  0.0000000  0 10G03G06G09G14G15G18G21G22G26G29
 126531584.901 7  98596129.42843  24078159.305
  24078165.961          43.800          19.900
 126411891.025 7  98502837.25844  24055366.773
  24055373.762          43.800          26.000
 113008747.116 8  88058847.66646  21504834.477
  21504839.281          51.600          38.600
 128660175.039 6 100254576.04143  24483174.789
  24483181.355          38.700          21.500
 112222583.686 8  87446242.97146  21355205.094
  21355209.641          51.500          41.700
 110168148.993 8  85845349.03246  20964261.289
  20964264.828          49.900          41.900
 106981369.939 8  83362192.77146  20357843.164
  20357846.633          48.000          40.400
 122267034.083 7  95273106.07045  23266634.063
  23266637.266          46.000          31.900
 127081708.752 6  99024744.76843  24182786.477
  24182793.344          41.200          22.800
 131336441.059 5 102340072.39343  24992439.016
  24992445.844          35.800          19.900
 11 11 22  0 16 30.0000000  0 10G03G06G09G14G15G18G21G22G26G29
 126535933.282 7  98599517.75543  24078987.031
  24078993.645          42.300          19.300
 126419965.286 7  98509128.96344  24056903.031
  24056909.633          44.800          25.900
 112935915.361 8  88002095.71246  21490975.211
  21490980.477          51.100          39.200
 128564371.962 6 100179924.45243  24464944.219
  24464950.090          40.000          22.500
 112290853.745 8  87499440.42846  21368196.031
  21368200.891          51.100          41.300
 110134002.363 8  85818741.29946  20957762.914
  20957766.734          50.300          41.600
 106977213.884 7  83358954.30346  20357052.297
  20357055.598          45.100          40.500
 122192498.036 7  95215026.13145  23252449.984
  23252453.098          45.700          31.400
 127197149.520 7  99114698.60943  24204755.383
  24204760.656          42.100          22.300
 131434812.044 6 102416724.96843  25011159.203
  25011166.137          40.000          19.900
 11 11 22  0 17  0.0000000  0 10G03G06G09G14G15G18G21G22G26G29
 126540817.690 7  98603323.87243  24079916.469
  24079924.004          42.500          22.000
 126428520.488 7  98515795.38844  24058530.922
  24058537.297          45.000          26.000
 112863580.139 8  87945730.64846  21477210.203
  21477215.988          51.000          40.000
 128468729.367 6 100105397.88243  24446743.695
  24446749.473          40.400          22.000
 112359395.710 8  87552849.75446  21381239.070
  21381244.023          50.400          41.000
 110100037.163 8  85792274.93147  20951299.961
  20951303.504          50.500          42.300
 106973604.163 7  83356141.54946  20356365.383
  20356368.543          46.400          40.800
 122118020.539 7  95156991.81745  23238277.547
  23238280.668          44.500          30.200
 127312633.164 6  99204685.83443  24226730.367
  24226736.387          41.600          22.900
 131533065.006 6 102493285.63943  25029855.430
  25029863.949          38.500          20.600
 11 11 22  0 17 30.0000000  0 10G03G06G09G14G15G18G21G22G26G29
 126546236.995 7  98607546.70943  24080947.492
  24080955.125          42.700          20.600
 126437554.893 7  98522835.23544  24060249.953
  24060256.941          43.400          26.800
 112791743.446 8  87889754.06546  21463539.836
  21463545.797          51.600          39.500
 128373247.986 6 100030996.92643  24428573.727
  24428580.082          40.300          22.300
 112428206.710 8  87606468.71946  21394333.516
  21394338.359          50.000          40.700
 110066252.813 8  85765949.48647  20944870.945
  20944874.773          49.300          42.200
 106970541.049 7  83353754.71046  20355781.953
  20355785.578          44.700          40.200
 122043601.120 7  95099002.72845  23224116.359
  23224119.461          46.800          31.300
 127428156.624 7  99294704.08844  24248714.227
  24248719.266          42.100          25.800
 131631196.402 6 102569751.66943  25048529.867
  25048537.184          37.600          19.900
 11 11 22  0 18  0.0000000  0 10G03G06G09G14G15G18G21G22G26G29
 126552190.472 7  98612185.85343  24082080.281
  24082087.703          43.300          21.800
 126447067.956 7  98530248.03544  24062061.359
  24062067.211          44.500          28.000
 112720408.490 8  87834168.46946  21449964.891
  21449971.164          50.600          39.400
 128277929.230 6  99956722.74043  24410434.914
  24410441.727          38.400          22.200
 112497285.004 8  87660295.96246  21407479.313
  21407483.316          51.200          41.600
 110032650.975 8  85739766.26147  20938476.563
  20938480.117          49.800          42.600
 106968025.665 7  83351794.69346  20355303.750
  20355306.809          46.600          40.900
 121969240.712 7  95041059.64545  23209965.133
  23209968.551          46.700          31.500
 127543718.310 7  99384752.11143  24270704.414
  24270710.367          42.100          23.200
 131729204.353 6 102646121.50343  25067179.641
  25067186.848          39.400          21.800
 11 11 22  0 18 30.0000000  0 10G03G06G09G14G15G18G21G22G26G29
 126558676.608 7  98617240.03943  24083313.813
  24083321.949          42.100          20.100
 126457058.182 7  98538032.67544  24063961.172
  24063968.039          44.500          27.900
 112649578.105 8  87778976.04046  21436485.992
  21436491.805          51.600          38.700
 128182774.106 6  99882576.05243  24392327.828
  24392333.453          38.800          20.600
 112566628.046 8  87714329.52246  21420674.625
  21420679.668          51.500          41.600
 109999231.796 8  85713725.37846  20932117.328
  20932120.578          50.300          41.800
 106966058.467 7  83350261.82046  20354929.273
  20354932.461          44.200          40.800
 121894939.434 7  94983162.63045  23195826.680
  23195829.184          46.200          31.400
 127659315.354 6  99474827.73543  24292701.906
  24292707.535          41.800          22.900
 131827086.092 6 102722392.88043  25085806.305
  25085814.012          37.700          21.700
 11 11 22  0 19  0.0000000  0 10G03G06G09G14G15G18G21G22G26G29
 126565695.581 6  98622709.43543  24084649.609
  24084657.086          40.300          19.900
 126467525.764 7  98546189.28244  24065954.234
  24065960.320          43.200          26.800
 112579256.148 8  87724179.75946  21423105.227
  21423109.730          50.300          38.500
 128087784.725 6  99808558.44743  24374252.086
  24374257.984          39.000          21.800
 112636234.916 8  87768568.63547  21433920.117
  21433925.637          50.900          42.100
 109965997.138 8  85687828.26446  20925792.703
  20925796.543          49.700          41.800
 106964641.344 7  83349157.58046  20354659.781
  20354662.832          46.700          39.700
 121820698.657 7  94925312.74045  23181698.797
  23181701.211          45.600          31.200
 127774946.855 6  99564930.24243  24314706.266
  24314711.199          41.600          22.000
 131924840.263 5 102798564.86443  25104407.688
  25104416.875          34.400          19.000
 11 11 22  0 19 30.0000000  0 10G03G06G09G14G15G18G21G22G26G29
 126573244.999 7  98628592.17943  24086086.984
  24086093.563          43.400          19.000
 126478467.974 6  98554715.71744  24068035.430
  24068042.277          41.900          27.400
 112509444.216 8  87669780.90046  21409820.078
  21409824.457          52.300          39.200
 127992960.783 6  99734669.80243  24356207.836
  24356213.250          39.400          21.700
 112706102.011 8  87823010.50846  21447215.539
  21447219.605          50.000          41.200
 109932945.801 8  85662074.00746  20919503.422
  20919507.035          50.500          41.300
 106963773.789 7  83348481.56546  20354494.594
  20354497.980          47.000          40.500
 121746517.751 8  94867509.51145  23167582.641
  23167585.660          48.700          33.100
 127890608.869 6  99655056.51443  24336715.281
  24336721.352          41.300          22.600
 132022462.594 5 102874634.13742  25122983.070
  25122992.844          31.200          16.900
 11 11 22  0 20  0.0000000  0 10G03G06G09G14G15G18G21G22G26G29
 126581324.621 6  98634888.06143  24087623.570
  24087630.617          41.300          19.000
 126489884.738 7  98563611.95144  24070207.688
  24070215.000          42.100          27.500
 112440146.050 8  87615782.34546  21396633.352
  21396637.730          51.200          39.300
 127898304.396 6  99660911.71043  24338194.883
  24338200.176          37.400          22.200
 112776227.811 8  87877654.00346  21460560.336
  21460564.859          51.100          40.900
 109900079.607 8  85636464.00746  20913249.023
  20913253.027          50.800          41.600
 106963457.252 7  83348234.92746  20354434.281
  20354438.027          47.100          40.100
 121672397.496 8  94809753.52845  23153478.266
  23153480.973          48.900          33.100
 128006300.049 7  99745205.46843  24358731.125
  24358736.750          42.000          22.900
 132119951.513 6 102950599.47743  25141536.914
  25141543.984          38.800          21.500
 11 11 22  0 20 30.0000000  0 10G03G06G09G14G15G18G21G22G26G29
 126589933.831 6  98641596.56143  24089261.031
  24089269.293          41.400          19.000
 126501775.105 6  98572877.20844  24072470.664
  24072477.301          41.400          26.600
 112371364.399 8  87562186.28846  21383544.633
  21383549.387          50.800          39.200
 127803816.871 6  99587285.22143  24320214.328
  24320220.059          38.500          22.500
 112846610.569 8  87932497.71746  21473953.273
  21473958.109          50.300          40.900
 109867399.746 8  85610999.20546  20907030.430
  20907033.832          49.700          41.600
 106963692.819 7  83348418.49346  20354478.891
  20354482.855          46.600          40.300
 121598338.726 8  94752045.46945  23139385.125
  23139387.500          48.500          33.900
 128122018.560 6  99835375.75643  24380751.039
  24380756.594          41.400          20.400
 132217304.737 6 103026459.10343  25160062.633
  25160070.395          36.200          22.500
 11 11 22  0 21  0.0000000  0 10G03G06G09G14G15G18G21G22G26G29
 126599070.704 6  98648716.29443  24091000.406
  24091008.020          41.400          19.600
 126514136.892 6  98582509.82444  24074822.609
  24074830.559          38.900          26.600
 112303101.280 8  87508994.33246  21370553.570
  21370559.621          50.300          39.700
 127709498.268 6  99513790.31443  24302266.102
  24302272.098          37.700          21.700
 112917247.268 8  87987539.29146  21487395.078
  21487399.918          50.700          41.000
 109834905.476 8  85585679.01746  20900846.930
  20900849.957          50.800          41.100
 106964480.271 7  83349032.09746  20354628.789
  20354632.551          45.800          40.900
 121524340.841 8  94694384.83345  23125303.570
  23125306.133          48.200          33.500
 128237761.327 6  99925564.94843  24402777.164
  24402782.102          41.300          21.100
 132314518.908 6 103102210.32743  25178561.688
  25178569.605          38.600          22.600
 11 11 22  0 21 30.0000000  0 10G03G06G09G14G15G18G21G22G26G29
 126608734.613 7  98656246.66543  24092839.492
  24092846.973          42.000          19.000
 126526969.921 6  98592509.64244  24077265.289
  24077272.441          39.300          26.500
 112235360.386 8  87456209.29746  21357662.891
  21357669.289          49.400          39.800
 127615350.703 6  99440428.68343  24284350.281
  24284356.621          38.300          23.400
 112988136.518 8  88042777.68646  21500884.906
  21500888.680          50.600          40.400
 109802598.662 8  85560504.90546  20894698.883
  20894702.574          50.000          41.200
 106965821.242 7  83350077.01446  20354884.078
  20354887.844          46.000          40.500
 121450405.531 8  94636773.00145  23111234.430
  23111236.867          48.100          33.800
 128353526.971 6 100015771.95243  24424805.250
  24424810.887          38.100          19.000
 132411592.333 6 103177851.91543  25197033.805
  25197042.828          38.400          22.600
 11 11 22  0 22  0.0000000  0 10G03G06G09G14G15G18G21G22G26G29
 126618924.931 6  98664187.19343  24094778.328
  24094785.574          41.000          20.400
 126540273.349 6  98602875.96844  24079797.203
  24079803.457          38.600          25.700
 112168144.609 8  87403833.42746  21344872.242
  21344878.223          50.200          40.300
 127521375.575 6  99367201.43143  24266466.508
  24266473.395          37.100          22.500
 113059276.636 8  88098211.56546  21514422.117
  21514426.730          51.100          40.700
 109770480.270 8  85535477.61646  20888587.344
  20888590.625          49.700          40.700
 106967716.526 7  83351553.86846  20355245.141
  20355248.219          46.700          40.900
 121376533.374 8  94579210.33445  23097176.563
  23097179.070          48.100          33.300
 128469313.825 6 100105995.43043  24446840.148
  24446844.277          37.500          19.000
 132508523.004 6 103253382.25743  25215479.453
  25215487.328          37.000          22.000
 11 11 22  0 22 30.0000000  0 10G03G06G09G14G15G18G21G22G26G29
 126629639.787 7  98672536.51143  24096817.484
  24096824.539          43.800          19.900
 126554045.206 6  98613607.33544  24082417.211
  24082423.824          38.600          25.200
 112101456.016 8  87351868.34646  21332181.992
  21332187.473          50.100          39.900
 127427573.055 6  99294108.59743  24248617.977
  24248623.441          37.600          22.500
 113130664.591 8  88153838.54546  21528007.430
  21528012.262          50.600          41.300
 109738550.445 8  85510597.25746  20882510.523
  20882514.660          49.100          41.300
 106970166.025 7  83353462.57246  20355710.883
  20355714.164          47.300          41.100
 121302723.996 8  94521696.58245  23083131.258
  23083133.754          48.300          34.100
 128585118.740 6 100196233.02143  24468876.047
  24468881.387          36.900          18.300
 132605307.456 6 103328798.63143  25233897.180
  25233904.430          38.300          20.900
 11 11 22  0 23  0.0000000  0 10G03G06G09G14G15G18G21G22G26G29
 126640878.699 7  98681294.21543  24098956.539
  24098964.227          44.600          21.700
 126568284.754 6  98624703.14044  24085126.883
  24085134.059          38.600          24.700
 112035298.137 8  87300316.80446  21319592.992
  21319597.734          50.900          40.200
 127333945.073 5  99221151.81543  24230800.469
  24230806.613          35.100          22.800
 113202299.228 8  88209657.73146  21541638.313
  21541644.023          50.300          40.600
 109706810.413 8  85485864.79146  20876470.836
  20876474.492          49.100          41.100
 106973171.162 7  83355804.25746  20356283.219
  20356285.754          47.900          40.600
 121228978.668 8  94464232.75745  23069097.813
  23069100.535          48.500          33.800
 128700940.338 6 100286483.62443  24490915.695
  24490921.547          36.000          18.300
 132701944.028 6 103404099.84643  25252286.430
  25252293.285          38.100          22.300
 11 11 22  0 23 30.0000000  0 10G03G06G09G14G15G18G21G22G26G29
 126652640.088 7  98690458.97943  24101194.492
  24101201.504          43.300          21.300
 126582990.642 6  98636162.30743  24087925.211
  24087932.035          37.700          23.500
 111969673.318 8  87249180.61446  21307104.977
  21307108.688          50.900          39.800
 127240492.580 5  99148331.76943  24213016.883
  24213023.254          35.000          22.500
 113274178.093 8  88265667.23246  21555316.320
  21555321.293          50.200          39.500
 109675260.377 8  85461280.36346  20870467.250
  20870470.926          50.100          41.400
 106976732.311 7  83358579.17846  20356960.773
  20356963.438          47.300          40.500
 121155297.346 7  94406818.79445  23055076.609
  23055080.211          47.800          35.100
 128816776.141 6 100376745.29442  24512958.984
  24512963.668          37.200          17.800
 132798429.942 6 103479283.59944  25270646.328
  25270655.332          39.700          24.900
 11 11 22  0 24  0.0000000  0 10G03G06G09G14G15G18G21G22G26G29
 126664923.410 7  98700030.42043  24103532.250
  24103538.156          43.200          22.000
 126598162.185 6  98647984.33943  24090811.727
  24090819.539          37.800          22.800
 111904584.832 8  87198462.35546  21294718.836
  21294723.566          49.700          39.600
 127147216.772 6  99075649.40343  24195266.078
  24195272.543          36.200          21.800
 113346299.098 8  88321865.42946  21569040.969
  21569044.953          51.200          40.300
 109643901.874 8  85436845.19446  20864499.633
  20864503.293          49.300          40.900
 106980850.426 8  83361788.10746  20357744.414
  20357746.793          49.300          40.600
 121081681.093 8  94349455.56445  23041068.188
  23041071.176          48.000          34.800
 128932624.542 6 100467016.80442  24535003.641
  24535009.359          37.000          17.800
 132894763.156 6 103554348.45843  25288978.859
  25288986.754          38.300          20.600
 11 11 22  0 24 30.0000000  0 10G03G06G09G14G15G18G21G22G26G29
 126677726.203 6  98710006.68643  24105967.977
  24105975.574          41.800          22.000
 126613796.875 6  98660167.23243  24093788.016
  24093794.219          37.800          22.200
 111840034.350 8  87148163.32846  21282435.016
  21282439.910          48.800          39.200
 127054117.865 6  99003104.84443  24177551.391
  24177556.199          38.200          22.000
 113418659.267 8  88378249.98146  21582810.586
  21582814.832          51.100          40.100
 109612734.457 8  85412558.92146  20858568.750
  20858572.313          49.100          41.300
 106985525.011 7  83365430.65746  20358633.422
  20358636.988          47.600          40.400
 121008129.227 7  94292142.49645  23027071.328
  23027074.609          47.500          34.600
 129048482.363 6 100557295.57243  24557051.125
  24557057.414          36.100          18.300
 132990940.347 6 103629291.63544  25307281.188
  25307288.258          40.900          24.300
 11 11 22  0 25  0.0000000  0 10G03G06G09G14G15G18G21G22G26G29
 126691047.982 6  98720387.33943  24108503.023
  24108510.574          41.800          21.500
 126629894.035 6  98672710.53243  24096850.625
  24096857.613          39.100          22.900
 111776024.985 8  87098285.97146  21270253.742
  21270259.813          48.500          39.800
 126961197.447 6  98930699.37243  24159868.727
  24159874.492          38.300          22.300
 113491257.215 8  88434819.85146  21596625.109
  21596629.684          51.100          40.400
 109581759.526 8  85388422.61746  20852674.383
  20852677.965          49.300          40.900
 106990756.878 7  83369507.44046  20359629.219
  20359632.617          44.300          40.900
 120934642.977 7  94234880.56245  23013087.117
  23013090.301          47.800          34.100
 129164348.133 5 100647580.57442  24579099.219
  24579104.984          35.000          17.400
 133086959.565 6 103704111.78044  25325552.680
  25325559.859          39.500          24.300
 11 11 22  0 25 30.0000000  0 10G03G06G09G14G15G18G21G22G26G29
 126704887.573 6  98731171.51943  24111136.648
  24111143.633          41.400          22.500
 126646452.646 6  98685613.37843  24100001.016
  24100007.941          38.600          22.900
 111712559.541 8  87048832.44546  21258177.477
  21258182.926          48.900          40.100
 126868456.905 6  98858434.10743  24142220.328
  24142226.313          38.400          22.500
 113564091.210 8  88491573.62646  21610484.836
  21610489.676          50.300          39.800
 109550977.718 8  85364436.82746  20846816.516
  20846820.816          48.800          41.100
 106996547.329 8  83374019.49246  20360731.172
  20360734.605          49.100          40.400
 120861223.119 8  94177670.34245  22999116.070
  22999119.203          48.000          35.000
 129280220.125 5 100737870.33142  24601149.852
  24601155.254          35.600          16.300
 133182818.545 6 103778807.12243  25343793.352
  25343801.434          37.400          22.300
 11 11 22  0 26  0.0000000  0 10G03G06G09G14G15G18G21G22G26G29
 126719244.246 6  98742358.56143  24113869.125
  24113875.695          41.200          21.800
 126663471.839 6  98698875.17343  24103239.695
  24103247.164          39.200          22.900
 111649641.374 8  86999805.35946  21246204.211
  21246210.133          49.900          41.300
 126775897.935 6  98786310.30643  24124607.609
  24124613.137          39.500          22.500
 113637159.724 8  88548510.13546  21624389.453
  21624394.047          48.200          39.400
 109520390.669 7  85340602.78746  20840996.219
  20840999.934          47.800          41.300
 107002897.428 7  83378967.62346  20361939.711
  20361942.801          44.900          41.000
 120787870.527 8  94120512.55345  22985157.148
  22985159.883          49.600          35.400
 129396096.735 5 100828163.82942  24623200.008
  24623206.613          34.500          14.800
 133278515.727 6 103853376.27143  25362004.117
  25362012.195          36.400          22.200
 11 11 22  0 26 30.0000000  0 10G03G06G09G14G15G18G21G22G26G29
 126734115.631 6  98753946.71643  24116697.922
  24116706.402          40.400          23.400
 126680949.246 6  98712493.95543  24106564.148
  24106573.336          37.700          22.500
 111587271.907 8  86951205.82746  21234335.711
  21234341.309          50.700          41.600
 126683520.467 6  98714327.94543  24107028.727
  24107033.871          39.000          22.800
 113710459.306 8  88605626.67446  21638338.227
  21638342.879          50.200          40.800
 109489997.950 8  85316920.16846  20835212.750
  20835216.340          48.000          40.900
 107009806.277 8  83384351.15946  20363254.484
  20363257.398          48.800          41.100
 120714584.826 8  94063406.88545  22971211.711
  22971214.676          48.400          35.700
 129511974.833 5                  24645251.555
                        32.400
 133374047.680 6 103927816.66343  25380182.969
  25380191.836          37.900          22.800
 11 11 22  0 27  0.0000000  0 10G03G06G09G14G15G18G21G22G26G29
 126749500.871 6  98765935.22043  24119626.055
  24119634.113          41.400          22.600
 126698884.250 6  98726469.29743  24109977.672
  24109985.242          37.100          21.700
 111525454.239 8  86903036.26046  21222572.313
  21222577.770          50.200          40.600
 126591326.426 6  98642488.50543  24089484.875
  24089489.887          39.200          22.800
 113783988.761 8  88662922.37446  21652330.086
  21652334.563          50.200          40.200
 109459801.095 8  85293390.17046  20829466.141
  20829470.176          48.300          40.800
 107017275.169 8  83390171.07446  20364675.586
  20364678.746          48.400          40.100
 120641367.008 7  94006354.11245  22957278.930
  22957281.637          47.500          34.600
 129627852.978 5                  24667302.492
                        35.600
 133469412.602 6 104002126.96044  25398330.016
  25398339.652          39.900          25.200
 11 11 22  0 27 30.0000000  0 10G03G06G09G14G15G18G21G22G26G29
 126765398.760 6  98778323.30243  24122650.750
  24122658.879          40.400          21.500
 126717275.290 6  98740800.05343  24113477.516
  24113484.957          37.000          21.100
 111464191.354 8  86855298.98946  21210914.453
  21210919.605          50.300          41.100
 126499316.283 6  98570792.43943  24071975.273
  24071981.223          40.700          23.600
 113857745.891 8  88720395.45946  21666365.594
  21666370.789          50.100          40.200
 109429800.581 8  85270013.17446  20823757.500
  20823761.371          49.700          40.700
 107025304.154 7  83396427.43446  20366203.164
  20366206.691          45.300          40.900
 120568217.561 7  93949354.61245  22943358.938
  22943361.449          47.500          34.800
 129743729.256 6                  24689352.422
                        36.900
 133564607.618 6 104076304.89743  25416445.875
  25416453.176          37.300          20.400
 11 11 22  0 28  0.0000000  0 10G03G06G09G14G15G18G21G22G26G29
 126781808.080 6  98791109.78143  24125774.234
  24125781.230          41.400          22.300
 126736121.117 6  98755485.12843  24117064.383
  24117071.414          38.600          22.500
 111403485.642 8  86807995.88546  21199362.125
  21199367.211          49.800          40.700
 126407491.399 6  98499240.68543  24054501.141
  24054507.195          39.200          22.600
 113931728.651 8  88778044.36346  21680444.430
  21680448.637          49.300          39.600
 109399997.422 8  85246789.95046  20818086.336
  20818089.594          48.500          41.500
 107033894.128 8  83403120.92746  20367837.961
  20367841.324          48.100          40.400
 120495136.972 8  93892408.74045  22929452.109
  22929454.348          48.700          35.400
 129859601.406 5 101189079.46242  24711402.477
  24711408.266          35.000          16.300
 133659630.768 6 104150348.83443  25434529.055
  25434536.148          40.800          21.800
 11 11 22  0 28 30.0000000  0 10G03G06G09G14G15G18G21G22G26G29
 126798726.934 6  98804293.36143  24128993.133
  24129000.895          40.500          21.800
 126755419.711 6  98770523.03543  24120736.977
  24120743.980          36.400          23.200
 111343339.172 8  86761128.55346  21187916.836
  21187921.309          50.400          40.100
 126315852.231 6  98427833.62643  24037063.430
  24037068.996          40.100          23.000
 114005934.540 8  88835867.16246  21694564.750
  21694569.027          48.400          39.300
 109370391.919 8  85223720.74546  20812452.898
  20812456.227          50.500          41.100
 107043044.782 7  83410251.31046  20369579.219
  20369582.551          44.800          40.400
 120422125.387 7  93835516.65545  22915558.695
  22915560.699          47.800          34.500
 129975467.280 5 101279364.39942  24733451.641
  24733456.281          34.900          13.900
 133754479.084 6 104224256.53542  25452576.953
  25452586.016          37.600          17.400
 11 11 22  0 29  0.0000000  0 10G03G06G09G14G15G18G21G22G26G29
 126816154.665 6  98817873.44843  24132309.734
  24132316.863          40.200          22.800
 126775170.631 6  98785913.40443  24124495.406
  24124502.012          37.100          22.600
 111283755.493 8  86714699.75646  21176578.203
  21176582.941          50.500          40.300
 126224400.748 6  98356572.88043  24019660.875
  24019666.117          38.900          22.000
 114080362.207 7  88893862.73346  21708728.219
  21708732.559          47.600          39.200
 109340985.706 8  85200806.83646  20806856.109
  20806859.938          50.000          41.400
 107052757.619 7  83417819.76646  20371427.406
  20371431.227          46.900          41.100
 120349184.561 7  93778679.70645  22901678.313
  22901680.305          47.900          34.400
 130091325.721 5                  24755498.008
                        31.900
 133849151.680 6 104298027.43242  25470592.883
  25470600.852          38.400          17.800
 11 11 22  0 29 30.0000000  0 10G03G06G09G14G15G18G21G22G26G29
 126834089.613 6  98831848.78743  24135722.539
  24135729.945          41.700          22.200
 126795371.990 6  98801654.77843  24128339.977
  24128346.258          40.300          23.300
 111224736.558 8  86668711.03046  21165346.977
  21165352.211          51.000          40.500
 126133137.655 6  98285458.89743  24002293.227
  24002299.070          39.800          23.500
 114155009.297 8  88952029.30146  21722933.555
  21722938.047          48.700          40.600
 109311779.003 8  85178048.38246  20801298.711
  20801302.094          49.700          41.200
 107063032.303 8  83425826.02646  20373382.383
  20373386.359          48.000          40.500
 120276314.232 7  93721897.70445  22887811.617
  22887813.625          46.800          34.300
 130207174.413 5                  24777542.125
                        32.300
 133943645.330 6 104371658.80643  25488575.563
  25488583.266          38.900          22.500
 11 11 22  0 30  0.0000000  0 10G03G06G09G14G15G18G21G22G26G29
 126852530.150 6  98846218.08443  24139231.711
  24139239.164          41.100          22.600
 126816022.042 6  98817745.78143  24132268.164
  24132276.262          39.700          22.200
 111166284.507 8  86623164.01046  21154223.984
  21154229.539          51.100          40.800
 126042063.742 6  98214492.29043  23984962.336
  23984968.262          40.600          21.800
 114229874.062 8  89010365.48746  21737179.688
  21737184.348          49.600          40.500
 109282772.608 8  85155445.99846  20795779.172
  20795782.805          49.000          41.100
 107073869.097 7  83434270.28346  20375444.523
  20375447.867          47.700          40.600
 120203514.874 7  93665171.01845  22873957.680
  22873960.824          46.600          33.000
 130323011.081 5                  24799586.703
                        31.300
 134037957.811 5 104445148.98042  25506522.133
  25506530.148          35.400          17.800
 11 11 22  0 30 30.0000000  0 11G03G06G09G14G15G18G19G21G22G26G29
 126871475.118 6  98860980.46343  24142836.844
  24142844.430          41.300          22.300
 126837119.994 6  98834185.78143  24136282.219
  24136290.430          38.400          22.900
 111108402.461 8  86578061.15246  21143210.148
  21143215.191          51.100          41.300
 125951180.569 6  98143674.33943  23967667.313
  23967674.363          39.600          22.600
 114304954.466 8  89068869.71246  21751466.656
  21751471.016          49.100          39.400
 109253967.761 8  85133000.69446  20790297.414
  20790301.176          49.400          41.100
 133458418.439 6 103993605.55642  25396294.984
  25396300.902          36.000          17.400
 107085269.135 7  83443153.43446  20377614.031
  20377617.723          47.900          40.600
 120130787.806 7  93608500.65245  22860117.586
  22860121.410          46.200          33.500
 130438834.584 5                  24821625.805
                        30.100
 134132087.627 6 104518496.81843  25524434.172
  25524441.844          38.300          21.100
 11 11 22  0 31  0.0000000  0 11G03G06G09G14G15G18G19G21G22G26G29
 126890921.685 6  98876133.68543  24146537.328
  24146545.035          41.100          21.700
 126858663.111 6  98850972.66344  24140382.281
  24140390.578          40.800          24.500
 111051091.690 8  86533403.45447  21132303.875
  21132309.438          50.300          42.000
 125860487.967 6  98073004.89443  23950409.203
  23950415.391          39.600          22.300
 114380247.288 8  89127539.43546  21765794.391
  21765799.746          49.100          40.100
 109225364.265 8  85110712.27346  20784854.500
  20784858.309          49.400          41.100
 133409216.744 6 103955266.69343  25386932.266
  25386938.098          36.400          18.300
 107097231.232 7  83452474.54846  20379890.148
  20379893.914          47.900          40.300
 120058132.098 7  93551885.88645  22846292.055
  22846295.250          45.200          32.300
 130554641.389 5                  24843663.570
                        33.500
 134226030.808 5 104591699.24142  25542310.344
  25542318.504          35.200          17.800
 11 11 22  0 31 30.0000000  0 11G03G06G09G14G15G18G19G21G22G26G29
 126910870.300 6  98891678.14943  24150332.984
  24150340.340          40.900          22.200
 126880651.620 6  98868106.55543  24144567.734
  24144574.789          41.100          23.300
 110994356.337 8  86489194.11646  21121507.961
  21121512.895          51.700          41.400
 125769988.428 6  98002485.89043  23933187.898
  23933193.934          40.100          22.800
 114455752.518 8  89186374.65646  21780162.453
  21780168.230          49.200          40.200
 109196964.541 8  85088582.62346  20779450.180
  20779454.059          48.600          41.200
 133360474.890 5 103917286.13942  25377656.719
  25377662.996          35.300          15.600
 107109757.094 8  83462234.96546  20382273.906
  20382277.531          48.100          40.800
 119985550.122 7  93495328.56545  22832480.750
  22832483.109          45.600          32.800
 130670431.482 5                  24865696.844
                        30.800
 134319787.389 5 104664756.19042  25560151.828
  25560160.301          34.300          16.900
 11 11 22  0 32  0.0000000  0 11G03G06G09G14G15G18G19G21G22G26G29
 126931318.473 6  98907611.81243  24154224.578
  24154231.719          41.500          22.600
 126903082.918 6  98885585.59243  24148836.391
  24148842.797          40.600          23.500
 110938197.622 8  86445434.14346  21110820.570
  21110825.695          50.000          40.400
 125679682.048 6  97932117.35043  23916002.523
  23916008.980          39.100          22.000
 114531466.921 8  89245372.89346  21794570.539
  21794574.078          49.600          38.400
 109168768.208 8  85066611.48346  20774084.789
  20774088.121          49.200          41.100
 133312193.800 6 103879664.74643  25368468.586
  25368475.199          38.300          19.600
 107122846.286 7  83472434.34146  20384765.664
  20384768.145          47.500          40.600
 119913041.683 7  93438828.55445  22818682.391
  22818684.563          44.300          31.500
 130786202.060 5                  24887728.711
                        34.200
 134413068.568 5 104737665.70442  25577957.633
  25577965.766          31.200          14.800
 11 11 22  0 32 30.0000000  0 11G03G06G09G14G15G18G19G21G22G26G29
 126952265.079 7  98923933.94143  24158210.195
  24158217.355          42.400          21.800
 126925955.955 6  98903408.75244  24153188.867
  24153195.496          41.700          25.300
 110882618.808 8  86402126.02146  21100244.594
  21100248.738          49.800          40.600
 125589570.181 6  97861900.41143  23898855.234
  23898861.523          40.800          22.200
 114607389.297 8  89304533.20746  21809018.469
  21809022.160          49.100          39.200
 109140776.653 8  85044799.89546  20768757.883
  20768761.566          48.800          41.300
 133264375.090 6 103842403.62143  25359369.000
  25359374.922          37.200          19.000
 107136499.783 7  83483073.43746  20387363.031
  20387366.227          44.900          40.200
 119840607.565 7  93382386.45845  22804898.438
  22804901.770          44.200          32.100
 130901951.736 5                  24909755.453
                        34.300
 134506443.984 5                  25595726.492
                        30.100
 11 11 22  0 33  0.0000000  0 10G03G06G09G14G15G18G19G21G22G26
 126973707.556 6  98940642.43943  24162289.930
  24162297.203          40.900          22.600
 126949268.138 7  98921574.11044  24157624.602
  24157631.977          42.100          25.800
 110827620.933 8  86359270.57746  21089778.477
  21089783.055          48.900          40.700
 125499653.066 6  97791835.19843  23881745.352
  23881750.832          40.300          22.600
 114683516.351 8  89363853.01946  21823505.125
  21823509.422          50.300          40.700
 109112989.908 8  85023147.90946  20763470.133
  20763473.707          48.300          41.400
 133217018.668 5 103805502.60942  25350357.500
  25350362.934          33.800          17.800
 107150716.652 7  83494151.51746  20390068.484
  20390071.723          45.400          40.500
 119768247.408 7  93326001.96945  22791128.938
  22791130.922          45.400          33.200
 131017677.727 5                  24931777.219
                        32.200
 11 11 22  0 33 30.0000000  0 10G03G06G09G14G15G18G19G21G22G26
 126995646.058 7  98957737.42843  24166465.313
  24166472.965          42.200          21.700
 126973019.749 6  98940081.87744  24162144.289
  24162151.027          40.600          24.400
 110773208.220 8  86316871.10346  21079423.734
  21079427.953          50.100          40.500
 125409933.615 7  97721924.00743  23864671.875
  23864677.391          43.700          22.000
 114759847.907 8  89423332.15646  21838030.313
  21838035.387          49.200          40.300
 109085410.828 8  85001657.73446  20758222.234
  20758225.758          49.400          41.400
 133170128.347 5 103768964.82942  25341433.250
  25341440.246          32.300          16.300
 107165498.442 7  83505669.80046  20392881.305
  20392884.820          47.700          40.300
 119695963.968 7  93269677.29845  22777373.109
  22777376.344          46.400          34.300
 131133379.752 5                  24953793.109
                        32.500
 11 11 22  0 34  0.0000000  0 10G03G06G09G14G15G18G19G21G22G26
 127018078.382 6  98975217.24643  24170733.570
  24170740.672          41.500          22.300
 126997208.412 7  98958930.23944  24166747.375
  24166754.027          42.000          25.700
 110719382.223 8  86274928.80246  21069181.492
  21069185.672          51.400          40.200
 125320411.677 6  97652166.74343  23847635.914
  23847641.770          41.400          22.800
 114836381.025 8  89482968.33746  21852593.406
  21852599.270          48.300          39.400
 109058039.193 8  84980329.19546  20753013.539
  20753017.305          49.000          40.800
 133123704.455 5 103732790.51442  25332599.617
  25332606.605          33.300          16.300
 107180844.721 7  83517627.94546  20395801.688
  20395804.910          47.500          40.500
 119623756.755 7  93213412.00245  22763633.070
  22763635.895          46.400          33.900
 131249055.385 5                  24975807.703
                        34.100
 11 11 22  0 34 30.0000000  0 10G03G06G09G14G15G18G19G21G22G26
 127041002.174 6  98993079.99643  24175096.125
  24175103.957          41.000          22.600
 127021831.950 6  98978117.41844  24171432.422
  24171439.953          41.900          26.000
 110666144.815 8  86233445.13846  21059050.469
  21059055.074          51.100          40.800
 125231087.617 6  97582563.67543  23830637.977
  23830643.816          41.500          22.000
 114913113.606 8  89542759.93946  21867195.891
  21867200.512          48.000          39.500
 109030875.150 8  84959162.43246  20747844.594
  20747847.660          48.800          41.100
 133077747.672 5 103696980.17842  25323855.133
  25323860.730          35.000          17.400
 107196755.285 7  83530025.78746  20398829.594
  20398832.703          44.700          40.600
 119551625.879 7  93157206.20945  22749906.836
  22749909.090          46.000          34.300
 131364701.914 5                  24997814.172
                        31.600
 11 11 22  0 35  0.0000000  0 10G03G06G09G14G15G18G19G21G22G26
 127064416.788 6  99011325.23143  24179552.164
  24179558.926          41.000          22.600
 127046889.981 7  98997643.14844  24176201.336
  24176207.973          42.300          24.000
 110613499.260 8  86192422.66646  21049032.648
  21049037.094          51.300          41.400
 125141963.664 7  97513116.52043  23813678.680
  23813683.195          42.000          22.300
 114990044.706 8  89602706.27846  21881835.234
  21881839.715          48.800          39.200
 109003920.708 7  84938158.99846  20742715.148
  20742718.352          47.800          40.800
 133032260.718 5 103661535.88742  25315199.141
  25315204.859          35.400          16.300
 107213231.589 7  83542864.46046  20401964.859
  20401968.219          47.600          40.500
 119479573.193 7  93101061.35345  22736195.688
  22736197.883          46.000          34.300
 131480319.297 5                  25019817.109
                        30.300
 11 11 22  0 35 30.0000000  0 10G03G06G09G14G15G18G19G21G22G26
 127088318.910 6  99029950.29943  24184099.789
  24184107.473          41.200          22.000
 127072378.864 7  99017504.65644  24181052.398
  24181058.590          43.300          26.400
 110561446.129 8  86151861.82446  21039127.195
  21039132.465          51.900          41.600
 125053038.882 7  97443824.57843  23796756.586
  23796760.777          42.900          22.600
 115067170.565 8  89662804.33646  21896511.656
  21896516.039          48.700          40.100
 108977174.880 8  84917318.10746  20737625.313
  20737628.953          49.900          41.100
 132987242.943 6 103626457.18242  25306632.547
  25306638.520          37.300          17.800
 107230271.681 7  83556142.45746  20405207.383
  20405211.031          47.500          40.700
 119407597.484 7  93044976.45245  22722499.078
  22722501.824          45.700          34.600
 131595600.551 5                  25041813.734
                        33.100
 11 11 22  0 36  0.0000000  0 10G03G06G09G14G15G18G19G21G22G26
 127112707.891 6  99048954.76144  24188741.438
  24188748.574          41.700          24.500
 127098297.874 7  99037701.30644  24185984.984
  24185991.027          42.700          25.300
 110509988.523 8  86111765.01646  21029335.234
  21029339.965          51.900          41.400
 124964315.298 7  97374689.38643  23779873.125
  23779877.563          42.600          22.300
 115144489.863 8  89723053.14046  21911225.656
  21911229.117          50.700          39.700
 108950639.523 8  84896641.22946  20732575.867
  20732579.691          49.100          40.600
 132942696.589 6 103591745.99742  25298155.195
  25298160.539          37.300          17.400
 107247876.365 7  83569860.40246  20408556.844
  20408560.715          47.700          40.400
 119335700.152 7  92988952.63445  22708817.672
  22708820.254          46.400          34.900
 131711150.856 5                  25063801.906
                        32.900
 11 11 22  0 36 30.0000000  0 10G03G06G09G14G15G18G19G21G22G26
 127137582.146 6  99068337.32643  24193474.695
  24193482.266          41.400          22.800
 127124645.600 7  99058232.02644  24190998.344
  24191004.918          43.000          25.300
 110459128.713 8  86072134.03546  21019657.188
  21019661.625          52.100          41.600
 124875793.981 7  97305711.82543  23763027.570
  23763032.457          43.100          22.500
 115222000.901 8  89783451.40246  21925975.242
  21925979.305          49.100          39.500
 108924315.801 8  84876129.25446  20727566.328
  20727570.164          49.000          41.000
 132898623.255 6 103557403.27542  25289768.305
  25289773.688          37.800          17.400
 107266045.867 7  83584018.45546  20412014.672
  20412018.801          46.000          40.400
 119263882.325 7  92932990.76645  22695150.867
  22695154.043          46.100          35.200
 131826665.680 5                  25085786.930
                        30.100
 11 11 22  0 37  0.0000000  0  9G03G06G09G14G15G18G19G21G22
 127162940.176 6  99088096.88543  24198300.359
  24198307.191          40.000          22.300
 127151420.471 7  99079095.60644  24196092.648
  24196099.785          43.400          25.500
 110408869.263 8  86032970.86546  21010093.031
  21010097.797          51.700          41.800
 124787475.959 7  97236892.69343  23746221.477
  23746226.344          42.600          23.900
 115299702.193 8  89843997.87346  21940760.352
  21940766.258          48.500          39.200
 108898204.984 8  84855783.18346  20722597.945
  20722601.250          48.800          41.200
 132855024.171 6 103523430.08943  25281471.336
  25281476.680          38.600          20.600
 107284780.589 7  83598616.94246  20415580.063
  20415583.293          47.000          40.100
 119192144.492 7  92877091.24145  22681499.188
  22681502.613          47.000          35.800
 11 11 22  0 37 30.0000000  0  9G03G06G09G14G15G18G19G21G22
 127188779.709 6  99108231.62143  24203216.789
  24203224.113          37.600          22.500
 127178620.760 7  99100290.67644  24201269.508
  24201275.523          44.100          25.600
 110359212.159 8  85994277.06046  21000643.305
  21000648.281          51.300          41.200
 124699362.206 6  97168232.72143  23729453.359
  23729458.832          41.800          22.500
 115377591.498 8  89904690.77946  21955582.758
  21955588.441          48.800          40.200
 108872307.405 8  84835603.27246  20717669.914
  20717673.262          49.300          41.400
 132811900.484 6 103489827.39943  25273265.172
  25273270.070          37.400          18.300
 107304080.465 7  83613655.80546  20419252.148
  20419255.801          45.200          40.200
 119120487.520 7  92821254.70545  22667863.633
  22667866.641          46.600          34.400
 11 11 22  0 38  0.0000000  0  9G03G06G09G14G15G18G19G21G22
 127215099.309 6  99128740.44143  24208225.859
  24208232.914          38.300          22.900
 127206244.402 7  99121815.58643  24206525.898
  24206532.297          43.200          23.300
 110310159.206 8  85956054.02346  20991308.352
  20991313.625          52.100          41.300
 124611452.910 7  97099732.03944  23712725.305
  23712729.656          43.100          24.500
 115455666.531 8  89965528.44846  21970440.922
  21970445.422          49.900          39.700
 108846623.674 8  84815589.99546  20712782.281
  20712785.840          49.600          41.000
 132769252.791 6 103456595.56443  25265148.695
  25265154.918          39.500          20.100
 107323945.084 7  83629134.72446  20423032.359
  20423035.984          46.100          40.500
 119048911.665 7  92765481.39545  22654242.352
  22654245.609          46.600          34.400
 11 11 22  0 38 30.0000000  0  9G03G06G09G14G15G18G19G21G22
 127241896.869 6  99149621.65843  24213324.711
  24213332.070          39.900          21.100
 127234289.692 7  99143669.10544  24211862.289
  24211868.367          43.300          25.000
 110261712.626 8  85918303.49146  20982089.547
  20982094.156          52.100          41.500
 124523749.556 6  97031391.85743  23696035.414
  23696040.234          41.800          23.400
 115533925.756 8  90026509.69146  21985332.852
  21985335.582          51.300          38.400
 108821155.268 8  84795744.50146  20707935.727
  20707939.477          49.700          40.900
 132727082.769 6 103423735.91743  25257123.789
  25257129.609          38.200          20.100
 107344374.370 7  83645053.64546  20426920.469
  20426923.563          44.600          40.300
 118977417.769 7  92709771.92245  22640638.227
  22640640.656          47.000          34.100
 11 11 22  0 39  0.0000000  0  9G03G06G09G14G15G18G19G21G22
 127269170.586 6  99170873.96343  24218515.367
  24218521.711          36.800          21.500
 127262754.682 7  99165849.63643  24217279.273
  24217286.191          42.900          23.500
 110213874.338 8  85881026.93846  20972986.188
  20972990.227          52.900          41.300
 124436252.568 6  96963212.49844  23679385.875
  23679390.773          41.600          26.100
 115612367.001 8  90087632.78446  22000259.422
  22000262.074          49.500          37.800
 108795902.448 8  84776067.00446  20703130.117
  20703133.703          50.200          40.800
 132685391.458 7 103391249.33643  25249191.539
  25249195.391          42.700          21.500
 107365368.063 7  83661412.36246  20430915.281
  20430918.930          47.000          40.600
 118906006.514 7  92654126.85845  22627049.375
  22627051.668          47.200          34.600
 11 11 22  0 39 30.0000000  0  9G03G06G09G14G15G18G19G21G22
 127296918.756 6  99192495.99743  24223795.320
  24223802.730          37.900          20.400
 127291638.095 7  99188356.17344  24222775.094
  24222781.824          42.900          24.500
 110166646.600 8  85844226.12946  20963998.797
  20964003.324          52.600          40.900
 124348963.150 7  96895194.83343  23662774.617
  23662779.316          42.100          23.300
 115690988.626 8  90148896.40346  22015220.242
  22015224.852          48.800          39.000
 108770866.606 8  84756558.57246  20698365.992
  20698369.758          49.800          40.700
 132644180.236 7 103359136.84443  25241348.141
  25241354.023          42.000          22.300
 107386926.836 7  83678211.40546  20435017.086
  20435021.164          47.600          39.600
 118834678.374 7  92598546.54445  22613475.805
  22613478.301          47.800          35.700
 11 11 22  0 40  0.0000000  0  9G03G06G09G14G15G18G19G21G22
 127325139.272 6  99214486.05343  24229165.102
  24229172.727          36.500          21.300
 127320937.448 7  99211186.86744  24228351.523
  24228357.629          44.500          25.000
 110120031.117 8  85807902.39546  20955128.789
  20955132.473          52.700          41.600
 124261881.818 6  96827339.33144  23646203.102
  23646208.668          39.600          24.200
 115769787.872 8  90210298.40146  22030214.789
  22030220.230          48.800          38.200
 108746047.847 8  84737219.29646  20693643.219
  20693646.906          49.200          40.500
 132603449.604 6 103327398.78643  25233597.461
  25233602.680          41.800          22.300
 107409049.705 7  83695450.00546  20439227.695
  20439230.855          47.500          40.200
 118763434.176 8  92543031.63645  22599918.266
  22599920.863          48.500          35.200
 11 11 22  0 40 30.0000000  0  9G03G06G09G14G15G18G19G21G22
 127353830.716 6  99236843.09243  24234625.000
  24234632.098          39.100          21.500
 127350651.688 7  99234340.84644  24234005.391
  24234012.426          43.800          24.000
 110074030.228 8  85772057.57346  20946374.734
  20946379.008          52.500          41.400
 124175010.122 6  96759647.22744  23629673.031
  23629677.598          41.200          25.000
 115848763.829 8  90271838.07746  22045244.141
  22045249.273          49.300          39.000
 108721447.538 8  84718050.24846  20688961.828
  20688965.727          50.500          40.900
 132563201.328 6 103296036.60443  25225938.430
  25225943.926          40.900          22.900
 107431737.255 7  83713128.60946  20443545.297
  20443548.527          45.200          40.400
 118692274.634 8  92487582.69145  22586377.367
  22586379.691          48.000          35.800
 11 11 22  0 41  0.0000000  0  9G03G06G09G14G15G18G19G21G22
 127382991.164 6  99259565.58743  24240173.609
  24240181.867          36.200          20.900
 127380778.531 7  99257816.36244  24239738.227
  24239744.871          43.000          24.300
 110028645.998 8  85736693.27346  20937738.203
  20937743.105          51.100          41.600
 124088348.505 6  96692118.78644  23613181.555
  23613186.090          41.400          26.000
 115927914.058 8  90333513.58146  22060306.742
  22060310.664          50.500          39.700
 108697067.015 8  84699052.45846  20684322.563
  20684326.750          49.200          41.200
 132523436.417 6 103265051.12243  25218371.555
  25218377.328          38.400          22.500
 107454988.920 7  83731246.79946  20447969.398
  20447973.340          47.900          40.100
 118621200.491 8  92432200.29645  22572852.375
  22572854.367          48.300          35.400
 11 11 22  0 41 30.0000000  0  9G03G06G09G14G15G18G19G21G22
 127412618.505 5  99282651.82943  24245811.258
  24245818.891          34.900          21.500
 127411316.041 7  99281611.82043  24245549.813
  24245555.832          42.900          23.800
 109983880.196 8  85701810.86246  20929219.844
  20929224.738          50.500          41.700
 124001897.678 6  96624754.57944  23596729.688
  23596735.879          41.400          26.200
 116007236.698 8  90395323.44846  22075400.883
  22075405.000          50.100          39.600
 108672906.279 8  84680225.91746  20679724.859
  20679728.301          49.400          41.200
 132484155.727 6 103234442.92343  25210896.492
  25210902.086          41.200          22.600
 107478804.405 7  83749804.31646  20452501.156
  20452505.121          46.100          40.100
 118550211.872 8  92376884.53345  22559343.703
  22559345.543          49.300          35.500
 11 11 22  0 42  0.0000000  0  9G03G06G09G14G15G18G19G21G22
 127442711.905 6  99306101.28743  24251539.648
  24251545.738          39.900          22.200
 127442263.656 7  99305726.86943  24251438.563
  24251444.785          43.800          21.700
 109939735.906 8  85667412.75447  20920819.102
  20920824.254          51.100          42.300
 123915659.486 6  96557556.09144  23580319.617
  23580324.691          40.300          25.700
 116086731.173 7  90457267.20546  22090526.570
  22090531.473          46.800          37.200
 108648967.827 8  84661572.60146  20675168.930
  20675173.172          49.600          41.000
 132445361.460 6 103204213.67543  25203513.922
  25203519.680          37.300          22.000
 107503184.850 7  83768802.05646  20457140.617
  20457144.203          44.900          40.600
 118479311.347 8  92321637.40746  22545851.727
  22545853.594          49.900          36.300
 11 11 22  0 42 30.0000000  0  9G03G06G09G14G15G18G19G21G22
 127473269.026 6  99329912.07143  24257353.398
  24257360.836          37.600          23.600
 127473619.120 7  99330159.76743  24257405.109
  24257411.344          43.000          22.500
 109896214.714 8  85633500.19046  20912537.352
  20912542.527          50.800          41.800
 123829634.645 6  96490523.83644  23563949.727
  23563955.195          40.600          26.000
 116166395.135 7  90519342.98746  22105687.000
  22105690.723          46.600          36.900
 108625252.383 8  84643093.04946  20670656.633
  20670660.254          50.300          41.100
 132407054.582 6 103174364.27243  25196224.055
  25196229.426          38.400          21.500
 107528129.620 8  83788239.53546  20461887.828
  20461891.020          48.600          40.200
 118408499.216 8  92266459.17646  22532376.570
  22532378.715          49.100          36.500
 11 11 22  0 43  0.0000000  0  9G03G06G09G14G15G18G19G21G22
 127504286.981 6  99354081.92443  24263255.516
  24263263.609          36.900          22.300
 127505379.639 7  99354908.24143  24263449.898
  24263455.313          43.800          22.500
 109853317.538 8  85600073.85846  20904374.328
  20904379.613          49.500          41.200
 123743823.127 6  96423657.80744  23547619.750
  23547625.652          41.100          26.200
 116246225.831 8  90581548.75546  22120878.711
  22120882.152          48.400          38.300
 108601759.663 8  84624787.04646  20666186.133
  20666189.855          50.000          41.600
 132369234.591 6 103144894.29743  25189027.508
  25189032.531          38.300          22.800
 107553637.270 7  83808115.62046  20466741.789
  20466745.289          44.400          40.200
 118337774.921 7  92211349.38146  22518918.063
  22518919.879          47.900          36.400
 11 11 22  0 43 30.0000000  0  9G03G06G09G14G15G18G19G21G22
 127535764.051 6  99378609.55743  24269245.422
  24269252.645          37.600          21.500
 127537543.140 6  99379970.73743  24269570.641
  24269576.074          41.600          22.300
 109811046.090 8  85567135.10546  20896329.930
  20896335.352          50.700          41.600
 123658225.585 6  96356958.47544  23531331.008
  23531336.363          40.100          25.800
 116326221.420 8  90643882.98746  22136101.695
  22136106.258          48.300          39.500
 108578490.599 8  84606655.31446  20661758.180
  20661761.680          49.600          40.700
 132331902.779 6 103115804.67344  25181923.133
  25181929.035          38.000          24.000
 107579707.521 8  83828430.10946  20471702.664
  20471706.211          48.000          39.900
 118267139.295 8  92156308.68446  22505476.492
  22505478.461          48.900          37.600
 11 11 22  0 44  0.0000000  0  9G03G06G09G14G15G18G19G21G22
 127567698.433 6  99403493.55543  24275323.047
  24275330.184          39.200          22.800
 127570108.115 6  99405346.07343  24275767.055
  24275773.348          41.600          22.300
 109769402.586 8  85534685.65547  20888405.313
  20888410.730          50.900          42.300
 123572843.327 6  96290426.92344  23515083.969
  23515089.059          41.500          25.600
 116406380.329 7  90706344.45546  22151355.297
  22151360.387          47.800          39.400
 108555446.485 8  84588698.88746  20657373.023
  20657376.094          50.300          40.000
 132295060.526 6 103087096.55443  25174912.195
  25174917.867          39.100          23.600
 107606340.790 7  83849183.29146  20476770.945
  20476774.449          47.500          40.300
 118196593.620 8  92101338.07946  22492052.078
  22492053.922          49.600          37.100
 11 11 22  0 44 30.0000000  0  9G03G06G09G14G15G18G19G21G22
 127600087.820 6  99428732.10543  24281485.891
  24281492.742          39.200          22.600
 127603072.259 7  99431032.48243  24282038.977
  24282045.363          43.000          22.000
 109728388.676 8  85502726.80147  20880600.992
  20880605.582          50.600          42.000
 123487676.459 6  96224063.21544  23498876.156
  23498882.266          39.500          26.000
 116486700.298 7  90768931.41346  22166639.148
  22166644.840          47.900          38.800
 108532627.816 8  84570918.11146  20653030.781
  20653034.406          49.400          41.300
 132258708.558 6 103058770.42443  25167995.047
  25168000.305          39.400          22.500
 107633536.246 8  83870374.55146  20481946.000
  20481949.285          48.500          40.400
 118126138.444 8  92046438.00846  22478644.766
  22478646.969          48.000          37.100
 11 11 22  0 45  0.0000000  0  9G03G06G09G14G15G18G19G21G22
 127632930.657 6  99454323.86143  24287735.938
  24287743.320          37.400          23.000
 127636434.105 6  99457028.74643  24288387.867
  24288394.098          40.600          21.300
 109688006.312 8  85471260.05247  20872916.555
  20872921.395          51.300          42.200
 123402726.573 6  96157868.55244  23482710.844
  23482717.027          39.900          25.600
 116567179.833 7  90831642.73546  22181953.539
  22181958.648          47.700          37.500
 108510036.113 8  84553314.20246  20648731.563
  20648735.063          50.200          41.100
 132222847.767 6 103030827.07743  25161170.758
  25161175.973          40.500          21.700
 107661293.618 8  83892003.66646  20487228.156
  20487231.258          48.800          40.200
 118055774.067 8  91991608.67046  22465254.891
  22465256.969          49.300          37.200
 11 11 22  0 45 30.0000000  0  9G03G06G09G14G15G18G19G21G22
 127666225.403 6  99480267.87743  24294071.195
  24294078.578          39.200          22.200
 127670192.637 6  99483334.13743  24294811.523
  24294818.180          41.400          21.700
 109648258.463 8  85440287.72247  20865352.781
  20865357.695          51.800          42.100
 123317995.072 6  96091844.06544  23466587.766
  23466593.055          41.800          26.500
 116647818.142 7  90894477.79345  22197298.602
  22197302.496          46.900          35.500
 108487673.103 8  84535888.48146  20644476.164
  20644479.840          49.000          40.400
 132187480.275 6 103003268.10644  25154440.625
  25154445.363          39.800          24.700
 107689613.764 7  83914071.31246  20492617.320
  20492620.488          45.400          40.500
 117985502.858 8  91936851.94146  22451883.250
  22451885.332          48.400          37.000
 11 11 22  0 46  0.0000000  0  9G03G06G09G14G15G18G19G21G22
 127699969.408 6  99506561.99343  24300493.523
  24300499.824          37.300          22.500
 127704344.844 6  99509946.24343  24301311.352
  24301316.418          41.700          21.300
 109609145.822 8  85409810.37046  20857910.086
  20857914.250          51.400          41.900
 123233482.065 6  96025989.81444  23450504.523
  23450510.129          40.600          26.500
 116728612.550 7  90957434.47746  22212674.195
  22212677.590          47.600          37.700
 108465538.643 8  84518640.86246  20640263.945
  20640267.387          50.000          41.000
 132152606.147 6 102976093.58443  25147803.922
  25147808.832          41.200          22.300
 107718495.203 7  83936576.31646  20498113.289
  20498116.367          47.100          40.400
 117915324.552 8  91882167.59246  22438528.047
  22438530.520          48.100          36.600
 11 11 22  0 46 30.0000000  0  9G03G06G09G14G15G18G19G21G22
 127734160.356 5  99533204.23743  24306998.727
  24307006.750          35.000          22.500
 127738888.726 7  99536863.61643  24307884.297
  24307889.930          43.700          22.200
 109570669.817 8  85379829.10046  20850588.383
  20850592.770          51.000          41.700
 123149187.824 6  95960306.04844  23434463.305
  23434469.406          40.800          26.700
 116809561.081 8  91020511.26346  22228078.148
  22228082.531          49.100          39.200
 108443633.592 8  84501571.99546  20636095.672
  20636099.324          50.000          40.900
 132118225.924 6 102949303.94243  25141261.672
  25141266.664          40.900          23.300
 107747937.478 7  83959518.34746  20503716.125
  20503719.297          47.800          40.600
 117845239.826 7  91827556.19646  22425191.070
  22425193.516          47.300          36.700
 11 11 22  0 47  0.0000000  0  9G03G06G09G14G15G18G19G21G22
 127768796.309 5  99560193.39543  24313590.094
  24313597.516          35.300          21.500
 127773822.202 7  99564084.50144  24314532.008
  24314537.730          44.200          25.200
 109532832.122 8  85350345.21046  20843387.633
  20843391.828          50.000          41.500
 123065113.514 6  95894793.63644  23418465.086
  23418470.238          41.700          25.600
 116890661.694 7  91083706.55746  22243510.148
  22243515.441          47.100          38.100
 108421959.076 8  84484682.78046  20631971.297
  20631974.289          49.800          40.900
 132084340.516 6 102922899.84844  25134813.438
  25134818.125          39.000          25.100
 107777939.986 8  83982896.92446  20509424.867
  20509428.879          48.800          40.800
 117775249.278 8  91773018.17246  22411872.664
  22411874.688          48.400          36.400
 11 11 22  0 47 30.0000000  0  9G03G06G09G14G15G18G19G21G22
 127803876.454 6  99587528.52243  24320265.719
  24320272.574          36.600          21.800
 127809144.332 6  99591608.25443  24321253.297
  24321259.680          40.100          23.400
 109495635.582 8  85321360.90946  20836309.859
  20836313.582          50.400          41.700
 122981261.149 6  95829454.16244  23402509.047
  23402513.699          41.100          25.500
 116971914.153 7  91147020.13546  22258971.297
  22258977.430          45.400          36.400
 108400517.182 8  84467974.80746  20627890.930
  20627894.336          49.500          40.800
 132050952.086 6 102896882.93043  25128460.367
  25128464.441          40.200          23.000
 107808503.721 7  84006712.82046  20515241.188
  20515244.840          47.500          41.200
 117705355.136 7  91718555.25845  22398572.133
  22398574.523          47.600          35.500
 11 11 22  0 48  0.0000000  0  9G03G06G09G14G15G18G19G21G22
 127839396.315 6  99615206.34943  24327024.258
  24327031.645          36.000          20.400
 127844851.272 7  99619431.85144  24328048.586
  24328054.684          42.900          24.600
 109459079.971 8  85292876.04346  20829353.297
  20829357.465          50.300          41.100
 122897629.686 6  95764286.82844  23386594.438
  23386599.145          40.400          26.100
 117053314.437 7  91210448.90046  22274461.820
  22274467.180          46.700          37.800
 108379306.862 8  84451447.30346  20623854.547
  20623858.324          49.100          40.500
 132018059.643 6 102871252.59043  25122200.133
  25122205.066          40.300          22.600
 107839625.960 8  84030963.90046  20521163.336
  20521166.871          48.300          40.900
 117635556.102 7  91664166.45145  22385289.750
  22385291.766          47.200          35.500
 11 11 22  0 48 30.0000000  0  9G03G06G09G14G15G18G19G21G22
 127875355.892 5  99643226.79443  24333868.078
  24333874.609          35.400          20.400
 127880942.807 7  99647555.18744  24334916.438
  24334923.160          43.200          25.400
 109423168.585 8  85264893.16746  20822519.086
  20822523.641          50.900          40.900
 122814220.921 7  95699293.03144  23370721.938
  23370727.176          42.000          26.500
 117134862.629 7  91273992.94046  22289980.523
  22289985.074          47.900          38.200
 108358330.712 8  84435102.27446  20619862.773
  20619866.602          49.500          40.400
 131985665.310 6 102846010.35643  25116034.844
  25116040.949          39.900          22.900
 107871308.048 8  84055651.24646  20527192.414
  20527195.898          49.100          40.500
 117565854.790 7  91609853.79446  22372025.813
  22372027.539          47.300          36.100
 11 11 22  0 49  0.0000000  0  9G03G06G09G14G15G18G19G21G22
 127911751.336 6  99671586.93043  24340793.430
  24340800.070          36.600          21.800
 127917415.110 7  99675975.14244  24341856.867
  24341863.332          44.100          25.300
 109387901.297 8  85237412.19546  20815807.867
  20815813.043          49.200          40.900
 122731034.420 7  95634472.40344  23354892.531
  23354897.902          42.500          27.100
 117216555.377 7  91337649.62846  22305525.945
  22305530.328          47.800          37.800
 108337588.269 8  84418939.33746  20615915.461
  20615919.402          48.800          40.600
 131953768.604 6 102821155.87743  25109965.125
  25109970.512          40.400          22.600
 107903547.973 8  84080773.25046  20533327.781
  20533331.020          49.000          40.200
 117496250.411 8  91555616.65945  22358780.211
  22358782.410          48.000          35.000
 11 11 22  0 49 30.0000000  0  9G03G06G09G14G15G18G19G21G22
 127948582.258 5  99700286.34843  24347801.047
  24347809.469          34.700          22.000
 127954267.938 6  99704691.66344  24348869.875
  24348876.039          40.400          26.000
 109353281.682 8  85210435.88546  20809220.164
  20809224.820          51.200          41.200
 122648072.591 7  95569826.84644  23339105.852
  23339110.852          42.100          27.800
 117298392.494 8  91401418.82146  22321098.852
  22321102.598          48.300          36.100
 108317082.034 8  84402960.45646  20612013.703
  20612017.316          49.800          40.900
 131922371.810 6 102796690.93143  25103990.953
  25103996.086          38.400          22.300
 107936346.834 7  84106330.79446  20539569.094
  20539572.527          47.100          40.500
 117426745.647 7  91501457.16846  22345554.305
  22345556.781          47.600          36.500
 11 11 22  0 50  0.0000000  0  9G03G06G09G14G15G18G19G21G22
 127985844.605 6  99729321.96543  24354893.750
  24354900.148          36.700          20.900
 127991497.728 6  99733701.89443  24355954.047
  24355960.074          41.800          23.300
 109319309.562 8  85183964.14247  20802755.344
  20802760.223          51.900          42.100
 122565334.681 6  95505355.78444  23323361.188
  23323365.750          41.600          27.800
 117380370.970 8  91465298.18146  22336699.281
  22336703.273          48.100          36.900
 108296811.806 8  84387165.48746  20608156.430
  20608159.684          49.100          41.000
 131891474.312 6 102772615.07443  25098111.313
  25098116.395          40.600          22.900
 107969702.400 8  84132322.14246  20545916.508
  20545919.871          50.000          40.300
 117357339.478 8  91447374.49045  22332346.406
  22332348.762          48.300          35.900
 11 11 22  0 50 30.0000000  0  9G03G06G09G14G15G18G19G21G22
 128023537.342 6  99758692.95743  24362064.711
  24362072.977          36.700          21.500
 128029103.198 6  99763004.90844  24363110.594
  24363116.234          40.800          25.000
 109285987.132 8  85157998.63746  20796414.563
  20796419.477          51.500          41.800
 122482822.275 6  95441060.46844  23307658.719
  23307664.086          41.600          27.100
 117462489.782 7  91529286.86546  22352325.234
  22352331.246          47.800          37.600
 108276779.315 8  84371555.75846  20604343.789
  20604347.375          49.100          40.300
 131861077.622 6 102748929.43344  25092326.828
  25092332.492          40.000          24.600
 108003615.081 8  84158747.60546  20552369.539
  20552373.254          49.900          40.400
 117288033.947 8  91393370.22246  22319158.383
  22319160.367          48.500          37.200
 11 11 22  0 51  0.0000000  0  9G03G06G09G14G15G18G19G21G22
 128061658.157 5  99788397.51443  24369319.461
  24369326.527          33.800          21.800
 128067082.088 6  99792598.83244  24370337.500
  24370344.273          40.100          25.400
 109253315.766 8  85132540.45346  20790197.320
  20790202.594          52.300          41.900
 122400535.688 7  95376941.07544  23292000.148
  23292005.098          42.000          27.500
 117544747.301 7  91593383.57846  22367979.117
  22367984.488          47.300          37.200
 108256985.024 8  84356131.64846  20600577.609
  20600581.055          49.000          40.500
 131831182.057 6 102725634.26844  25086638.133
  25086643.945          40.600          24.000
 108038084.109 8  84185606.56646  20558928.781
  20558932.254          49.100          40.500
 117218829.466 8  91339444.70246  22305989.031
  22305991.344          48.800          38.100
 11 11 22  0 51 30.0000000  0  9G03G06G09G14G15G18G19G21G22
 128100204.294 5  99818433.44743  24376654.680
  24376662.148          32.600          20.400
 128105431.713 6  99822481.70644  24377635.031
  24377641.398          40.200          26.600
 109221296.475 8  85107590.38047  20784104.031
  20784109.234          51.400          42.200
 122318475.474 6  95312998.08944  23276385.117
  23276389.145          41.100          27.100
 117627140.632 8  91657586.15346  22383657.984
  22383663.328          48.800          38.100
 108237429.605 8  84340893.68046  20596856.016
  20596859.621          48.600          40.200
 131801788.268 6 102702730.09143  25081044.992
  25081049.195          40.100          23.300
 108073108.355 8  84212898.18746  20565594.203
  20565597.379          49.800          40.400
 117149726.782 8  91285598.49846  22292839.641
  22292841.746          48.700          37.700
 11 11 22  0 52  0.0000000  0  9G03G06G09G14G15G18G19G21G22
 128139174.511 6  99848799.89443  24384071.359
  24384077.246          36.000          22.200
 128144151.504 7  99852652.98344  24385003.438
  24385008.961          42.300          25.900
 109189932.009 8  85083150.56846  20778135.602
  20778140.973          51.400          41.700
 122236643.644 6  95249233.09344  23260813.305
  23260817.230          41.200          27.800
 117709669.853 8  91721894.65146  22399362.672
  22399367.063          48.800          37.400
 108218115.575 8  84325843.79246  20593180.633
  20593184.203          48.500          40.100
 131772898.071 6 102680218.33243  25075547.711
  25075552.160          40.800          22.300
 108108688.480 8  84240622.95546  20572364.086
  20572367.930          49.200          40.000
 117080727.656 8  91231832.99746  22279709.336
  22279711.582          48.400          37.600
 11 11 22  0 52 30.0000000  0  9G03G06G09G14G15G18G19G21G22
 128178565.422 5  99879494.17343  24391565.953
  24391573.406          35.900          20.600
 128183237.752 6  99883109.84144  24392440.328
  24392447.320          39.600          25.200
 109159222.209 8  85059220.85647  20772292.141
  20772297.180          51.500          42.300
 122155039.578 7  95185645.56944  23245283.688
  23245288.309          42.100          26.900
 117792331.824 8  91786306.60545  22415092.500
  22415096.375          48.300          35.900
 108199042.226 8  84310981.46146  20589551.086
  20589554.730          48.300          40.300
 131744510.479 6 102658098.24643  25070144.328
  25070149.613          38.900          20.400
 108144822.265 8  84268779.14046  20579240.336
  20579243.949          49.200          40.400
 117011831.758 8  91178147.93746  22266598.219
  22266601.121          48.000          37.200
 11 11 22  0 53  0.0000000  0  9G03G06G09G14G15G18G19G21G22
 128218375.246 6  99910514.83543  24399142.000
  24399148.555          36.100          20.600
 128222688.590 6  99913850.75444  24399948.266
  24399954.664          40.600          25.500
 109129168.860 8  85035802.69047  20766573.258
  20766577.719          52.100          43.100
 122073663.801 7  95122235.92644  23229798.359
  23229803.445          42.200          26.800
 117875125.121 7  91850820.88346  22430847.430
  22430852.047          47.600          36.900
 108180210.868 8  84296307.68846  20585967.688
  20585970.949          48.300          41.100
 131716626.845 6 102636370.75943  25064838.594
  25064843.602          40.500          20.400
 108181508.977 7  84297366.18146  20586222.359
  20586225.715          46.200          40.500
 116943040.168 7  91124544.15646  22253507.961
  22253509.777          47.500          37.300
 11 11 22  0 53 30.0000000  0  9G03G06G09G14G15G18G19G21G22
 128258601.616 6  99941860.06943  24406796.414
  24406803.492          37.400          20.400
 128262501.837 6  99944874.06543  24407524.945
  24407530.586          40.700          22.000
 109099773.329 8  85012897.11847  20760979.359
  20760984.082          51.300          42.300
 121992517.330 6  95059004.95444  23214356.039
  23214361.820          40.600          26.000
 117958048.003 8  91915436.10846  22446627.617
  22446632.844          48.500          37.100
 108161622.608 7  84281823.34246  20582430.438
  20582434.270          47.900          40.400
 131689247.576 6 102615036.41043  25059628.914
  25059633.695          39.700          20.400
 108218748.413 8  84326383.91046  20593308.422
  20593311.930          49.500          41.100
 116874353.857 7  91071022.40646  22240437.352
  22240439.500          47.900          37.500
 11 11 22  0 54  0.0000000  0  9G03G06G09G14G15G18G19G21G22
 128299242.797 6  99973528.50543  24414531.023
  24414537.070          37.600          22.200
 128302676.016 7  99976178.62243  24415169.227
  24415175.141          42.800          23.800
 109071037.152 8  84990505.31047  20755511.219
  20755515.316          50.900          42.600
 121911601.427 7  94995953.67244  23198958.820
  23198963.512          43.000          27.400
 118041099.441 8  91980151.48746  22462431.922
  22462436.918          48.800          38.300
 108143279.015 7  84267529.64846  20578939.938
  20578943.219          47.500          40.800
 131662373.670 6 102594095.78843  25054514.984
  25054519.746          40.100          22.300
 108256540.223 8  84355832.07346  20600499.688
  20600503.262          48.600          40.400
 116805774.407 8  91017583.91546  22227387.359
  22227389.516          48.100          38.400
 11 11 22  0 54 30.0000000  0  9G03G06G09G14G15G18G19G21G22
 128340295.283 5 100005517.47543  24422341.547
  24422349.500          35.000          20.900
 128343207.962 6 100007761.94944  24422882.078
  24422888.840          38.900          24.100
 109042960.950 8  84968627.76946  20750168.570
  20750172.828          51.200          41.700
 121830915.753 7  94933081.75244  23183604.984
  23183610.066          42.500          25.700
 118124276.500 8  92044964.76346  22478260.266
  22478264.648          48.600          37.100
 108125180.178 7  84253426.66146  20575496.156
  20575499.211          47.700          40.600
 131636004.730 6 102573548.65243  25049497.344
  25049501.402          40.200          21.300
 108294882.612 8  84385709.25046  20607795.836
  20607799.238          48.800          40.400
 116737301.430 8  90964228.40046  22214356.930
  22214359.301          48.500          37.300
 11 11 22  0 55  0.0000000  0  9G03G06G09G14G15G18G19G21G22
 128381757.762 6 100037825.90343  24430232.063
  24430239.059          39.000          22.000
 128384095.931 7 100039622.74044  24430662.461
  24430668.969          42.000          24.100
 109015546.677 8  84947266.03747  20744951.094
  20744956.191          52.000          42.200
 121750461.403 7  94870390.11144  23168294.938
  23168300.266          43.200          26.500
 118207578.793 8  92109875.65146  22494111.680
  22494116.305          49.100          36.700
 108107327.705 7  84239515.66146  20572098.477
  20572101.871          46.700          40.600
 131610141.962 6 102553395.92443  25044575.547
  25044579.227          39.200          19.600
 108333775.519 7  84416015.40446  20615197.141
  20615200.844          47.100          40.500
 116668936.802 8  90910957.29946  22201347.664
  22201349.645          48.900          37.200
 11 11 22  0 55 30.0000000  0  9G03G06G09G14G15G18G19G21G22
 128423628.134 6 100070452.23144  24438200.297
  24438207.051          37.500          24.100
 128425338.129 6 100071759.51444  24438511.609
  24438517.254          41.600          24.700
 108988795.550 8  84926421.01746  20739861.211
  20739865.277          51.600          41.700
 121670239.601 7  94807879.65544  23153029.195
  23153034.066          43.400          27.000
 118291004.463 7  92174882.66346  22509986.797
  22509991.711          47.800          36.600
 108089722.685 7  84225797.47546  20568748.633
  20568752.039          47.100          40.900
 131584786.322 6 102533638.34643  25039749.547
  25039754.527          39.600          19.900
 108373218.239 8  84446749.96746  20622702.977
  20622706.660          49.400          39.800
 116600681.341 8  90857771.26446  22188359.313
  22188361.418          48.600          37.300
 11 11 22  0 56  0.0000000  0  9G03G06G09G14G15G18G19G21G22
 128465902.966 6 100103393.67343  24446244.539
  24446252.059          38.800          23.300
 128466931.308 6 100104169.78444  24446425.703
  24446432.121          41.100          24.100
 108962707.916 8  84906093.01047  20734896.359
  20734900.867          52.300          42.200
 121590249.985 7  94745550.14944  23137807.602
  23137812.531          43.800          27.500
 118374551.018 7  92239983.87246  22525885.414
  22525889.789          47.800          36.400
 108072365.322 7  84212272.26146  20565445.570
  20565449.074          46.800          40.600
 131559937.050 6 102514275.38343  25035021.258
  25035025.992          41.500          19.900
 108413208.943 8  84477911.55846  20630312.469
  20630316.262          48.200          40.100
 116532535.449 7  90804670.60046  22175391.367
  22175393.336          47.800          37.800
 11 11 22  0 56 30.0000000  0  9G03G06G09G14G15G18G19G21G22
 128508580.309 6 100136648.76943  24454366.906
  24454373.031          40.600          22.800
 128508873.996 6 100136852.40044  24454407.898
  24454414.227          41.400          26.700
 108937285.516 8  84886283.36346  20730058.766
  20730062.699          52.300          41.800
 121510493.674 7  94683402.42344  23122631.023
  23122635.023          42.800          27.600
 118458217.371 8  92305178.44446  22541806.570
  22541811.336          49.300          36.400
 108055257.439 7  84198941.45646  20562190.070
  20562193.293          47.300          41.300
 131535595.505 6 102495308.03443  25030389.422
  25030393.926          39.500          21.100
 108453747.472 7  84509500.02046  20638026.852
  20638030.480          47.100          39.900
 116464500.486 8  90751656.39446  22162444.641
  22162446.590          48.300          37.500
 11 11 22  0 57  0.0000000  0  9G03G06G09G14G15G18G19G21G22
 128551659.125 6 100170216.69643  24462563.367
  24462570.070          39.900          22.300
 128551164.434 6 100169806.00143  24462454.313
  24462461.043          39.900          22.800
 108912529.994 8  84866993.37346  20725347.664
  20725352.207          51.500          41.800
 121430971.976 7  94621437.51344  23107498.195
  23107503.133          43.400          27.100
 118542002.464 8  92370465.52446  22557750.398
  22557755.184          48.200          37.000
 108038400.419 7  84185806.12446  20558982.352
  20558985.781          47.700          40.600
 131511762.899 6 102476737.24643  25025853.711
  25025858.781          39.900          20.400
 108494833.557 8  84541515.12146  20645845.852
  20645849.051          48.200          40.200
 116396577.900 8  90698729.73346  22149519.266
  22149521.309          49.700          37.400
 11 11 22  0 57 30.0000000  0  9G03G06G09G14G15G18G19G21G22
 128595135.295 6 100204094.29143  24470836.563
  24470843.477          41.600          23.200
 128593799.399 6 100203028.04344  24470567.305
  24470574.078          39.900          24.300
 108888441.169 8  84848222.87746  20720763.680
  20720768.191          53.000          41.500
 121351684.424 7  94559655.04044  23092410.617
  23092414.641          42.800          26.800
 118625903.611 7  92435843.03046  22573716.406
  22573721.395          47.500          37.300
 108021793.973 7  84172866.04246  20555821.867
  20555825.504          47.900          40.300
 131488438.133 6 102458562.14143  25021416.078
  25021420.484          41.300          23.600
 108536465.389 8  84573955.50346  20653767.750
  20653771.387          48.700          40.200
 116328767.656 8  90645890.61846  22136615.422
  22136617.715          48.600          38.000
 11 11 22  0 58  0.0000000  0  9G03G06G09G14G15G18G19G21G22
 128639006.865 6 100238279.93844  24479185.039
  24479192.641          39.300          25.300
 128636776.764 6 100236516.90144  24478746.367
  24478752.961          39.800          24.200
 108865020.556 8  84829973.06946  20716307.117
  20716311.102          51.300          41.700
 121272631.816 6  94498055.66944  23077366.805
  23077371.254          41.800          26.300
 118709919.663 7  92501310.06646  22589704.008
  22589708.895          47.000          36.300
 108005439.905 7  84160122.63046  20552710.094
  20552713.340          47.900          40.800
 131465622.344 6 102440783.67143  25017073.117
  25017078.492          41.100          21.500
 108578642.218 8  84606820.55646  20661793.453
  20661797.383          48.500          40.100
 116261070.935 8  90593139.96846  22123733.266
  22123735.430          49.800          38.300
 11 11 22  0 58 30.0000000  0  9G03G06G09G14G15G18G19G21G22
 128683271.593 6 100272771.94743  24487609.227
  24487615.938          41.200          23.400
 128680094.585 6 100270271.09844  24486989.508
  24486995.738          38.700          24.000
 108842269.470 8  84812244.96647  20711977.648
  20711982.023          51.600          42.000
 121193814.987 6  94436640.00144  23062368.148
  23062373.047          40.900          25.000
 118794048.936 7  92566865.33246  22605713.188
  22605718.074          47.800          36.400
 107989338.816 7  84147576.33046  20549645.797
  20549649.340          47.600          40.400
 131443315.904 6 102423402.09843  25012828.969
  25012833.750          40.600          21.500
 108621363.040 7  84640109.48546  20669923.539
  20669926.801          46.800          39.700
 116193488.961 8  90540478.71946  22110872.992
  22110875.000          49.200          38.800
 11 11 22  0 59  0.0000000  0  9G03G06G09G14G15G18G19G21G22
 128727927.263 7 100307568.57843  24496106.211
  24496112.500          42.500          22.800
 128723750.428 6 100304288.64043  24495297.094
  24495303.008          38.100          22.200
 108820188.789 8  84795039.26846  20707775.594
  20707779.844          52.100          41.700
 121115234.692 6  94375408.66844  23047415.141
  23047419.203          41.300          24.400
 118878289.866 7  92632507.64145  22621743.867
  22621747.215          47.400          35.500
 107973492.098 8  84135228.24046  20546630.172
  20546633.844          48.500          39.900
 131421519.283 7 102406417.79444  25008680.883
  25008685.371          42.500          25.500
 108664626.715 8  84673821.43746  20678156.313
  20678159.250          49.300          40.700
 116126022.531 8  90487907.50946  22098034.344
  22098036.199          48.600          37.200
 11 11 22  0 59 30.0000000  0  9G03G06G09G14G15G18G19G21G22
 128772970.881 7 100342667.52844  24504677.922
  24504683.984          42.100          24.300
 128767742.186 6 100338567.93143  24503668.766
  24503674.527          41.200          21.300
 108798779.687 8  84778356.85946  20703701.859
  20703705.523          52.100          41.700
 121036891.293 6  94314361.91844  23032506.563
  23032511.750          39.900          25.400
 118962641.012 7  92698235.80745  22637794.820
  22637799.445          46.800          35.100
 107957901.056 7  84123079.39146  20543663.289
  20543667.242          47.900          40.500
 131400232.836 7 102389830.99844  25004630.781
  25004635.488          42.000          26.100
 108708432.679 8  84707955.95346  20686492.141
  20686495.746          49.700          39.600
 116058672.832 8  90435427.25146  22085218.031
  22085219.863          49.000          37.300
 11 11 22  1  0  0.0000000  4  1
other post-header comments skipped                          COMMENT
 11 11 22  1  0  0.0000000  0  9G03G06G09G14G15G18G19G21G22
 128818400.712 7 100378067.42944  24513322.828
  24513330.133          42.500          25.800
 128812067.649 6 100373107.24644  24512102.672
  24512109.699          37.700          26.200
 108778043.026 8  84762198.44146  20699755.508
  20699759.719          52.400          41.300
 120958785.792 6  94253500.54344  23017643.336
  23017648.543          40.000          26.200
 119047101.009 7  92764048.77445  22653867.656
  22653871.984          46.300          35.800
 107942566.643 8  84111130.50346  20540745.672
  20540749.035          48.100          40.600
 131379457.076 7 102373642.19743  25000676.516
  25000681.164          43.000          22.300
 108752780.002 8  84742512.28746  20694931.023
  20694934.906          50.000          40.100
 115991441.039 8  90383038.88046  22072424.234
  22072426.012          48.500          37.500
 11 11 22  1  0 30.0000000  0  9G03G06G09G14G15G18G19G21G22
 128864213.042 7 100413765.32344  24522040.063
  24522047.848          42.700          26.500
 128856723.601 6 100407904.09443  24520600.102
  24520607.676          38.100          22.000
 108757979.174 8  84746564.29546  20695937.523
  20695941.648          52.100          41.600
 120880917.973 6  94192824.36444  23002825.898
  23002831.332          41.600          25.800
 119131667.267 7  92829944.54846  22669959.914
  22669964.430          47.300          36.400
 107927488.916 8  84099381.62346  20537876.055
  20537879.484          48.200          41.300
 131359191.423 7 102357850.86544  24996820.586
  24996824.727          42.600          24.100
 108797666.546 7  84777488.80446  20703472.719
  20703476.422          47.900          39.900
 115924327.217 8  90330742.41946  22059653.148
  22059654.797          48.300          37.600
 11 11 22  1  1  0.0000000  0  9G03G06G09G14G15G18G19G21G22
 128910406.137 7 100449759.96243  24530830.758
  24530837.438          42.700          23.300
 128901708.207 6 100442957.03343  24529161.352
  24529167.645          39.800          22.900
 108738589.229 8  84731455.26147  20692247.852
  20692252.508          52.100          42.000
 120803288.716 6  94132334.06444  22988053.664
  22988058.668          40.900          25.800
 119216338.529 8  92895922.13345  22686072.422
  22686076.941          48.100          35.900
 107912669.349 8  84087833.91346  20535056.367
  20535059.512          48.900          40.800
 131339436.472 7 102342457.48044  24993061.602
  24993066.000          42.600          24.300
 108843091.887 8  84812885.15446  20712117.188
  20712120.348          48.100          39.700
 115857332.638 8  90278538.88346  22046904.672
  22046906.320          48.800          37.600
 11 11 22  1  1 30.0000000  0  9G03G06G09G14G15G18G19G21G22
 128956977.529 7 100486049.38243  24539693.500
  24539699.230          43.800          22.800
 128947019.221 6 100478264.30444  24537783.422
  24537790.152          39.100          24.700
 108719874.259 8  84716872.17747  20688686.602
  20688690.871          52.500          42.100
 120725898.653 7  94072030.15244  22973326.844
  22973331.965          42.200          26.500
 119301114.019 7  92961980.94245  22702204.805
  22702208.750          47.900          35.500
 107898109.127 7  84076488.27646  20532285.750
  20532288.945          47.900          41.300
 131320192.972 6 102327462.61943  24989399.375
  24989403.031          41.400          22.500
 108889055.191 8  84848700.70446  20720863.391
  20720866.988          49.100          39.900
 115790458.916 8  90226429.53146  22034178.445
  22034180.344          48.700          38.200
 11 11 22  1  2  0.0000000  0  9G03G06G09G14G15G18G19G21G22
 129003924.937 7 100522631.78643  24548627.172
  24548633.184          43.200          23.200
 128992654.258 6 100513824.06743  24546468.008
  24546474.266          38.000          22.800
 108701834.814 8  84702815.49046  20685253.391
  20685258.105          52.500          41.600
 120648748.306 7  94011913.03744  22958645.641
  22958650.547          42.700          26.800
 119385991.454 7  93028119.20445  22718355.758
  22718359.930          47.500          34.800
 107883809.046 8  84065345.36746  20529564.367
  20529567.594          48.500          41.000
 131301460.536 6 102312865.98143  24985834.461
  24985838.445          40.800          22.800
 108935554.992 7  84884934.29846  20729712.227
  20729715.641          46.600          39.500
 115723706.301 8  90174414.53646  22021476.234
  22021477.762          49.700          38.300
 11 11 22  1  2 30.0000000  0  9G03G06G09G14G15G18G19G21G22
 129051245.786 7 100559505.17243  24557630.961
  24557638.352          42.600          23.500
 129038610.990 6 100549634.55744  24555212.367
  24555219.016          38.700          25.300
 108684472.051 8  84689286.06647  20681949.789
  20681953.566          49.800          42.300
 120571838.459 7  93951983.32844  22944009.984
  22944015.125          44.000          25.900
 119470969.844 7  93094336.12645  22734526.875
  22734530.637          46.400          34.000
 107869770.648 7  84054406.37046  20526892.977
  20526896.367          45.800          41.100
 131283239.910 6 102298668.12643  24982366.734
  24982371.875          40.700          20.400
 108982590.238 8  84921585.11846  20738662.445
  20738666.176          48.000          39.700
 115657076.144 8  90122494.96846  22008796.867
  22008798.785          49.900          38.700
 11 11 22  1  3  0.0000000  0  9G03G06G09G14G15G18G19G21G22
 129098937.129 6 100596667.26343  24566706.945
  24566713.281          39.800          22.300
 129084886.959 6 100585693.71744  24564019.180
  24564025.293          37.700          25.800
 108667786.325 8  84676284.22746  20678774.172
  20678778.820          50.900          41.700
 120495169.208 7  93892241.08444  22929419.961
  22929425.313          43.200          27.200
 119556047.150 7  93160630.12045  22750716.547
  22750720.980          46.800          34.200
 107855994.509 7  84043671.72746  20524271.563
  20524275.250          46.200          40.900
 131265530.965 7 102284869.06343  24978996.688
  24979001.914          42.300          21.300
 109030159.706 8  84958652.21846  20747714.883
  20747718.316          48.200          39.100
 115590569.338 8  90070671.51846  21996140.594
  21996142.691          50.200          38.500
 11 11 22  1  3 30.0000000  0  9G03G06G09G14G15G18G19G21G22
 129146996.868 6 100634116.43943  24575852.828
  24575859.324          39.200          22.200
 129131480.087 6 100622000.04743  24572884.813
  24572891.703          38.700          23.000
 108651778.427 8  84663810.56047  20675728.336
  20675732.750          52.000          42.000
 120418741.306 7  93832686.91744  22914876.820
  22914881.547          43.700          28.300
 119641222.245 7  93227000.30445  22766924.734
  22766929.051          46.000          34.600
 107842481.970 8  84033142.48346  20521700.047
  20521703.555          48.000          40.600
 131248334.232 7 102271469.02743  24975724.805
  24975728.512          42.500          22.000
 109078262.519 8  84996134.93646  20756868.227
  20756872.168          48.200          39.900
 115524187.326 8  90018945.32246  21983508.469
  21983510.977          50.200          38.800
 11 11 22  1  4  0.0000000  0  9G03G06G09G14G15G18G19G21G22
 129195423.113 6 100671851.17643  24585067.063
  24585074.340          41.800          21.700
 129178388.207 6 100658551.87443  24581811.664
  24581817.969          36.900          23.600
 108636449.863 8  84651866.24847  20672811.203
  20672815.824          52.400          42.100
 120342555.878 7  93773321.69544  22900378.711
  22900383.215          43.800          28.000
 119726493.969 7  93293445.77745  22783151.859
  22783156.387          47.000          34.900
 107829234.405 7  84022819.70846  20519179.336
  20519182.586          47.000          40.800
 131231650.282 7 102258468.67643  24972549.180
  24972553.805          42.500          21.800
 109126897.947 7  85034032.65046  20766123.672
  20766127.609          46.600          39.600
 115457931.608 8  89967317.52246  21970900.398
  21970902.375          48.200          38.300
 11 11 22  1  4 30.0000000  0  9G03G06G09G14G15G18G19G21G22
 129244213.276 6 100709869.45543  24594352.250
  24594358.840          41.000          21.300
 129225609.230 6 100695347.45644  24590797.578
  24590803.711          36.400          24.700
 108621801.203 8  84640451.73047  20670023.992
  20670028.258          51.700          42.100
 120266613.661 7  93714145.96944  22885927.758
  22885932.047          43.200          28.000
 119811860.818 7  93359965.39045  22799396.813
  22799401.047          47.300          34.900
 107816253.095 7  84012704.39746  20516708.688
  20516712.258          47.100          41.000
 131215479.398 6 102245868.02343  24969472.563
  24969476.566          41.300          21.700
 109176064.905 7  85072344.54546  20775479.219
  20775483.566          46.300          39.400
 115391803.104 8  89915788.84146  21958316.477
  21958318.434          48.500          38.300
 11 11 22  1  5  0.0000000  0  9G03G06G09G14G15G18G19G21G22
 129293362.717 6 100748167.71143  24603705.188
  24603711.277          39.400          19.900
 129273138.536 5 100732383.24944  24599842.289
  24599848.582          35.300          24.600
 108607830.880 8  84629565.78647  20667365.141
  20667370.141          52.400          42.600
 120190913.024 7  93655158.50744  22871522.430
  22871527.008          44.500          28.500
 119897319.481 7  93426556.53645  22815658.211
  22815663.473          45.800          33.600
 107803536.943 7  84002795.70846  20514289.391
  20514292.531          47.500          41.400
 131199819.321 6 102233665.46843  24966491.617
  24966497.043          37.700          21.100
 109225759.740 7  85111067.77246  20784935.992
  20784939.805          47.000          38.900
 115325800.879 8  89864358.56546  21945757.047
  21945758.488          48.300          38.300
 11 11 22  1  5 30.0000000  0  9G03G06G09G14G15G18G19G21G22
 129342870.424 6 100786745.14543  24613125.266
  24613132.527          39.200          20.400
 129320975.409 6 100769658.71543  24608946.344
  24608951.313          38.800          22.800
 108594541.484 8  84619210.42247  20664836.492
  20664840.996          50.600          42.000
 120115455.966 7  93596360.84645  22857162.961
  22857167.957          45.100          30.100
 119982870.241 7  93493219.42745  22831938.828
  22831942.488          46.300          33.500
 107791088.729 8  83993095.81346  20511920.313
  20511923.867          48.100          40.900
 131184672.260 6 102221862.57843  24963609.805
  24963613.625          38.000          22.300
 109275983.109 7  85150202.85046  20794493.500
  20794497.047          46.700          39.000
 115259927.469 8  89813028.66846  21933221.438
  21933223.848          48.200          37.900
 11 11 22  1  6  0.0000000  0  9G03G06G09G14G15G18G19G21G22
 129392733.573 6 100825599.56543  24622614.523
  24622620.688          38.800          20.100
 129369117.221 6 100807171.82743  24618106.281
  24618111.875          37.700          23.000
 108581933.200 8  84609385.79447  20662437.352
  20662441.254          51.500          43.000
 120040242.976 7  93537753.35744  22842851.133
  22842854.813          44.700          29.900
 120068510.954 7  93559952.44645  22848235.586
  22848238.949          46.100          33.400
 107778909.000 8  83983605.12046  20509602.438
  20509606.137          48.300          40.700
 131170037.637 6 102210459.05243  24960824.195
  24960829.324          40.900          21.700
 109326733.249 7  85189748.40146  20804150.875
  20804154.699          47.000          40.100
 115194183.810 8  89761799.87446  21920710.961
  21920712.680          48.500          38.300
 11 11 22  1  6 30.0000000  0  9G03G06G09G14G15G18G19G21G22
 129442949.481 6 100864728.77343  24632171.305
  24632177.316          40.600          22.000
 129417561.070 6 100844920.25143  24627325.695
  24627330.023          36.000          22.600
 108570005.919 8  84600091.83547  20660167.430
  20660171.656          51.900          42.200
 119965273.700 7  93479335.77744  22828584.641
  22828588.453          44.800          28.900
 120154239.811 7  93626754.18345  22864549.180
  22864552.293          46.400          33.800
 107766998.295 8  83974324.04746  20507336.164
  20507339.313          48.100          41.600
 131155915.162 7 102199454.57343  24958137.406
  24958141.754          43.000          22.600
 109378008.605 7  85229703.20946  20813908.250
  20813912.355          47.200          39.500
 115128570.698 7  89710672.80846  21908225.547
  21908227.234          47.700          38.700
 11 11 22  1  7  0.0000000  0  9G03G06G09G14G15G18G19G21G22
 129493515.632 7 100904130.97343  24641792.977
  24641799.551          42.100          20.900
 129466305.158 5 100882902.65544  24636600.289
  24636606.980          35.200          24.200
 108558761.032 8  84591329.59947  20658027.469
  20658032.016          50.200          42.000
 119890549.491 7  93421109.17345  22814364.680
  22814369.031          44.800          30.700
 120240056.133 7  93693624.04845  22880879.016
  22880883.617          46.500          34.200
 107755358.703 8  83965254.24746  20505121.141
  20505124.797          48.500          41.100
 131142305.453 6 102188849.68843  24955548.078
  24955551.848          41.300          22.000
 109429808.332 7  85270066.60546  20823765.688
  20823769.469          46.400          39.500
 115063089.770 8  89659648.72946  21895764.586
  21895766.273          48.600          38.500
 11 11 22  1  7 30.0000000  0  9G03G06G09G14G15G18G19G21G22
 129544429.481 6 100943804.12743  24651481.438
  24651488.164          39.700          20.600
 129515346.899 5 100921116.97044  24645932.922
  24645939.141          34.900          24.800
 108548198.684 8  84583099.21447  20656017.813
  20656022.176          50.700          42.200
 119816070.480 7  93363073.62745  22800191.844
  22800196.070          46.000          30.100
 120325958.068 7  93760560.58245  22897225.664
  22897230.164          44.800          34.000
 107743991.107 7  83956396.37846  20502958.188
  20502961.410          47.900          40.900
 131129208.340 7 102178644.11943  24953055.109
  24953060.387          42.800          22.800
 109482131.042 7  85310837.53846  20833722.547
  20833725.844          46.000          39.700
 114997741.816 8  89608728.27346  21883329.258
  21883331.328          49.100          38.600
 11 11 22  1  8  0.0000000  0  9G03G06G09G14G15G18G19G21G22
 129595688.125 6 100983745.93643  24661235.500
  24661242.492          40.900          19.900
 129564683.487 6 100959561.00044  24655320.688
  24655327.875          38.400          24.400
 108538319.025 8  84575400.80047  20654137.539
  20654141.719          51.100          42.700
 119741837.081 7  93305229.43845  22786065.523
  22786069.785          46.300          31.500
 120411943.999 7  93827562.56945  22913588.281
  22913593.160          43.800          33.700
 107732895.904 8  83947750.77446  20500846.391
  20500849.738          48.200          40.900
 131116623.620 7 102168837.97543  24950660.469
  24950664.152          42.900          22.500
 109534975.096 7  85352014.70946  20843778.164
  20843781.676          46.300          39.700
 114932527.669 8  89557912.07846  21870919.352
  21870921.309          48.700          38.800
 11 11 22  1  8 30.0000000  0  9G03G06G09G14G15G18G19G21G22
 129647288.592 6 101023954.09643  24671054.805
  24671061.746          40.700          20.400
 129614312.163 6 100998232.71144  24664764.742
  24664771.871          39.200          24.400
 108529122.511 8  84568234.69747  20652387.711
  20652392.188          50.300          42.000
 119667849.664 7  93247576.95045  22771985.648
  22771990.934          45.300          31.700
 120498012.440 7  93894628.89645  22929966.555
  22929970.777          43.900          32.600
 107722074.225 8  83939318.29146  20498787.172
  20498790.414          48.300          41.100
 131104551.181 6 102159430.90343  24948362.109
  24948367.406          39.900          22.200
 109588338.939 7  85393596.90446  20853933.469
  20853936.965          47.000          40.100
 114867448.219 8  89507200.84846  21858535.117
  21858536.984          48.100          39.000
 11 11 22  1  9  0.0000000  0  9G03G06G09G14G15G18G19G21G22
 129699228.911 6 101064427.09643  24680938.844
  24680945.527          38.900          18.600
 129664230.976 6 101037130.47244  24674265.383
  24674271.066          38.900          24.000
 108520609.725 8  84561601.37147  20650767.789
  20650772.457          50.300          42.200
 119594108.860 7  93190116.63545  22757953.742
  22757958.258          46.300          31.800
 120584162.533 7  93961758.83645  22946360.359
  22946365.055          44.900          33.400
 107711527.533 8  83931100.10146  20496779.703
  20496783.773          48.900          40.600
 131092991.143 6 102150423.11343  24946163.211
  24946166.883          41.300          21.700
 109642221.381 7  85435583.20146  20864186.523
  20864190.168          46.000          39.700
 114802504.958 8  89456595.72646  21846176.813
  21846178.371          49.100          38.700
 11 11 22  1  9 30.0000000  0  9G03G06G09G14G15G18G19G21G22
 129751506.285 6 101105162.71543  24690886.789
  24690893.207          39.800          19.900
 129714437.248 6 101076252.20544  24683818.891
  24683825.313          39.400          26.200
 108512780.653 8  84555500.82447  20649277.609
  20649281.711          50.100          42.600
 119520614.788 7  93132848.56545  22743968.070
  22743972.777          45.400          31.300
 120670392.255 7  94028950.81845  22962769.578
  22962774.203          44.700          34.200
 107701256.353 8  83923096.59346  20494825.719
  20494829.480          48.900          40.900
 131081943.206 6 102141814.38743  24944060.359
  24944064.777          40.300          20.400
 109696620.782 7  85477972.33546  20874538.188
  20874541.988          46.400          39.200
 114737698.808 8  89406097.45346  21833844.594
  21833846.527          48.300          38.400
 11 11 22  1 10  0.0000000  0  9G03G06G09G14G15G18G19G21G22
 129804117.941 6 101146158.84643  24700899.117
  24700905.449          40.300          19.300
 129764928.649 6 101115596.15144  24693426.992
  24693432.813          40.900          26.800
 108505636.027 8  84549933.59147  20647918.633
  20647922.828          48.800          42.100
 119447368.236 7  93075773.38645  22730029.805
  22730034.121          44.900          31.700
 120756700.328 7  94096203.84845  22979193.867
  22979198.344          43.800          33.500
 107691262.013 7  83915308.79446  20492923.516
  20492927.160          45.900          40.800
 131071407.420 7 102133604.72743  24942055.164
  24942060.152          42.300          20.900
 109751535.724 7  85520763.17846  20884988.438
  20884991.711          47.100          39.900
 114673030.973 8  89355706.95946  21821538.813
  21821540.391          48.400          39.100
 11 11 22  1 10 30.0000000  0  9G03G06G09G14G15G18G19G21G22
 129857060.833 6 101187413.10143  24710973.359
  24710980.191          39.600          19.600
 129815702.243 6 101155160.00944  24703088.766
  24703095.262          41.300          26.500
 108499175.741 8  84544899.61147  20646688.656
  20646693.570          50.000          42.300
 119374369.492 7  93018891.28245  22716138.852
  22716143.422          45.600          31.500
 120843085.212 7  94163516.73045  22995631.273
  22995636.547          43.800          33.600
 107681545.313 8  83907737.34146  20491074.469
  20491078.367          49.100          41.000
 131061383.419 7 102125793.87043  24940147.742
  24940152.863          42.600          22.500
 109806964.540 7  85563954.43746  20895536.305
  20895539.895          46.200          40.100
 114608502.069 8  89305424.73446  21809259.102
  21809261.203          49.500          39.600
 11 11 22  1 11  0.0000000  0  9G03G06G09G14G15G18G19G21G22
 129910332.210 6 101228923.30542  24721110.680
  24721116.789          38.300          17.400
 129866755.545 6 101194941.79144  24712803.422
  24712809.945          40.300          25.100
 108493399.930 8  84540398.98746  20645590.023
  20645594.008          49.200          41.300
 119301618.460 7  92962202.20245  22702294.219
  22702299.410          45.600          32.600
 120929545.512 7  94230888.35745  23012084.523
  23012089.770          44.000          33.800
 107672107.138 8  83900382.91146  20489279.063
  20489282.441          49.200          41.100
 131051870.996 6 102118381.55344  24938337.969
  24938342.285          41.700          24.000
 109862905.832 7  85607545.04446  20906181.188
  20906184.941          47.300          39.100
 114544113.564 8  89255251.89746  21797006.266
  21797008.434          49.600          38.900
 11 11 22  1 11 30.0000000  0 10G03G06G09G12G14G15G18G19G21G22
 129963930.364 6 101270688.20642  24731309.461
  24731315.691          39.200          17.800
 129918086.917 7 101234940.21344  24722571.898
  24722578.363          42.700          26.800
 108488309.534 8  84536432.46747  20644621.234
  20644625.664          50.100          42.200
 134602865.629 5                  25614076.375
                        31.300
 119229116.568 7  92905707.25745  22688497.766
  22688502.746          45.300          32.600
 121016080.466 7  94298318.16245  23028552.539
  23028556.797          45.200          33.900
 107662949.112 8  83893246.79746  20487535.930
  20487539.449          48.900          40.900
 131042870.683 6 102111368.41643  24936625.250
  24936629.016          39.600          23.000
 109919358.836 7  85651534.38046  20916923.750
  20916927.141          47.200          38.700
 114479867.269 8  89205189.88046  21784780.969
  21784782.500          48.100          39.400
 11 11 22  1 12  0.0000000  0  9G03G06G09G14G15G18G19G21G22
 130017852.622 6 101312705.47843  24741570.156
  24741578.230          39.300          18.300
 129969693.348 7 101275153.02944  24732392.391
  24732398.398          43.200          24.800
 108483904.390 8  84532999.90446  20643782.234
  20643787.336          48.600          41.900
 119156864.003 7  92849406.60145  22674749.148
  22674753.176          45.700          32.400
 121102688.563 7  94365804.99445  23045033.211
  23045038.461          47.000          33.500
 107654072.418 8  83886329.89746  20485846.875
  20485850.352          49.500          41.700
 131034382.085 6 102104753.94143  24935010.531
  24935014.762          38.000          22.900
 109976321.721 7  85695921.02246  20927763.625
  20927767.211          47.900          38.400
 114415764.106 8  89155239.38946  21772582.477
  21772584.055          48.000          39.800
 11 11 22  1 12 30.0000000  0 10G03G06G09G12G14G15G18G19G21G22
 130072095.419 6 101354972.67642  24751893.063
  24751899.441          39.100          14.800
 130021572.148 7 101315578.08543  24742264.664
  24742270.699          42.800          23.600
 108480184.457 8  84530101.26446  20643074.906
  20643079.484          50.900          41.900
 134441286.193 6                  25583327.102
                        37.300
 119084860.523 7  92793300.02245  22661047.148
  22661051.609          45.500          32.800
 121189367.967 7  94433347.36645  23061527.219
  23061532.430          45.100          33.500
 107645477.574 8  83879632.61246  20484211.570
  20484214.859          49.200          41.100
 131026404.369 7 102098537.61743  24933492.172
  24933495.965          44.500          21.700
 110033792.312 7  85740703.28146  20938699.758
  20938703.504          47.600          39.200
 114351804.654 7  89105400.87746  21760411.398
  21760413.160          47.700          39.600
 11 11 22  1 13  0.0000000  0 10G03G06G09G12G14G15G18G19G21G22
 130126656.397 6 101397487.66342  24762276.328
  24762281.793          39.300          16.900
 130073720.929 7 101356213.47444  24752188.242
  24752194.117          43.300          25.600
 108477149.873 8  84527736.67546  20642497.344
  20642501.895          51.400          41.600
 134360375.362 6                  25567929.922
                        37.500
 119013106.853 7  92737388.13245  22647392.891
  22647397.117          45.600          32.600
 121276117.589 7  94500944.47645  23078034.797
  23078039.816          44.800          32.600
 107637165.889 8  83873155.97346  20482629.828
  20482632.953          48.100          41.300
 131018937.841 7 102092719.60043  24932071.891
  24932074.895          42.800          23.300
 110091769.401 7  85785880.21346  20949732.992
  20949736.227          47.600          38.900
 114287990.504 7  89055675.59446  21748267.945
  21748269.996          47.600          39.600
 11 11 22  1 13 30.0000000  0 10G03G06G09G12G14G15G18G19G21G22
 130181532.304 6 101440248.18142  24772717.891
  24772724.859          36.900          16.300
 130126136.562 7 101397056.83043  24762162.477
  24762168.156          43.600          23.600
 108474800.276 8  84525905.83847  20642049.930
  20642054.793          49.000          42.000
 134279387.906 6 104633321.07042  25552517.992
  25552525.977          38.500          15.600
 118941602.938 7  92681670.83345  22633785.438
  22633790.941          46.000          32.500
 121362935.384 7  94568594.71445  23094556.328
  23094560.820          43.400          32.700
 107629137.698 8  83866900.24946  20481101.750
  20481104.934          49.100          40.800
 131011981.458 6 102087299.05343  24930747.523
  24930752.082          40.800          22.600
 110150250.964 7  85831450.24646  20960861.148
  20960864.879          47.300          38.300
 114224322.071 7  89006063.86146  21736152.234
  21736153.887          46.600          39.800
 11 11 22  1 14  0.0000000  0 10G03G06G09G12G14G15G18G19G21G22
 130236721.130 6 101483252.44442  24783220.531
  24783227.633          37.500          16.900
 130178817.110 7 101438106.59444  24772187.211
  24772193.316          43.700          25.700
 108473136.433 8  84524609.34747  20641733.539
  20641737.809          50.900          42.100
 134198327.320 6 104570157.13142  25537092.891
  25537099.703          36.900          15.600
 118870349.887 7  92626149.01045  22620227.109
  22620231.191          45.500          33.100
 121449820.771 7  94636297.60545  23111089.297
  23111095.035          43.400          33.100
 107621394.852 8  83860866.87046  20479628.445
  20479632.234          48.300          40.800
 131005535.784 6 102082276.51343  24929520.461
  24929524.922          38.400          21.700
 110209235.889 8  85877412.51146  20972085.844
  20972089.605          48.400          38.900
 114160801.226 7  88956567.12246  21724064.297
  21724066.215          47.500          39.200
 11 11 22  1 14 30.0000000  0 10G03G06G09G12G14G15G18G19G21G22
 130292218.733 6 101526497.43742  24793781.164
  24793787.727          38.700          14.800
 130231759.132 7 101479360.13943  24782261.672
  24782268.336          43.900          23.300
 108472157.588 8  84523846.63346  20641546.969
  20641551.785          50.000          41.900
 134117195.789 6 104506937.85342  25521653.242
  25521661.609          37.000          17.800
 118799347.066 7  92570822.18345  22606715.633
  22606719.672          46.000          31.800
 121536771.617 7  94704051.47645  23127636.648
  23127641.738          43.200          33.600
 107613937.518 8  83855055.96046  20478209.469
  20478213.418          49.000          41.200
 130999599.377 6 102077650.79643  24928390.781
  24928395.391          39.800          22.600
 110268721.584 7  85923764.96546  20983405.391
  20983408.969          47.000          38.300
 114097428.292 7  88907185.63446  21712004.875
  21712006.547          47.500          38.800
 11 11 22  1 15  0.0000000  0 10G03G06G09G12G14G15G18G19G21G22
 130348023.754 6 101569981.74742  24804400.320
  24804407.063          37.300          15.600
 130284960.873 7 101520816.02843  24792386.031
  24792391.090          42.800          22.300
 108471864.545 8  84523618.30846  20641491.203
  20641495.949          50.400          41.900
 134035996.276 6 104443665.57942  25506201.391
  25506209.484          38.600          17.800
 118728595.413 7  92515691.07545  22593251.680
  22593256.172          46.600          32.800
 121623787.499 7  94771856.05745  23144194.461
  23144199.652          43.400          33.500
 107606767.099 8  83849468.62846  20476844.852
  20476848.477          48.600          40.900
 130994172.841 6 102073422.33543  24927358.797
  24927363.219          38.900          22.600
 110328707.322 8  85970507.07346  20994820.664
  20994823.969          48.800          38.500
 114034204.960 7  88857920.72646  21699973.648
  21699975.434          47.500          38.900
 11 11 22  1 15 30.0000000  0 10G03G06G09G12G14G15G18G19G21G22
 130404133.401 5 101613703.62842  24815076.891
  24815084.355          35.200          15.600
 130338419.483 7 101562472.11643  24802558.969
  24802564.480          42.900          22.600
 108472256.564 8  84523923.79846  20641565.945
  20641570.453          51.200          41.600
 133954731.217 6 104380342.22843  25490737.055
  25490745.789          40.400          20.600
 118658094.884 7  92460755.64645  22579835.695
  22579840.418          46.900          32.700
 121710866.476 7  94839709.78545  23160765.133
  23160769.918          44.100          33.400
 107599884.978 8  83844105.93946  20475535.258
  20475538.547          48.800          41.400
 130989255.494 7 102069590.69644  24926422.547
  24926427.184          43.000          26.000
 110389190.901 7  86017637.11246  21006329.977
  21006333.570          47.800          37.500
 113971132.308 7  88808773.22646  21687971.359
  21687973.582          47.600          39.500
 11 11 22  1 16  0.0000000  0 10G03G06G09G12G14G15G18G19G21G22
 130460545.088 5 101657660.75942  24825812.359
  24825818.977          35.700          16.300
 130392133.135 7 101604326.88343  24812779.609
  24812786.254          42.600          22.800
 108473334.568 8  84524763.80647  20641771.102
  20641775.887          52.100          42.100
 133873404.474 6 104316970.82143  25475262.063
  25475269.004          40.500          19.300
 118587846.685 7  92406016.83445  22566468.016
  22566472.684          47.200          32.600
 121798008.105 7  94907612.33945  23177347.719
  23177352.477          44.600          32.400
 107593292.738 8  83838969.13346  20474280.805
  20474284.367          48.300          41.600
 130984847.791 6 102066156.12644  24925583.703
  24925588.387          41.300          25.200
 110450171.573 8  86065154.50446  21017934.711
  21017938.117          48.400          37.900
 113908212.363 7  88759744.71246  21675998.656
  21675999.898          47.200          39.400
 11 11 22  1 16 30.0000000  0 10G03G06G09G12G14G15G18G19G21G22
 130517254.963 5 101701850.24542  24836603.359
  24836610.582          35.500          16.900
 130446097.999 7 101646377.38143  24823048.844
  24823055.402          42.900          20.900
 108475097.368 8  84526137.44247  20642106.641
  20642111.035          51.100          42.400
 133792017.662 6 104253552.62143  25459773.945
  25459781.324          40.200          20.100
 118517850.374 7  92351474.30045  22553148.109
  22553152.629          46.900          32.700
 121885209.833 7  94975561.73445  23193941.773
  23193946.160          45.000          32.600
 107586989.825 7  83834057.77346  20473081.367
  20473085.059          47.600          41.300
 130980947.731 6 102063117.19643  24924841.875
  24924845.625          41.400          22.300
 110511646.544 8  86113057.05246  21029632.922
  21029636.914          48.200          38.500
 113845445.269 7  88710835.30246  21664054.492
  21664055.609          46.900          39.100
 11 11 22  1 17  0.0000000  0 10G03G06G09G12G14G15G18G19G21G22
 130574261.203 5 101746270.72442  24847451.422
  24847458.512          34.400          14.800
 130500312.506 6 101688622.43643  24833366.297
  24833372.668          41.400          21.700
 108477545.719 8  84528045.25846  20642572.844
  20642576.660          51.400          41.400
 133710574.850 6 104190090.74143  25444275.945
  25444283.043          40.000          18.300
 118448106.823 7  92297128.72645  22539876.617
  22539880.574          47.500          33.000
 121972471.040 7  95043557.45345  23210547.180
  23210551.707          44.200          33.200
 107580978.545 7  83829373.66846  20471937.219
  20471940.883          46.800          41.300
 130977556.088 6 102060474.38743  24924195.430
  24924201.313          40.400          22.800
 110573614.584 7  86161343.83446  21041424.633
  21041428.840          47.200          38.000
 113782833.005 7  88662046.54646  21652139.523
  21652141.223          47.400          39.600
 11 11 22  1 17 30.0000000  0 10G03G06G09G12G14G15G18G19G21G22
 130631560.863 6 101790919.87142  24858355.836
  24858362.516          36.300          17.800
 130554773.618 7 101731059.71343  24843729.578
  24843735.461          42.500          20.100
 108480678.835 8  84530486.66646  20643168.609
  20643173.109          50.100          41.800
 133629078.402 6 104126587.07943  25428767.477
  25428774.844          39.700          19.600
 118378616.152 7  92242980.17745  22526653.086
  22526656.836          47.200          32.100
 122059790.633 7  95111598.69545  23227163.656
  23227168.207          44.900          33.100
 107575259.484 7  83824917.25546  20470849.375
  20470852.305          46.400          41.400
 130974671.999 6 102058227.06043  24923646.344
  24923651.648          40.500          22.500
 110636074.199 7  86210013.63946  21053310.586
  21053313.902          46.700          37.500
 113720376.297 7  88613379.00446  21640253.977
  21640255.852          47.800          39.900
 11 11 22  1 18  0.0000000  0 10G03G06G09G12G14G15G18G19G21G22
 130689150.557 5 101835794.96142  24869314.797
  24869321.531          34.700          16.900
 130609478.278 7 101773686.72543  24854140.383
  24854145.875          42.300          20.900
 108484496.568 8  84533461.52946  20643895.172
  20643899.383          51.200          41.800
 133547530.320 6 104063043.10943  25413249.781
  25413256.891          40.600          19.300
 118309378.172 7  92189028.56145  22513476.984
  22513481.465          46.900          31.600
 122147166.732 7  95179683.97445  23243790.688
  23243795.250          43.100          31.400
 107569833.323 7  83820689.07046  20469817.047
  20469820.344          47.600          41.000
 130972294.752 7 102056374.66844  24923195.781
  24923198.918          43.200          24.300
 110699022.893 7  86259064.55946  21065288.867
  21065293.000          47.100          37.900
 113658076.123 8  88564833.42946  21628398.859
  21628401.117          48.600          40.200
 11 11 22  1 18 30.0000000  0 10G03G06G09G12G14G15G18G19G21G22
 130747027.390 6 101880893.79342  24880327.703
  24880334.797          37.700          16.900
 130664423.820 6 101816501.42343  24864594.852
  24864601.313          41.400          19.600
 108488998.373 8  84536969.44446  20644751.461
  20644755.621          50.500          41.300
 133465933.912 6 103999461.62943  25397721.961
  25397729.438          38.600          19.000
 118240393.023 7  92135273.94945  22500349.758
  22500354.141          46.000          32.700
 122234597.937 7  95247812.17045  23260428.117
  23260432.965          42.700          32.900
 107564700.879 8  83816689.77646  20468840.180
  20468843.613          48.500          41.500
 130970423.827 7 102054916.82243  24922838.203
  24922843.004          43.000          22.300
 110762458.748 8  86308495.06646  21077360.641
  21077364.645          48.800          37.900
 113595933.620 8  88516410.71846  21616573.258
  21616575.434          49.000          39.900
 11 11 22  1 19  0.0000000  0 10G03G06G09G12G14G15G18G19G21G22
 130805188.798 5 101926214.48342  24891395.242
  24891402.141          34.300          17.800
 130719608.275 6 101859502.29243  24875096.531
  24875102.785          41.100          19.000
 108494184.494 8  84541010.59347  20645738.773
  20645742.875          50.200          42.000
 133384292.285 6 103935844.82843  25382186.102
  25382192.781          38.900          18.300
 118171661.590 7  92081717.02445  22487270.719
  22487274.695          47.800          32.800
 122322083.672 7  95315982.82945  23277076.461
  23277080.996          44.900          31.900
 107559863.950 8  83812920.74347  20467919.539
  20467923.672          48.300          42.100
 130969059.152 7 102053853.46243  24922579.523
  24922583.863          43.700          22.900
 110826380.382 8  86358304.11546  21089524.875
  21089527.637          48.200          37.400
 113533950.338 8  88468112.07746  21604778.711
  21604780.563          49.000          40.400
 11 11 22  1 19 30.0000000  0 10G03G06G09G12G14G15G18G19G21G22
 130863632.881 5 101971755.28242  24902516.875
  24902524.602          33.400          15.600
 130775029.385 6 101902687.57743  24885642.188
  24885649.156          40.500          18.300
 108500054.956 8  84545584.99746  20646855.594
  20646860.164          50.200          41.700
 133302609.180 6 103872195.68143  25366642.844
  25366648.852          36.800          19.000
 118103184.546 7  92028358.33745  22474240.023
  22474243.973          47.500          32.400
 122409623.001 7  95384195.28345  23293734.273
  23293739.191          43.400          32.100
 107555323.813 7  83809382.98247  20467055.922
  20467059.082          47.300          42.200
 130968200.708 6 102053184.61744  24922415.773
  24922419.859          41.900          24.100
 110890786.345 8  86408490.56046  21101780.711
  21101784.156          48.800          38.200
 113472127.971 8  88419938.81746  21593014.813
  21593016.590          49.100          40.900
 11 11 22  1 20  0.0000000  0 10G03G06G09G12G14G15G18G19G21G22
 130922355.563 5 102017513.22142  24913692.148
  24913698.574          34.500          17.800
 130830683.465 6 101946054.47643  24896233.078
  24896239.793          41.100          19.600
 108506608.447 8  84550691.61746  20648102.516
  20648106.934          49.000          41.700
 133220886.206 5 103808515.54442  25351090.922
  25351097.672          35.800          17.400
 118034961.228 7  91975197.35345  22461257.266
  22461261.516          46.700          33.100
 122497213.662 7  95452447.71845  23310401.992
  23310406.707          44.100          31.900
 107551080.646 7  83806076.62046  20466248.063
  20466251.613          47.600          41.100
 130967846.557 7 102052908.64043  24922348.430
  24922352.574          42.600          22.500
 110955673.871 7  86459052.24746  21114128.156
  21114132.305          47.600          38.000
 113410467.154 7  88371891.44246  21581280.500
  21581282.609          47.600          40.200
 11 11 22  1 20 30.0000000  0 10G03G06G09G12G14G15G18G19G21G22
 130981355.387 4 102063487.08742  24924918.578
  24924925.410          29.100          13.900
 130886569.252 6 101989601.83843  24906868.500
  24906874.902          39.600          20.600
 108513845.867 8  84556331.18846  20649480.180
  20649484.461          50.900          41.800
 133139127.890 6 103744807.79543  25335533.297
  25335539.613          36.200          19.300
 117966993.141 7  91922235.27645  22448323.086
  22448327.438          47.300          33.000
 122584855.359 7  95520739.95745  23327080.500
  23327084.215          43.900          31.800
 107547136.573 7  83803003.31846  20465497.648
  20465500.684          47.900          41.800
 130967997.532 7 102053026.30244  24922377.883
  24922381.777          42.600          24.100
 111021042.451 8  86509988.77046  21126567.859
  21126571.371          48.200          37.700
 113348969.797 8  88323971.44246  21569577.828
  21569579.949          48.200          39.500
 11 11 22  1 21  0.0000000  0 10G03G06G09G12G14G15G18G19G21G22
 131040627.815 5 102109673.33642  24936198.945
  24936205.008          33.100          15.600
 130942682.118 6 102033326.14442  24917545.695
  24917552.109          39.200          17.400
 108521765.094 8  84562502.01346  20650987.109
  20650991.004          50.300          41.400
 133057334.855 6 103681073.02643  25319967.828
  25319974.957          37.000          19.000
 117899278.570 7  91869470.70245  22435438.211
  22435442.012          47.000          32.700
 122672545.644 7  95589070.04245  23343766.594
  23343771.547          43.800          32.400
 107543490.780 7  83800162.44546  20464804.039
  20464807.617          47.900          41.300
 130968651.488 7 102053535.91044  24922501.531
  24922505.602          42.400          25.000
 111086888.485 8  86561297.34546  21139098.125
  21139101.301          48.500          37.600
 113287635.521 8  88276178.51846  21557906.523
  21557908.160          48.100          39.400
 11 11 22  1 21 30.0000000  0 10G03G06G09G12G14G15G18G19G21G22
 131100171.320 5 102156070.96942  24947530.023
  24947535.820          33.700          16.900
 130999021.048 6 102077226.58642  24928267.500
  24928273.191          38.300          17.800
 108530367.327 8  84569205.07246  20652624.117
  20652628.160          50.700          41.800
 132975512.008 6 103617315.05443  25304397.070
  25304404.465          39.000          19.900
 117831819.609 7  91816905.32445  22422600.641
  22422605.039          47.000          32.200
 122760284.686 7  95657438.10945  23360462.805
  23360468.133          43.500          32.100
 107540146.008 8  83797556.13046  20464167.516
  20464170.832          48.200          41.600
 130969809.107 6 102054438.00944  24922721.977
  24922726.203          40.800          24.700
 111153211.310 7  86612977.43846  21151718.609
  21151722.098          46.600          37.900
 113226467.177 8  88228514.88546  21546266.742
  21546268.391          48.900          40.000
 11 11 22  1 22  0.0000000  0 10G03G06G09G12G14G15G18G19G21G22
 131159982.514 5 102202677.02942  24958909.227
  24958917.574          31.600          13.900
 131055582.629 6 102121300.51542  24939030.023
  24939036.840          37.100          16.300
 108539651.241 8  84576439.31247  20654390.648
  20654394.824          50.800          42.600
 132893661.360 6 103553535.31943  25288821.563
  25288829.145          37.300          19.000
 117764615.586 7  91764538.59145  22409811.766
  22409816.234          46.800          32.400
 122848070.337 7  95725842.49745  23377167.742
  23377173.113          44.200          31.900
 107537102.554 7  83795184.60246  20463588.469
  20463591.488          47.100          41.000
 130971469.150 7 102055731.56043  24923038.359
  24923041.570          42.100          23.200
 111220008.502 8  86665027.18946  21164429.617
  21164433.277          48.000          37.900
 113165465.278 8  88180980.95146  21534657.828
  21534659.770          48.800          40.000
 11 11 22  1 22 30.0000000  0 10G03G06G09G12G14G15G18G19G21G22
 131220058.761 5 102249489.70242  24970343.133
  24970349.109          30.700          15.600
 131112364.576 6 102165546.19242  24949835.375
  24949841.641          37.600          17.800
 108549616.466 8  84584204.43346  20656287.297
  20656291.238          51.100          41.600
 132811786.229 6 103489736.57643  25273241.594
  25273249.059          37.600          22.200
 117697666.685 7  91712370.64745  22397072.109
  22397076.234          46.800          32.600
 122935901.827 7  95794282.59745  23393881.828
  23393886.832          44.900          31.300
 107534361.803 7  83793048.96446  20463066.438
  20463070.156          47.200          41.600
 130973631.084 6 102057416.17544  24923448.969
  24923453.063          40.900          25.900
 111287278.286 8  86717445.16946  21177230.602
  21177234.711          48.600          38.400
 113104631.580 8  88133578.08446  21523081.773
  21523083.121          49.100          39.700
 11 11 22  1 23  0.0000000  0 10G03G06G09G12G14G15G18G19G21G22
 131280396.904 5 102296506.51542  24981823.430
  24981831.395          31.900          16.900
 131169364.195 6 102209961.40943  24960682.953
  24960688.277          38.800          18.600
 108560262.751 8  84592500.25346  20658313.000
  20658317.344          50.900          41.700
 132729889.529 6 103425920.97143  25257657.047
  25257664.441          40.500          22.800
 117630973.522 7  91660401.99045  22384380.461
  22384385.035          47.800          32.400
 123023777.768 7  95862757.36645  23410604.211
  23410608.371          44.800          31.400
 107531924.117 7  83791149.46646  20462602.828
  20462606.094          46.600          41.100
 130976294.127 7 102059491.28244  24923955.734
  24923959.496          42.500          24.000
 111355018.662 8  86770229.84846  21190121.344
  21190124.527          48.200          37.100
 113043967.114 8  88086307.09046  21511537.992
  21511539.008          48.700          40.300
 11 11 22  1 23 30.0000000  0 10G03G06G09G12G14G15G18G19G21G22
 131340993.936 4 102343724.98342  24993354.555
  24993362.914          29.900          14.800
 131226578.121 6 102254543.66043  24971569.836
  24971575.938          37.000          19.900
 108571588.941 8  84601325.86146  20660468.430
  20660472.594          51.400          41.900
 132647973.636 6 103362090.45043  25242069.039
  25242076.504          40.200          22.200
 117564536.011 7  91608632.53345  22371737.750
  22371742.461          47.500          32.100
 123111696.451 7  95931265.40345  23427334.625
  23427339.691          44.400          33.200
 107529790.038 7  83789486.54946  20462196.617
  20462200.234          47.600          41.700
 130979457.316 6 102061956.13443  24924558.109
  24924561.477          41.100          22.900
 111423226.947 7  86823379.15346  21203100.938
  21203104.512          45.800          37.600
 112983472.750 8  88039168.64046  21500026.016
  21500027.824          49.000          39.900
 11 11 22  1 24  0.0000000  0  9G06G09G12G14G15G18G19G21G22
 131284005.142 6 102299291.97643  24982497.406
  24982503.902          37.800          20.400
 108583595.853 8  84610681.90347  20662753.125
  20662757.148          51.400          42.100
 132566042.855 6 103298248.36243  25226477.625
  25226485.246          38.300          18.600
 117498355.376 7  91557063.23245  22359144.719
  22359148.262          47.000          31.400
 123199657.986 7  95999806.83245  23444073.414
  23444077.469          44.200          32.500
 107527962.324 8  83788062.36446  20461849.281
  20461852.258          48.800          41.100
 130983120.883 7 102064810.85243  24925255.070
  24925258.785          42.400          23.000
 111491902.801 7  86876892.78746  21216169.172
  21216173.223          47.000          37.400
 112923150.757 8  87992164.50746  21488546.773
  21488549.098          49.500          40.600
 11 11 22  1 24 30.0000000  0 10G03G06G09G12G14G15G18G19G21G22
 131462955.740 5 102438760.15643  25016564.734
  25016571.250          35.900          20.100
 131341641.376 5 102344203.28743  24993464.953
  24993471.523          35.400          19.600
 108596281.640 8  84620566.94647  20665167.305
  20665171.410          52.000          42.100
 132484099.097 6 103234396.17043  25210884.219
  25210892.414          38.700          20.400
 117432430.747 7  91505693.42345  22346599.000
  22346603.207          46.800          32.600
 123287660.268 7  96068380.01345  23460819.422
  23460823.648          44.500          32.300
 107526440.741 8  83786876.71246  20461559.320
  20461562.949          48.200          41.600
 130987283.065 7 102068054.15144  24926046.852
  24926050.746          42.100          24.800
 111561043.189 8  86930768.37146  21229326.891
  21229330.078          48.100          37.900
 112863001.567 8  87945295.03746  21477101.172
  21477102.824          49.600          40.500
 11 11 22  1 25  0.0000000  0 10G03G06G09G12G14G15G18G19G21G22
 131524313.216 5 102486571.13743  25028239.625
  25028246.672          35.000          18.300
 131399483.950 5 102389275.40842  25004472.594
  25004478.801          34.600          16.900
 108609645.493 8  84630980.34646  20667709.914
  20667714.828          51.600          41.800
 132402144.940 6 103170535.81543  25195289.383
  25195296.125          39.000          18.600
 117366762.130 7  91454523.10345  22334103.023
  22334106.828          45.800          32.400
 123375701.725 7  96136983.70745  23477573.039
  23477577.613          44.000          31.800
 107525226.509 8  83785930.56346  20461328.484
  20461331.934          48.500          41.400
 130991942.974 6 102071685.25344  24926932.961
  24926938.051          41.300          25.600
 111630645.620 8  86985004.02346  21242571.461
  21242575.441          48.300          38.800
 112803026.356 8  87898561.11546  21465687.992
  21465689.395          49.600          40.300
 11 11 22  1 25 30.0000000  0 10G03G06G09G12G14G15G18G19G21G22
 131585918.837 5 102534575.52443  25039963.813
  25039970.348          35.500          20.100
 131457531.203 6 102434506.94543  25015518.789
  25015524.645          37.000          19.600
 108623687.750 8  84641922.37446  20670382.234
  20670386.535          52.000          41.600
 132320184.628 6 103106670.66843  25179692.211
  25179700.020          39.000          21.500
 117301350.243 7  91403552.84445  22321655.109
  22321659.855          46.300          32.400
 123463782.245 7  96205617.85445  23494333.984
  23494338.855          43.400          31.100
 107524320.923 8  83785224.90946  20461156.117
  20461159.152          48.500          41.100
 130997100.695 6 102075704.31243  24927914.672
  24927918.977          41.800          23.300
 111700708.859 8  87039598.72746  21255903.891
  21255908.105          49.100          37.900
 112743227.089 8  87851964.29946  21454308.711
  21454310.453          50.000          41.600
 11 11 22  1 26  0.0000000  0 10G03G06G09G12G14G15G18G19G21G22
 131647768.541 6 102582770.15543  25051733.148
  25051739.641          37.100          20.600
 131515779.244 6 102479895.04143  25026602.672
  25026608.938          37.900          19.300
 108638406.451 8  84653391.50446  20673182.977
  20673187.844          52.000          41.300
 132238219.920 6 103042802.04443  25164094.992
  25164102.883          38.400          20.100
 117236194.651 7  91352782.27145  22309256.719
  22309260.629          47.500          32.300
 123551899.614 7  96274280.71445  23511102.469
  23511107.465          42.600          30.700
 107523724.098 7  83784759.85746  20461042.305
  20461045.621          47.300          41.600
 131002754.526 7 102080109.92044  24928991.844
  24928995.098          42.300          25.400
 111771229.999 8  87094550.23546  21269323.867
  21269327.965          49.100          38.600
 112683604.326 8  87805505.03646  21442962.961
  21442964.730          49.900          41.100
 11 11 22  1 26 30.0000000  0 10G03G06G09G12G14G15G18G19G21G22
 131709860.741 6 102631153.68543  25063549.180
  25063555.270          38.100          22.600
 131574226.329 6 102525438.21143  25037725.695
  25037731.398          38.000          18.300
 108653802.010 8  84665388.03646  20676112.789
  20676116.922          51.500          41.600
 132156255.043 6 102978933.38943  25148499.203
  25148504.863          41.100          22.600
 117171296.485 7  91302212.26845  22296906.922
  22296910.977          46.800          31.900
 123640053.842 7  96342972.31345  23527877.523
  23527882.520          43.000          30.900
 107523437.707 8  83784536.68846  20460987.742
  20460991.594          48.200          41.400
 131008904.228 7 102084901.88944  24930161.398
  24930165.867          43.300          25.500
 111842207.731 8  87149857.53746  21282830.594
  21282834.574          48.800          38.400
 112624160.170 8  87759184.93146  21431651.328
  21431652.887          50.000          41.300
 11 11 22  1 27  0.0000000  0 10G03G06G09G12G14G15G18G19G21G22
 131772192.271 6 102679723.70844  25075410.211
  25075416.961          38.600          24.700
 131632869.862 5 102571134.49442  25048884.711
  25048890.563          33.000          14.800
 108669873.459 8  84677911.26546  20679170.953
  20679175.094          51.800          41.700
 132074292.470 6 102915066.45843  25132901.609
  25132908.051          40.100          19.900
 117106655.611 7  91251842.78545  22284606.258
  22284610.117          46.600          32.200
 123728243.565 7  96411691.56245  23544659.750
  23544664.223          43.300          31.200
 107523462.893 7  83784556.32346  20460992.531
  20460996.199          47.800          41.800
 131015548.863 7 102090079.58844  24931425.586
  24931429.461          42.300          25.000
 111913639.799 8  87205518.85446  21296424.063
  21296427.430          48.300          37.900
 112564895.777 8  87713004.91646  21420373.227
  21420374.922          50.800          40.100
 11 11 22  1 27 30.0000000  0 10G03G06G09G12G14G15G18G19G21G22
 131834759.803 6 102728477.60843  25087316.750
  25087323.051          38.500          22.000
 131691706.552 5 102616981.32042  25060081.055
  25060086.797          32.300          16.300
 108686619.699 8  84690960.29646  20682357.109
  20682362.168          52.200          41.100
 131992335.114 6 102851203.66643  25117305.344
  25117311.449          40.800          22.500
 117042272.022 7  91201673.76645  22272354.273
  22272358.031          47.000          31.800
 123816466.995 7  96480437.04245  23561448.609
  23561452.652          42.600          30.400
 107523800.676 7  83784819.52546  20461057.148
  20461060.719          47.100          41.600
 131022687.082 6 102095641.83043  24932783.711
  24932787.926          40.200          23.500
 111985524.040 8  87261532.53846  21310103.078
  21310106.543          49.900          37.800
 112505811.769 8  87666965.44546  21409130.336
  21409131.703          51.300          40.700
 11 11 22  1 28  0.0000000  0 10G03G06G09G12G14G15G18G19G21G22
 131897560.571 6 102777413.25743  25099267.055
  25099273.363          39.200          22.200
 131750734.071 4 102662976.79242  25071312.352
  25071319.887          29.600          16.300
 108704039.951 8  84704534.51146  20685672.672
  20685677.391          51.400          41.000
 131910386.233 6 102787347.48043  25101710.719
  25101717.574          41.000          22.800
 116978145.946 7  91151705.40745  22260151.914
  22260155.117          46.800          32.400
 123904723.490 7  96549208.31845  23578242.805
  23578247.285          43.200          31.200
 107524451.859 8  83785326.94846  20461181.250
  20461184.516          48.400          41.600
 131030318.617 6 102101588.54944  24934236.133
  24934240.230          41.400          25.600
 112057858.714 7  87317897.19546  21323867.625
  21323871.563          46.000          37.900
 112446910.071 8  87621068.03646  21397921.477
  21397923.223          49.600          41.100
 11 11 22  1 28 30.0000000  0 10G03G06G09G12G14G15G18G19G21G22
 131960591.692 6 102826528.44543  25111262.000
  25111268.145          37.500          22.900
 131809949.479 5 102709118.54342  25082581.664
  25082588.398          32.400          16.900
 108722133.182 8  84718633.14246  20689115.711
  20689120.324          51.900          41.400
 131828448.415 7 102723499.86543  25086118.398
  25086124.613          42.300          23.000
 116914277.471 7  91101937.79245  22247997.789
  22248001.223          46.300          32.100
 123993011.634 7  96618004.25244  23595043.086
  23595047.191          43.100          29.900
 107525417.163 8  83786079.13446  20461364.852
  20461367.793          49.300          41.200
 131038442.163 7 102107918.63944  24935781.813
  24935786.043          42.400          24.600
 112130640.906 8  87374610.57346  21337717.453
  21337721.469          49.600          37.900
 112388191.923 8  87575313.66246  21386748.313
  21386749.539          49.900          40.200
 11 11 22  1 29  0.0000000  0 10G03G06G09G12G14G15G18G19G21G22
 132023850.547 6 102875821.07843  25123299.242
  25123305.719          39.200          21.500
 131869350.397 5 102755404.96742  25093885.648
  25093891.734          31.600          15.600
 108740898.941 8  84733255.81446  20692686.688
  20692691.598          52.100          41.800
 131746525.478 6 102659663.84443  25070528.500
  25070536.223          40.900          22.300
 116850666.867 7  91052371.09145  22235892.969
  22235896.922          46.400          32.600
 124081330.876 7  96686824.40845  23611849.688
  23611854.293          42.700          30.800
 107526698.030 8  83787077.21446  20461608.500
  20461611.848          49.400          41.800
 131047056.846 7 102114631.39144  24937421.133
  24937425.523          42.600          25.200
 112203868.738 8  87431671.19246  21351652.594
  21351656.277          49.500          38.100
 112329659.367 8  87529703.89746  21375609.250
  21375610.898          50.600          40.300
 11 11 22  1 29 30.0000000  0 10G03G06G09G12G14G15G18G19G21G22
 132087334.016 6 102925288.73443  25135379.500
  25135385.965          37.300          19.300
 131928934.154 5 102801833.79442  25105222.703
  25105230.301          31.000          17.400
 108760336.457 8  84748401.92846  20696385.414
  20696390.129          51.800          41.500
 131664620.427 7 102595841.81844  25054943.219
  25054949.867          43.400          25.500
 116787314.338 7  91003005.50845  22223837.242
  22223841.152          46.900          32.400
 124169680.154 7  96755667.96345  23628662.008
  23628667.793          43.700          30.900
 107528295.446 8  83788321.95546  20461912.922
  20461915.574          48.700          41.300
 131056162.006 6 102121726.34944  24939153.898
  24939158.156          41.700          25.800
 112277540.256 8  87489077.54346  21365671.344
  21365675.430          50.000          37.100
 112271312.634 8  87484238.92246  21364506.305
  21364507.898          49.300          41.000
 11 11 22  1 30  0.0000000  0 10G03G06G09G12G14G15G18G19G21G22
 132151038.733 6 102974928.74643  25147502.281
  25147509.012          36.900          18.300
 131988697.229 5 102848402.35743  25116596.266
  25116603.223          32.000          18.300
 108780443.763 8  84764069.96846  20700211.508
  20700216.176          52.000          41.400
 131582734.991 6 102532035.08543  25039359.766
  25039366.973          41.700          21.500
 116724219.183 7  90953840.47445  22211830.383
  22211835.094          46.000          33.300
 124258057.394 7  96824533.30645  23645480.250
  23645485.789          44.400          31.200
 107530209.230 8  83789813.21746  20462276.523
  20462279.902          49.400          41.400
 131065755.806 6 102129202.09643  24940979.242
  24940983.711          40.500          22.600
 112351652.737 8  87546827.50946  21379774.711
  21379778.348          49.600          37.400
 112213152.673 8  87438919.49246  21353438.641
  21353440.242          50.500          40.700
 11 11 22  1 30 30.0000000  0 10G03G06G09G12G14G15G18G19G21G22
 132214962.568 6 103024739.51742  25159666.031
  25159673.250          36.000          17.400
 132048637.536 6 102895109.10643  25128002.625
  25128008.789          36.100          19.000
 108801220.955 8  84780259.98846  20704165.461
  20704169.801          51.700          41.200
 131500873.546 6 102468246.96943  25023782.117
  25023788.629          40.900          19.900
 116661382.737 7  90904877.02945  22199873.617
  22199877.395          46.400          32.300
 124346462.592 7  96893420.46945  23662303.039
  23662307.582          44.200          30.300
 107532441.631 8  83791552.74746  20462701.352
  20462704.895          48.600          41.800
 131075838.183 6 102137058.49144  24942898.633
  24942902.328          41.900          24.300
 112426204.789 8  87604919.98546  21393961.695
  21393965.359          49.700          36.200
 112155182.258 8  87393747.75446  21342407.563
  21342409.027          50.800          40.500
 11 11 22  1 31  0.0000000  0 10G03G06G09G12G14G15G18G19G21G22
 132279102.501 5 103074718.69843  25171872.141
  25171878.590          35.400          19.000
 132108752.510 5 102941951.92943  25139441.414
  25139448.344          33.500          18.600
 108822667.000 8  84796971.20546  20708246.711
  20708250.785          51.700          41.300
 131419038.872 6 102404479.73543  25008210.281
  25008216.078          39.900          19.900
 116598804.621 7  90856114.89345  22187965.000
  22187969.563          47.100          33.500
 124434894.378 7  96962328.33744  23679130.961
  23679135.613          45.400          29.500
 107534993.600 8  83793541.29647  20463186.898
  20463190.570          48.000          42.100
 131086407.737 6 102145294.57043  24944908.969
  24944913.215          39.000          22.900
 112501193.899 7  87663353.02946  21408231.227
  21408235.418          46.200          37.200
 112097402.266 8  87348724.40746  21331412.055
  21331413.902          50.800          40.900
 11 11 22  1 31 30.0000000  0 10G03G06G09G12G14G15G18G19G21G22
 132343455.230 6 103124863.72742  25184117.656
  25184124.965          38.100          17.400
 132169039.017 5 102988928.40142  25150914.063
  25150920.414          35.200          15.600
 108844780.411 8  84814202.43046  20712454.734
  20712458.777          51.800          40.900
 131337233.964 6 102340735.76543  24992642.539
  24992649.336          38.600          19.900
 116536484.841 7  90807554.04945  22176106.492
  22176110.664          47.300          33.700
 124523351.534 7  97031255.94745  23695964.156
  23695969.594          44.300          30.900
 107537865.646 8  83795779.24846  20463733.375
  20463736.813          50.000          41.200
 131097463.411 6 102153909.35544  24947013.727
  24947018.063          41.400          24.300
 112576617.625 8  87722124.73846  21422584.531
  21422588.027          49.500          36.000
 112039813.843 8  87303850.32246  21320453.484
  21320455.242          50.000          40.300
 11 11 22  1 32  0.0000000  0 10G03G06G09G12G14G15G18G19G21G22
 132408017.800 5 103175172.16142  25196403.094
  25196410.707          33.600          15.600
 132229494.474 5 103036036.56142  25162417.734
  25162425.031          35.000          16.900
 108867560.275 8  84831952.97746  20716789.922
  20716793.953          52.000          41.400
 131255462.084 6 102277017.45343  24977081.891
  24977088.695          40.200          21.500
 116474423.328 7  90759194.46145  22164296.070
  22164300.320          46.400          34.000
 124611832.867 7  97100202.38545  23712801.492
  23712807.746          43.800          31.100
 107541058.413 8  83798267.10646  20464341.148
  20464344.070          49.000          41.300
 131109003.872 6 102162901.94644  24949209.734
  24949213.230          41.500          25.200
 112652473.606 8  87781233.27146  21437019.320
  21437022.949          49.600          36.500
 111982418.298 8  87259126.53146  21309531.938
  21309533.207          49.700          41.200
 11 11 22  1 32 30.0000000  0 10G03G06G09G12G14G15G18G19G21G22
 132472786.483 5 103225641.24142  25208728.430
  25208735.328          32.900          13.900
 132290115.378 5 103083273.66342  25173955.281
  25173961.324          33.600          17.400
 108891004.897 8  84850221.51346  20721251.203
  20721255.699          51.800          41.500
 131173725.215 6 102213326.41943  24961527.680
  24961534.707          41.100          22.600
 116412619.433 7  90711035.60845  22152535.563
  22152539.258          47.200          34.300
 124700336.769 7  97169166.37845  23729643.703
  23729648.477          44.000          30.200
 107544572.417 8  83801005.31046  20465009.648
  20465013.129          48.600          41.500
 131121027.268 6 102172270.90043  24951496.563
  24951501.246          39.400          22.300
 112728758.994 8  87840676.40445  21451536.094
  21451539.746          49.500          35.700
 111925216.511 8  87214553.72046  21298646.563
  21298647.949          49.700          40.800
 11 11 22  1 33  0.0000000  0 10G03G06G09G12G14G15G18G19G21G22
 132537759.517 5 103276269.67042  25221092.664
  25221100.066          34.500          14.800
 132350900.007 5 103130638.27742  25185522.008
  25185528.172          33.700          16.300
 108915113.758 8  84869007.64546  20725838.695
  20725843.031          50.500          41.100
 131092027.516 6 102149665.92943  24945981.172
  24945988.289          41.900          22.000
 116351074.515 8  90663078.56145  22140823.523
  22140828.027          48.100          35.000
 124788863.248 7  97238148.05345  23746489.836
  23746493.887          44.300          31.500
 107548410.071 8  83803995.68346  20465740.227
  20465743.496          50.000          41.700
 131133534.029 6 102182016.42844  24953876.602
  24953881.465          41.200          24.300
 112805472.476 8  87900453.12745  21466134.234
  21466137.750          49.700          35.600
 111868210.333 8  87170133.33346  21287798.258
  21287799.961          50.100          40.400
 11 11 22  1 33 30.0000000  0 10G03G06G09G12G14G15G18G19G21G22
 132602934.275 5 103327055.18842  25233495.484
  25233501.988          34.500          15.600
 132411846.006 5 103178128.61942  25197119.422
  25197125.531          32.400          14.800
 108939886.210 8  84888310.86546  20730552.398
  20730556.965          50.400          40.800
 131010372.545 7 102086038.75243  24930443.727
  24930449.906          44.300          23.900
 116289789.013 7  90615323.66445  22129161.563
  22129165.680          45.400          35.100
 124877411.526 7  97307146.70345  23763339.406
  23763344.012          43.300          30.200
 107552572.242 8  83807238.93346  20466532.094
  20466535.590          48.900          41.400
 131146522.714 7 102192137.50344  24956348.914
  24956352.102          42.200          24.700
 112882611.983 8  87960561.82245  21480812.563
  21480816.695          49.300          35.000
 111811401.813 8  87125866.96646  21276988.203
  21276989.301          49.300          40.200
 11 11 22  1 34  0.0000000  0 10G03G06G09G12G14G15G18G19G21G22
 132668307.344 5 103377995.28142  25245934.203
  25245942.418          33.100          16.300
 132472950.173 5 103225742.29142  25208747.047
  25208753.621          32.300          15.600
 108965320.835 8  84908130.04646  20735392.594
  20735397.117          50.200          41.400
 130928762.788 6 102022446.82043  24914913.414
  24914920.109          41.500          23.300
 116228762.482 7  90567770.55345  22117548.461
  22117552.703          47.000          34.200
 124965980.061 7  97376161.09544  23780193.586
  23780198.375          43.200          29.600
 107557059.359 8  83810735.39046  20467386.047
  20467389.375          48.500          41.400
 131159991.899 6 102202633.00244  24958912.008
  24958916.078          40.000          24.800
 112960174.927 8  88021000.43945  21495572.719
  21495576.535          48.600          35.400
 111754791.999 8  87081755.43546  21266215.953
  21266217.164          49.600          41.500
 11 11 22  1 34 30.0000000  0 10G03G06G09G12G14G15G18G19G21G22
 132733876.210 5 103429087.93442  25258412.781
  25258420.313          32.900          15.600
 132534209.938 5 103273477.10742  25220404.609
  25220410.406          34.000          16.300
 108991416.393 8  84928464.25546  20740358.000
  20740363.211          50.100          41.400
 130847201.485 6 101958892.65543  24899392.781
  24899399.617          41.700          23.800
 116167995.165 7  90520419.43145  22105984.617
  22105988.688          47.000          34.800
 125054568.383 7  97445190.91944  23797050.922
  23797055.949          43.200          27.500
 107561872.485 8  83814485.86946  20468302.141
  20468305.215          49.500          41.700
 131173940.518 7 102213502.03744  24961566.961
  24961570.102          42.600          25.800
 113038159.140 8  88081767.34545  21510412.867
  21510416.645          48.300          35.200
 111698382.580 8  87037800.05046  21255480.984
  21255482.398          50.400          40.700
 11 11 22  1 35  0.0000000  0 10G03G06G09G12G14G15G18G19G21G22
 132799637.202 4                  25270925.102
                        28.900
 132595621.944 5 103321330.68142  25232090.117
  25232096.164          32.800          16.900
 109018171.339 8  84949312.25546  20745449.641
  20745454.391          49.900          41.400
 130765691.411 6 101895378.35643  24883882.281
  24883888.609          41.600          22.600
 116107486.553 7  90473269.89645  22094470.234
  22094474.445          47.000          35.300
 125143174.804 7  97514234.87744  23813912.188
  23813916.688          42.700          28.400
 107567012.147 8  83818490.79846  20469279.805
  20469283.238          49.000          40.900
 131188367.000 6 102224743.48444  24964312.031
  24964315.602          41.600          25.800
 113116561.958 8  88142860.41945  21525332.250
  21525336.219          48.700          35.600
 111642174.131 8  86994001.27346  21244785.031
  21244786.605          50.000          40.900
 11 11 22  1 35 30.0000000  0 10G03G06G09G12G14G15G18G19G21G22
 132865587.623 5                  25283477.266
                        35.200
 132657183.952 5 103369301.05842  25243805.031
  25243811.512          34.300          17.800
 109045584.569 8  84970673.21446  20750667.023
  20750671.277          49.200          41.400
 130684235.963 6 101831906.63943  24868381.773
  24868388.309          40.300          23.000
 116047236.813 7  90426322.07445  22083005.195
  22083009.914          45.900          35.900
 125231798.572 7  97583292.33844  23830777.438
  23830781.430          42.200          27.600
 107572479.615 8  83822751.15846  20470320.133
  20470323.918          48.600          41.400
 131203270.531 6 102236356.66044  24967147.688
  24967151.949          40.900          25.500
 113195381.008 8  88204277.84345  21540331.094
  21540334.652          49.100          35.900
 111586168.315 8  86950360.38546  21234127.648
  21234128.953          49.200          40.800
 11 11 22  1 36  0.0000000  0 10G03G06G09G12G14G15G18G19G21G22
 132931724.245 5                  25296061.602
                        34.800
 132718892.815 5 103417385.83942  25255548.703
  25255554.422          35.600          17.400
 109073654.390 8  84992545.80146  20756008.602
  20756012.992          50.100          41.100
 130602837.632 6 101768479.46243  24852891.289
  24852898.609          37.200          22.900
 115987245.910 7  90379575.94545  22071589.273
  22071593.516          46.500          35.900
 125320438.516 7  97652362.38644  23847645.125
  23847649.242          43.500          28.500
 107578275.297 8  83827267.26846  20471423.383
  20471426.770          48.900          41.900
 131218649.346 7 102248340.17744  24970074.391
  24970077.652          42.400          24.100
 113274613.744 7  88266017.62945  21555408.578
  21555412.160          45.900          35.700
 111530366.314 8  86906878.32146  21223508.734
  21223510.152          50.000          41.000
 11 11 22  1 36 30.0000000  0  9G06G09G12G14G15G18G19G21G22
 132780746.604 5 103465583.58243  25267317.867
  25267324.750          33.300          18.600
 109102380.322 8  85014929.64846  20761474.750
  20761478.586          50.300          41.100
 130521500.692 6 101705100.02543  24837413.609
  24837421.262          40.800          22.800
 115927514.601 7  90333032.09546  22060222.703
  22060227.137          47.300          36.500
 125409094.303 7  97721444.74844  23864516.023
  23864520.145          43.000          28.500
 107584401.280 7  83832040.76146  20472589.125
  20472592.324          47.600          41.600
 131234503.205 6 102260693.86044  24973090.930
  24973094.996          38.600          25.200
 113354258.529 7  88328078.45745  21570564.727
  21570568.563          47.200          35.700
 111474770.737 8  86863557.10546  21212929.523
  21212930.637          48.900          41.000
 11 11 22  1 37  0.0000000  0 10G03G06G09G12G14G15G18G19G21G22
 133064546.826 5                  25321337.289
                        33.600
 132842741.843 5 103513891.60742  25279115.328
  25279122.543          32.900          16.900
 109131760.859 8  85037823.57346  20767065.930
  20767069.594          51.200          41.800
 130440227.668 6 101641770.53443  24821947.063
  24821954.238          38.900          22.600
 115868042.304 7  90286690.07846  22048905.484
  22048909.809          45.600          36.500
 125497764.383 6  97790538.28744  23881388.594
  23881393.289          41.900          28.400
 107590857.597 7  83837071.64846  20473817.219
  20473820.535          47.400          40.900
 131250830.208 6 102273416.22244  24976196.852
  24976201.426          40.600          26.000
 113434312.435 8  88390458.10645  21585798.406
  21585802.422          49.300          35.600
 111419381.972 8  86820397.03047  21202389.539
  21202390.898          48.800          42.000
 11 11 22  1 37 30.0000000  0 11G03G06G09G12G14G15G18G19G21G22G25
 133131226.148 5                  25334026.945
                        32.500
 132904876.025 5 103562307.79643  25290939.180
  25290945.801          32.800          18.300
 109161794.247 8  85061226.22046  20772780.578
  20772784.828          50.800          41.300
 130359021.884 6 101578493.31443  24806494.422
  24806501.457          39.200          22.500
 115808829.089 8  90240549.92446  22037637.492
  22037641.703          48.000          36.900
 125586447.781 6  97859642.18744  23898264.719
  23898269.512          39.200          26.000
 107597645.504 8  83842360.92346  20475109.008
  20475112.668          49.200          41.600
 131267628.944 6 102286506.20044  24979394.359
  24979397.984          41.000          27.400
 113514773.198 8  88453154.77446  21601109.375
  21601113.391          49.000          36.000
 111364201.437 8  86777399.22346  21191888.641
  21191890.477          50.000          40.900
 134667749.106 5 104935961.97542  25626422.336
  25626434.102          33.900          14.800
 11 11 22  1 38  0.0000000  0 11G03G06G09G12G14G15G18G19G21G22G25
 133198080.126 5                  25346747.742
                        31.800
 132967146.251 5 103610829.99042  25302788.898
  25302795.313          31.900          16.900
 109192478.999 8  85085136.43146  20778619.688
  20778623.988          50.700          41.000
 130277886.126 6 101515270.69543  24791054.641
  24791062.223          40.100          23.300
 115749875.194 7  90194611.85446  22026419.172
  22026423.457          47.200          36.400
 125675143.610 6  97928755.81744  23915142.867
  23915147.828          40.100          27.800
 107604765.621 8  83847909.06047  20476464.133
  20476467.523          49.200          42.200
 131284898.136 6 102299962.67844  24982679.820
  24982684.977          39.300          24.000
 113595638.324 8  88516166.53545  21616497.734
  21616501.570          48.200          34.700
 111309230.613 8  86734564.81546  21181427.789
  21181429.512          49.700          41.300
 134582651.050 5 104869651.87942  25610228.672
  25610239.676          33.700          15.600
 11 11 22  1 38 30.0000000  0  9G09G12G14G15G18G19G21G22G25
 109223813.711 8  85109553.10746  20784582.031
  20784586.805          50.100          41.100
 130196823.723 6 101452105.24643  24775629.852
  24775636.336          41.600          22.800
 115691180.508 7  90148875.76346  22015249.797
  22015254.453          47.500          36.000
 125763851.253 7  97997878.61844  23932024.297
  23932029.551          42.700          27.200
 107612218.920 8  83853716.81246  20477881.969
  20477885.883          48.600          41.600
 131302636.380 6 102313784.74444  24986056.445
  24986059.762          40.600          26.000
 113676905.188 8  88579491.33845  21631962.664
  21631965.953          48.000          34.400
 111254471.254 8  86691895.19946  21171007.203
  21171009.102          48.300          40.800
 134497388.829 6 104803213.73342  25594003.867
  25594014.414          37.200          16.300
 11 11 22  1 39  0.0000000  0  9G09G12G14G15G18G19G21G22G25
 109255797.068 8  85134475.20446  20790668.352
  20790673.137          49.300          40.700
 130115837.673 6 101388999.33943  24760217.711
  24760225.000          40.200          22.500
 115632744.925 7  90103341.56946  22004129.844
  22004134.316          47.800          36.600
 125852569.615 6  98067009.79444  23948905.813
  23948911.656          41.400          26.300
 107620006.318 7  83859784.90546  20479364.289
  20479367.543          46.200          41.600
 131320842.519 6 102327971.37944  24989520.508
  24989524.621          40.200          26.100
 113758571.722 7  88643127.59545  21647502.906
  21647507.070          47.400          34.200
 111199924.496 8  86649391.24147  21160627.680
  21160629.516          49.500          42.300
 134411964.258 6 104736649.13942  25577748.133
  25577758.148          37.200          16.300
 11 11 22  1 39 30.0000000  0  9G09G12G14G15G18G19G21G22G25
 109288428.083 7  85159901.98346  20796877.594
  20796882.703          47.600          41.300
 130034931.641 7 101325955.74344  24744822.609
  24744829.477          42.800          27.000
 115574568.741 7  90058009.49045  21993059.172
  21993063.184          46.500          35.400
 125941297.987 6  98136148.72144  23965789.906
  23965795.793          40.700          26.200
 107628129.006 8  83866114.27146  20480910.102
  20480913.609          49.100          41.800
 131339515.371 6 102342521.69844  24993073.383
  24993077.793          39.000          24.800
 113840635.634 8  88707073.46945  21663118.969
  21663123.371          49.500          34.300
 111145592.160 8  86607054.36546  21150288.727
  21150290.313          49.000          41.200
 134326380.297 6 104669960.32143  25561462.180
  25561471.359          37.200          18.600
 11 11 22  1 40  0.0000000  0  9G09G12G14G15G18G19G21G22G25
 109321704.916 8  85185831.97046  20803210.305
  20803215.266          49.000          40.900
 129954108.158 6 101262976.52943  24729442.086
  24729448.387          40.500          22.300
 115516651.755 7  90012879.38345  21982038.195
  21982042.543          46.000          35.700
 126030035.298 7  98205294.64244  23982676.867
  23982681.082          42.200          27.300
 107636587.484 8  83872705.28846  20482519.844
  20482522.797          48.200          41.400
 131358653.111 6 102357434.28744  24996715.094
  24996719.543          40.800          26.400
 113923093.885 7  88771326.62345  21678810.555
  21678813.910          47.500          33.500
 111091475.352 8  86564885.42746  21139990.484
  21139992.145          48.800          41.400
 134240639.034 6 104603148.96543  25545145.813
  25545155.953          37.600          19.000
 11 11 22  1 40 30.0000000  0  9G09G12G14G15G18G19G21G22G25
 109355626.308 8  85212264.21746  20809665.758
  20809669.898          48.300          40.400
 129873371.117 6 101200064.63343  24714077.836
  24714085.219          39.900          22.800
 115458994.513 7  89967951.69146  21971066.203
  21971070.207          45.000          36.600
 126118780.289 7  98274446.54744  23999564.742
  23999569.988          42.600          27.700
 107645383.211 8  83879559.09446  20484193.523
  20484196.906          48.900          41.400
 131378254.991 6 102372708.50544  25000445.773
  25000450.000          40.400          27.700
 114005944.683 8  88835885.67645  21694576.406
  21694580.430          48.100          32.900
 111037576.305 8  86522886.18446  21129733.820
  21129735.508          48.200          41.600
 134154743.589 6 104536217.54443  25528800.570
  25528809.699          39.800          19.900
 11 11 22  1 41  0.0000000  0  9G09G12G14G15G18G19G21G22G25
 109390190.759 8  85239197.55546  20816243.078
  20816247.160          49.100          40.600
 129792723.433 6 101137222.37343  24698731.297
  24698738.055          40.200          23.300
 115401596.748 8  89923226.19245  21960143.555
  21960147.563          48.300          35.800
 126207532.369 6  98343603.97744  24016453.383
  24016457.266          41.700          25.300
 107654516.726 8  83886676.11046  20485931.727
  20485934.926          48.500          41.200
 131398319.256 6 102388343.03444  25004264.203
  25004267.258          39.200          27.500
 114089185.438 7  88900748.56745  21710416.828
  21710420.109          47.800          33.500
 110983895.479 8  86481056.97246  21119518.805
  21119520.172          49.600          41.200
 134068696.045 6 104469167.50143  25512425.945
  25512435.957          37.600          19.300
 11 11 22  1 41 30.0000000  0  9G09G12G14G15G18G19G21G22G25
 109425395.822 8  85266630.07546  20822942.383
  20822947.188          50.100          41.200
 129712167.152 6 101074451.29644  24683402.695
  24683408.297          41.900          24.600
 115344457.165 7  89878701.87446  21949270.789
  21949274.723          45.800          36.500
 126296290.582 7  98412766.15644  24033344.430
  24033347.305          42.400          25.100
 107663988.086 8  83894056.38146  20487734.078
  20487736.758          49.500          41.500
 131418843.652 6 102404336.12444  25008169.781
  25008173.262          41.400          27.100
 114172812.719 7  88965912.67645  21726330.453
  21726334.188          47.100          32.800
 110930434.030 8  86439398.71046  21109345.352
  21109347.109          49.000          40.800
 133982498.161 6 104402000.45743  25496023.000
  25496032.836          39.200          20.400
 11 11 22  1 42  0.0000000  0  9G09G12G14G15G18G19G21G22G25
 109461239.853 8  85294560.50446  20829763.094
  20829767.633          50.100          41.300
 129631705.986 6 101011754.35043  24668090.633
  24668096.305          40.800          22.600
 115287576.632 7  89834379.39646  21938446.172
  21938450.250          45.700          36.200
 126385053.561 6  98481932.08044  24050234.969
  24050238.617          41.400          24.500
 107673798.568 7  83901700.90846  20489600.688
  20489603.805          47.900          41.400
 131439826.780 6 102420686.64744  25012162.375
  25012165.863          38.800          26.100
 114256824.573 7  89031376.41745  21742317.477
  21742320.930          47.800          33.000
 110877193.564 8  86397912.64646  21099214.344
  21099215.453          48.000          41.400
 133896152.922 6 104334718.52743  25479592.242
  25479601.637          38.300          19.600
 11 11 22  1 42 30.0000000  0  9G09G12G14G15G18G19G21G22G25
 109497721.536 8  85322987.79846  20836705.188
  20836709.863          50.200          41.100
 129551343.268 6 100949134.14844  24652798.156
  24652804.305          40.500          24.500
 115230955.173 7  89790258.81045  21927671.234
  21927675.496          47.600          35.800
 126473820.801 7  98551101.33344  24067126.430
  24067130.398          42.700          25.300
 107683949.331 8  83909610.58846  20491532.414
  20491535.465          48.500          41.800
 131461267.340 6 102437393.57544  25016242.461
  25016245.578          40.600          26.000
 114341217.958 7  89097137.47145  21758377.234
  21758380.785          47.400          33.100
 110824176.141 8  86356600.38446  21089125.414
  21089127.066          50.500          41.100
 133809662.741 6 104267323.62943  25463133.117
  25463143.777          39.900          19.600
 11 11 22  1 43  0.0000000  0  9G09G12G14G15G18G19G21G22G25
 109534840.276 8  85351911.51046  20843768.523
  20843773.363          50.000          40.300
 129471083.312 6 100886594.03243  24637525.555
  24637531.875          40.200          23.000
 115174593.327 7  89746340.50146  21916946.156
  21916950.582          47.200          36.100
 126562592.248 6  98620273.87444  24084018.695
  24084024.238          41.900          25.500
 107694442.111 7  83917786.77246  20493529.250
  20493532.598          47.400          41.600
 131483165.001 6 102454456.72343  25020408.813
  25020413.297          36.900          23.900
 114425991.843 7  89163195.02545  21774508.883
  21774512.664          46.600          34.000
 110771383.654 8  86315463.38746  21079079.289
  21079080.301          50.300          41.800
 133723031.495 6 104199818.79243  25446648.031
  25446658.090          40.200          20.600
 11 11 22  1 43 30.0000000  0  9G09G12G14G15G18G19G21G22G25
 109572593.037 8  85381329.25046  20850952.484
  20850956.395          49.100          40.600
 129390927.835 7 100824135.27444  24622272.313
  24622278.016          42.400          25.200
 115118490.117 7  89702623.73646  21906270.227
  21906274.129          47.800          36.000
 126651366.022 7  98689448.18644  24100912.094
  24100917.324          42.100          25.900
 107705276.464 8  83926229.12146  20495590.859
  20495594.246          48.000          41.900
 131505516.971 6 102471873.83244  25024662.469
  25024666.738          38.600          24.900
 114511142.244 7  89229545.96345  21790712.367
  21790716.902          46.400          33.500
 110718816.527 8  86274501.99946  21069076.336
  21069077.855          49.500          41.700
 133636260.228 6 104132204.86343  25430135.359
  25430145.895          38.700          19.900
 11 11 22  1 44  0.0000000  0  9G09G12G14G15G18G19G21G22G25
 109610978.812 8  85411240.25246  20858257.227
  20858261.484          49.500          39.800
 129310880.709 6 100761760.93943  24607040.195
  24607045.672          40.700          22.800
 115062646.114 8  89659108.95046  21895643.266
  21895647.660          48.200          36.500
 126740141.735 6  98758624.00544  24117805.734
  24117810.809          40.400          25.600
 107716453.617 8  83934938.58146  20497717.844
  20497721.250          49.000          41.600
 131528322.357 6 102489644.31944  25029002.461
  25029006.531          39.400          25.500
 114596667.054 7  89296188.64645  21806986.953
  21806991.031          46.800          33.400
 110666476.950 8  86233717.92946  21059115.758
  21059117.605          49.900          41.600
 133549352.181 6 104064484.43143  25413597.438
  25413608.375          40.700          21.800
 11 11 22  1 44 30.0000000  0  9G09G12G14G15G18G19G21G22G25
 109649995.376 8  85441642.78246  20865681.859
  20865686.242          49.800          39.900
 129230944.445 6 100699473.03243  24591828.055
  24591834.293          41.900          22.800
 115007060.813 8  89615795.74146  21885065.578
  21885069.953          49.100          36.100
 126828918.029 6  98827800.26844  24134700.086
  24134704.695          41.400          25.000
 107727974.033 8  83943915.53046  20499910.172
  20499913.371          49.000          41.600
 131551578.959 6 102507766.36044  25033427.555
  25033431.703          38.600          24.800
 114682563.261 7  89363120.73145  21823332.531
  21823336.992          46.600          32.900
 110614365.847 8  86193111.89346  21049199.391
  21049201.352          50.200          41.800
 133462309.070 6 103996658.71643  25397034.305
  25397044.391          39.200          21.100
 11 11 22  1 45  0.0000000  0  9G09G12G14G15G18G19G21G22G25
 109689641.482 8  85472535.84546  20873226.391
  20873230.957          48.600          40.600
 129151122.466 6 100637274.11343  24576639.008
  24576644.164          40.100          22.600
 114951734.595 8  89572684.42946  21874537.211
  21874541.754          48.900          36.800
 126917694.783 6  98896976.89543  24151592.945
  24151598.781          39.800          23.600
 107739839.093 8  83953161.01746  20502167.688
  20502170.922          48.400          41.900
 131575285.520 6 102526239.01644  25037938.914
  25037942.949          38.200          24.700
 114768829.255 7  89430340.96645  21839748.555
  21839752.512          47.000          33.900
 110562485.251 8  86152685.46147  21039327.008
  21039328.348          49.000          42.100
 133375134.422 6 103928730.52243  25380445.422
  25380455.520          39.500          20.900
 11 11 22  1 45 30.0000000  0  9G09G12G14G15G18G19G21G22G25
 109729915.648 8  85503918.32146  20880890.242
  20880894.883          49.700          40.000
 129071418.550 6 100575167.26343  24561471.055
  24561476.566          39.800          22.200
 114896667.466 8  89529775.00046  21864058.969
  21864062.766          49.000          37.300
 127006470.928 6  98966153.11543  24168486.391
  24168491.328          38.300          23.000
 107752049.880 8  83962675.91246  20504491.383
  20504494.645          49.300          41.200
 131599441.147 6 102545061.55844  25042535.438
  25042539.961          37.100          24.400
 114855462.384 7  89497847.26245  21856234.398
  21856238.359          47.300          34.000
 110510836.563 8  86112439.74246  21029498.477
  21029500.418          49.000          41.800
 133287830.966 6 103860701.90443  25363831.867
  25363842.582          39.900          21.100
 11 11 22  1 46  0.0000000  0  9G09G12G14G15G18G19G21G22G25
 109770815.791 8  85535788.55546  20888673.500
  20888677.836          48.500          39.900
 128991835.557 6 100513154.61244  24546327.555
  24546332.676          40.900          24.200
 114841859.281 7  89487067.34846  21853628.922
  21853633.180          46.000          36.400
 127095245.712 6  99035328.18243  24185379.906
  24185385.133          39.900          22.500
 107764607.175 8  83972460.82446  20506881.195
  20506884.762          48.400          41.600
 131624043.805 6 102564232.51244  25047217.508
  25047221.059          40.000          26.600
 114942459.766 7  89565637.39945  21872789.125
  21872793.516          47.600          34.000
 110459421.544 7  86072376.10647  21019714.656
  21019716.180          47.600          42.300
 133200401.078 6 103792574.80143  25347194.930
  25347204.051          39.200          20.600
 11 11 22  1 46 30.0000000  0  9G09G12G14G15G18G19G21G22G25
 109812339.750 8  85568144.90746  20896574.844
  20896579.535          51.100          41.000
 128912376.553 6 100451238.60243  24531206.445
  24531212.465          41.300          23.200
 114787309.772 8  89444561.26146  21843248.930
  21843253.152          48.900          36.000
 127184018.397 6  99104501.66843  24202272.703
  24202277.594          39.700          22.000
 107777511.496 8  83982516.12547  20509336.547
  20509340.301          49.000          42.100
 131649091.722 6 102583750.36844  25051983.703
  25051987.996          38.600          24.700
 115029818.628 7  89633709.19945  21889413.773
  21889417.594          46.400          33.400
 110408241.259 8  86032495.37346  21009975.375
  21009976.961          49.200          41.600
 133112847.050 6 103724350.91643  25330533.445
  25330543.023          39.700          21.300
 11 11 22  1 47  0.0000000  0  9G09G12G14G15G18G19G21G22G25
 109854485.933 8  85600986.09446  20904595.406
  20904599.605          50.000          40.500
 128833045.181 6 100389422.06743  24516109.305
  24516115.016          41.700          23.400
 114733019.016 8  89402256.80446  21832917.922
  21832921.465          48.400          37.300
 127272788.062 6  99173672.74843  24219165.313
  24219169.957          38.200          21.800
 107790763.652 8  83992842.46946  20511858.125
  20511861.738          49.500          41.300
 131674583.295 6 102603613.93944  25056834.492
  25056838.395          37.700          24.700
 115117536.530 7  89702060.80445  21906105.367
  21906109.551          46.300          34.200
 110357297.283 8  85992798.79147  21000281.063
  21000282.520          48.800          42.100
 133025171.748 6 103656032.53143  25313849.609
  25313858.945          39.400          21.300
 11 11 22  1 47 30.0000000  0  9G09G12G14G15G18G19G21G22G25
 109897252.554 8  85634310.72646  20912733.367
  20912738.066          50.400          40.200
 128753844.203 6 100327707.07244  24501037.969
  24501044.813          39.800          24.500
 114678986.649 8  89360153.69546  21822635.563
  21822639.047          50.000          36.600
 127361553.690 6  99242840.73043  24236057.305
  24236062.016          38.900          20.900
 107804364.586 8  84003440.59146  20514446.727
  20514450.219          48.900          41.700
 131700516.585 6 102623821.72544  25061770.719
  25061773.367          38.500          25.500
 115205610.806 7  89770690.05945  21922865.852
  21922869.844          46.000          34.000
 110306591.206 8  85953287.57747  20990631.648
  20990633.691          49.800          42.000
 132937377.562 6 103587621.52543  25297142.789
  25297151.426          40.800          21.500
 11 11 22  1 48  0.0000000  0  9G09G12G14G15G18G19G21G22G25
 109940637.845 8  85668117.46646  20920989.180
  20920993.535          50.200          40.100
 128674777.181 6 100266096.47744  24485992.445
  24485998.320          40.800          26.600
 114625213.132 8  89318252.28246  21812402.695
  21812406.527          49.600          36.900
 127450314.970 6  99312005.32443  24252948.203
  24252953.098          38.300          20.100
 107818314.952 8  84014311.00046  20517101.273
  20517105.035          50.200          41.900
 131726890.359 6 102644372.77344  25066787.594
  25066792.441          38.800          24.700
 115294038.876 7  89839595.02645  21939693.086
  21939696.977          46.500          33.800
 110256124.768 8  85913963.08047  20981028.469
  20981030.090          51.100          42.200
 132849467.577 6 103519120.30743  25280414.641
  25280423.426          39.900          19.900
 11 11 22  1 48 30.0000000  0  9G09G12G14G15G18G19G21G22G25
 109984639.759 8  85702404.67146  20929361.930
  20929367.094          49.700          39.100
 128595847.165 6 100204592.67444  24470971.266
  24470979.438          40.400          25.300
 114571698.307 8  89276552.44846  21802218.992
  21802223.328          49.200          36.500
 127539071.145 6  99381165.97643  24269837.234
  24269842.148          38.700          20.900
 107832615.722 8  84025454.44547  20519822.516
  20519826.375          50.000          42.000
 131753702.909 6 102665265.67244  25071890.695
  25071894.652          39.400          24.100
 115382818.200 7  89908773.69045  21956587.484
  21956591.148          46.700          33.900
 110205899.294 8  85874826.36247  20971470.977
  20971472.621          51.100          42.600
 132761444.350 6 103450530.87942  25263662.625
  25263673.055          38.100          17.800
 11 11 22  1 49  0.0000000  0  9G09G12G14G15G18G19G21G22G25
 110029255.830 8  85737170.44546  20937853.039
  20937856.734          50.100          39.500
 128517056.764 6 100143197.61344  24455978.992
  24455986.523          40.700          24.800
 114518441.367 7  89235053.56145  21792084.438
  21792088.523          45.700          35.800
 127627820.674 6  99450321.40543  24286725.867
  24286731.031          37.500          19.900
 107847267.145 8  84036871.13847  20522610.711
  20522614.215          50.500          42.500
 131780951.841 6 102686498.67644  25077075.289
  25077079.508          39.300          25.800
 115471945.732 7  89978223.67545  21973547.266
  21973551.605          46.400          33.500
 110155915.624 8  85835878.07547  20961959.273
  20961960.824          49.300          42.500
 132673310.228 6 103381855.01043  25246891.563
  25246902.438          40.900          22.500
 11 11 22  1 49 30.0000000  0  9G09G12G14G15G18G19G21G22G25
 110074485.014 8  85772413.95246  20946459.828
  20946463.504          51.600          40.200
 128438409.969 6 100081914.54643  24441012.875
  24441019.445          40.400          23.600
 114465442.879 8  89193756.05745  21781999.586
  21782003.617          48.700          35.200
 127716563.579 6  99519471.64543  24303613.234
  24303618.141          36.600          20.900
 107862270.731 8  84048562.24047  20525465.820
  20525469.445          51.000          42.000
 131808636.361 6 102708070.97444  25082343.734
  25082348.492          39.200          26.000
 115561419.360 7  90047943.34745  21990573.922
  21990577.820          47.300          34.100
 110106176.212 8  85797120.09447  20952494.242
  20952495.656          52.100          43.300
 132585068.287 6 103313095.16443  25230099.719
  25230110.668          40.900          20.600
 11 11 22  1 50  0.0000000  0  9G09G12G14G15G18G19G21G22G25
 110120324.505 8  85808133.06046  20955182.641
  20955187.375          51.500          40.300
 128359909.562 6 100020745.46244  24426074.719
  24426081.535          41.200          26.700
 114412702.024 7  89152659.32345  21771962.766
  21771967.074          45.400          35.700
 127805298.318 6  99588615.54143  24320499.281
  24320503.707          39.800          19.600
 107877626.781 8  84060527.98346  20528388.359
  20528391.664          50.300          41.400
 131836753.698 6 102729980.67444  25087694.664
  25087698.656          40.000          25.700
 115651235.658 7  90117930.04345  22007665.445
  22007669.422          47.000          34.400
 110056682.119 8  85758553.28047  20943075.563
  20943077.137          50.600          42.600
 132496720.767 6 103244252.96843  25213287.281
  25213298.168          38.800          21.700
 11 11 22  1 50 30.0000000  0  9G09G12G14G15G18G19G21G22G25
 110166772.208 8  85844326.07046  20964021.672
  20964025.887          52.200          40.900
 128281558.765 6  99959693.00944  24411164.406
  24411171.578          41.800          24.100
 114360219.272 7  89111763.69046  21761975.289
  21761979.863          46.400          36.400
 127894024.927 6  99657753.11043  24337382.586
  24337386.941          38.600          18.600
 107893336.180 8  84072769.06546  20531377.750
  20531380.570          50.100          41.800
 131865302.376 6 102752226.40644  25093126.219
  25093130.652          38.400          24.500
 115741392.449 7  90188182.03945  22024821.961
  22024825.930          47.900          33.500
 110007434.786 8  85720178.74747  20933704.539
  20933706.047          50.600          42.700
 132408270.335 6 103175330.67143  25196456.398
  25196466.270          38.500          19.300
 11 11 22  1 51  0.0000000  0  9G09G12G14G15G18G19G21G22G25
 110213826.411 8  85880991.69446  20972975.641
  20972980.594          51.000          41.000
 128203360.527 6  99898759.40243  24396283.594
  24396290.703          41.300          23.900
 114307994.111 7  89071068.77445  21752037.461
  21752042.004          46.700          35.200
 127982742.146 6  99726883.32543  24354265.172
  24354270.941          37.900          21.500
 107909399.796 8  84085286.17347  20534434.016
  20534437.262          49.900          42.200
 131894280.926 6 102774807.06844  25098641.930
  25098645.707          39.900          26.300
 115831886.564 7  90258696.89845  22042042.180
  22042046.082          47.500          33.600
 109958435.931 8  85681997.83147  20924379.953
  20924381.742          50.600          42.700
 132319719.847 6 103106330.38643  25179605.227
  25179615.641          39.900          21.300
 11 11 22  1 51 30.0000000  0  9G09G12G14G15G18G19G21G22G25
 110261485.475 8  85918128.62546  20982044.406
  20982049.375          49.200          40.900
 128125318.446 6  99837947.45043  24381432.688
  24381439.477          40.400          22.200
 114256026.669 8  89030574.68346  21742148.797
  21742152.672          49.300          36.300
 128071449.342 6  99796005.77443  24371146.656
  24371152.059          40.600          21.300
 107925818.179 8  84098079.71447  20537558.563
  20537561.965          48.900          42.100
 131923687.508 6 102797721.30144  25104237.766
  25104241.238          38.300          25.300
 115922715.865 7  90329472.95745  22059326.453
  22059330.457          47.300          33.500
 109909687.145 8  85644011.77247  20915103.453
  20915105.156          51.400          42.600
 132231072.175 6 103037254.33543  25162737.141
  25162746.398          40.700          21.100
 11 11 22  1 52  0.0000000  0  9G09G12G14G15G18G19G21G22G25
 110309747.571 7  85955735.44046  20991228.328
  20991233.438          47.600          39.800
 128047435.993 7  99777259.93344  24366612.852
  24366619.480          43.100          26.700
 114204316.944 8  88990281.39245  21732308.406
  21732312.680          48.200          35.500
 128160146.233 6  99865120.22043  24388024.523
  24388031.102          39.800          22.200
 107942592.509 7  84111150.60647  20540751.031
  20540754.336          47.800          42.000
 131953520.498 6 102820967.82343  25109915.266
  25109918.020          39.400          23.800
 116013877.959 7  90400508.31845  22076673.414
  22076677.414          46.500          32.700
 109861190.269 8  85606222.01947  20905874.680
  20905876.582          51.100          42.800
 132142330.303 6 102968104.90943  25145850.258
  25145859.141          41.000          19.900
 11 11 22  1 52 30.0000000  0  9G09G12G14G15G18G19G21G22G25
 110358610.251 8  85993810.25846  21000526.961
  21000530.941          49.700          39.200
 127969716.418 7  99716699.28344  24351823.828
  24351829.895          43.000          24.900
 114152864.875 8  88950188.88446  21722517.625
  21722521.508          49.200          36.700
 128248832.162 6  99934226.04643  24404901.016
  24404906.449          38.000          21.800
 107959723.447 8  84124499.39847  20544010.633
  20544014.137          50.000          42.300
 131983777.676 6 102844544.87843  25115671.570
  25115676.137          38.400          22.900
 116105369.943 7  90471800.73945  22094085.172
  22094087.789          46.500          32.400
 109812946.655 8  85568629.60047  20896694.500
  20896696.508          51.500          43.100
 132053496.969 6 102898884.21543  25128945.047
  25128955.234          41.000          22.000
 11 11 22  1 53  0.0000000  0  9G09G12G14G15G18G19G21G22G25
 110408070.466 8  86032350.70146  21009938.477
  21009942.355          50.200          39.400
 127892161.866 7  99656267.27144  24337065.164
  24337070.738          43.500          26.800
 114101669.738 8  88910296.58945  21712774.859
  21712779.543          49.400          35.600
 128337505.498 6 100003322.10343  24421776.016
  24421779.734          40.800          22.900
 107977210.770 8  84138125.87647  20547338.734
  20547341.781          50.300          42.000
 132014456.953 6 102868450.77144  25121511.203
  25121514.020          40.200          26.700
 116197188.276 7  90543347.47645  22111556.695
  22111560.898          46.800          33.000
 109764957.064 8  85531235.12247  20887562.430
  20887563.922          52.400          43.000
 131964573.951 7 102829593.58643  25112024.070
  25112033.867          42.300          22.600
 11 11 22  1 53 30.0000000  0  9G09G12G14G15G18G19G21G22G25
 110458126.952 8  86071355.76046  21019464.633
  21019468.621          50.600          39.900
 127814776.560 7  99595967.12344  24322339.188
  24322344.688          43.000          25.600
 114050732.037 8  88870604.90645  21703081.984
  21703086.176          49.200          35.900
 128426166.311 6 100072408.37243  24438646.219
  24438652.180          39.700          23.900
 107995056.236 8  84152031.43147  20550734.188
  20550737.273          49.000          42.500
 132045556.989 6 102892684.59944  25127428.078
  25127432.453          40.500          26.700
 116289331.092 7  90615147.01845  22129091.203
  22129095.957          46.000          33.100
 109717224.072 8  85494040.60047  20878479.188
  20878480.473          52.100          42.700
 131875564.980 6 102760236.03743  25095085.586
  25095095.480          41.600          22.900
 11 11 22  1 54  0.0000000  0  9G09G12G14G15G18G19G21G22G25
 110508777.657 8  86110823.86646  21029102.742
  21029107.305          50.300          40.100
 127737563.259 7  99535800.97744  24307645.336
  24307651.008          42.600          25.000
 114000051.647 8  88831113.69546  21693438.273
  21693442.266          48.900          36.400
 128514813.751 6 100141484.24543  24455515.961
  24455520.762          40.200          22.200
 108013260.403 8  84166216.49446  20554198.664
  20554201.363          50.000          41.400
 132077075.719 6 102917244.64143  25133425.555
  25133429.961          38.600          22.000
 116381795.422 7  90687197.10745  22146686.945
  22146690.324          45.900          32.400
 109669748.908 8  85457046.97447  20869444.945
  20869446.543          51.900          43.600
 131786472.565 6 102690813.47543  25078131.969
  25078141.629          40.600          22.200
 11 11 22  1 54 30.0000000  0  9G09G12G14G15G18G19G21G22G25
 110560019.467 8  86150752.54746  21038853.313
  21038858.633          50.900          39.700
 127660524.443 7  99475770.81044  24292985.617
  24292991.000          42.000          25.100
 113949627.264 8  88791821.99745  21683842.953
  21683846.680          49.900          35.200
 128603446.247 6 100210548.51843  24472381.359
  24472386.398          38.100          20.900
 108031823.125 8  84180680.94446  20557730.492
  20557733.605          49.900          41.600
 132109010.503 6 102942128.86744  25139503.977
  25139507.477          41.500          28.300
 116474577.396 7  90759494.72945  22164342.383
  22164346.816          46.100          32.600
 109622532.019 8  85420254.59347  20860460.133
  20860461.426          51.300          43.200
 131697298.526 6 102621327.32443  25061161.672
  25061172.938          39.900          22.200
 11 11 22  1 55  0.0000000  0  9G09G12G14G15G18G19G21G22G25
 110611851.885 8  86191141.43946  21048717.148
  21048721.465          50.500          39.900
 127583665.221 7  99415880.58744  24278359.188
  24278365.594          42.700          25.500
 113899460.328 8  88752730.89546  21674295.930
  21674300.230          49.500          36.000
 128692064.896 6 100279601.88043  24489245.734
  24489250.613          38.400          21.100
 108050746.573 8  84195426.48747  20561331.852
  20561334.957          49.900          42.000
 132141360.904 6 102967337.01544  25145659.992
  25145663.195          41.500          26.400
 116567676.155 7  90832039.17345  22182058.609
  22182062.813          44.900          32.200
 109575576.814 8  85383666.13447  20851524.414
  20851526.066          51.400          43.000
 131608047.269 6 102551780.96543  25044178.219
  25044187.891          40.900          22.800
 11 11 22  1 55 30.0000000  0  9G09G12G14G15G18G19G21G22G25
 110664271.579 8  86231987.96546  21058691.750
  21058696.457          49.900          38.900
 127506987.502 7  99356131.82644  24263768.656
  24263774.172          43.000          25.500
 113849549.786 8  88713839.56846  21664798.469
  21664802.375          49.300          36.500
 128780667.719 6 100348643.06143  24506105.727
  24506111.426          36.600          20.600
 108070030.040 8  84210452.56547  20565001.461
  20565004.699          50.500          42.300
 132174124.177 6 102992866.83044  25151895.719
  25151897.730          41.600          25.700
 116661087.822 7  90904827.46745  22199833.648
  22199838.023          45.600          31.200
 109528884.100 8  85347282.22547  20842639.141
  20842640.508          51.500          43.100
 131518720.704 6 102482175.96543  25027180.133
  25027189.543          41.300          23.200
 11 11 22  1 56  0.0000000  0  9G09G12G14G15G18G19G21G22G25
 110717275.931 8  86273290.04146  21068779.031
  21068783.309          50.000          39.600
 127430494.387 7  99296526.91844  24249212.117
  24249217.184          42.500          25.700
 113799895.409 8  88675147.86546  21655349.734
  21655353.465          49.700          36.300
 128869254.041 6 100417671.29943  24522963.570
  24522968.570          38.400          21.100
 108089674.810 8  84225760.18146  20568739.313
  20568743.055          48.800          41.800
 132207297.990 7 103018716.59144  25158207.078
  25158210.797          42.200          25.800
 116754809.643 7  90977857.39845  22217669.164
  22217672.918          46.500          30.900
 109482454.791 8  85311103.54747  20833803.961
  20833805.297          52.200          43.000
 131429321.318 6 102412514.20143  25010167.461
  25010178.398          39.700          21.500
 11 11 22  1 56 30.0000000  0  9G09G12G14G15G18G19G21G22G25
 110770863.197 8  86315046.35546  21078976.094
  21078980.266          50.800          39.500
 127354189.325 7  99237068.46544  24234692.578
  24234697.672          42.500          27.000
 113750497.115 7  88636655.71046  21645949.547
  21645953.430          47.000          36.900
 128957823.769 6 100486686.61443  24539818.781
  24539822.699          38.300          22.000
 108109681.761 8  84241350.00046  20572546.734
  20572550.355          49.600          41.500
 132240880.730 6 103044884.99044  25164597.508
  25164601.012          40.900          24.700
 116848838.848 7  91051126.90045  22235562.016
  22235565.617          45.500          30.200
 109436291.005 8  85275131.76947  20825019.367
  20825020.949          50.700          43.100
 131339852.317 6 102342798.19443  24993142.383
  24993153.039          41.400          23.900
 11 11 22  1 57  0.0000000  0  9G09G12G14G15G18G19G21G22G25
 110825031.670 8  86357255.56646  21089283.852
  21089288.539          50.300          39.400
 127278075.994 7  99177759.46744  24220207.133
  24220213.441          43.500          27.300
 113701355.046 8  88598363.20946  21636598.344
  21636601.699          50.300          36.600
 129046376.167 6 100555688.39643  24556669.406
  24556674.547          39.600          22.500
 108130051.627 8  84257222.61947  20576423.227
  20576426.594          50.400          42.400
 132274870.757 6 103071370.77044  25171065.641
  25171069.719          40.200          24.700
 116943173.613 7  91124634.46945  22253512.898
  22253517.617          44.700          30.200
 109390395.109 8  85239368.74747  20816285.484
  20816287.301          52.300          43.200
 131250316.751 6 102273030.31843  24976104.352
  24976114.930          41.100          23.200
 11 11 22  1 57 30.0000000  0  9G09G12G14G15G18G19G21G22G25
 110879778.805 8  86399915.66846  21099702.023
  21099706.094          50.000          39.400
 127202157.213 7  99118602.04044  24205760.875
  24205766.629          42.700          26.500
 113652469.050 7  88560270.25946  21627295.375
  21627299.230          46.300          37.300
 129134910.519 6 100624676.18443  24573516.828
  24573521.258          39.700          22.500
 108150784.863 8  84273378.38247  20580368.289
  20580372.090          50.000          42.000
 132309266.204 6 103098172.43244  25177610.867
  25177614.277          40.900          24.700
 117037810.599 7  91198377.54045  22271522.172
  22271526.746          44.800          31.400
 109344767.747 7  85203814.96847  20807602.578
  20807604.133          47.500          42.800
 131160717.340 6 102203212.66643  24959054.273
  24959064.285          40.900          23.800
 11 11 22  1 58  0.0000000  0  9G09G12G14G15G18G19G21G22G25
 110935101.501 8  86443024.28046  21110229.805
  21110233.207          51.000          38.700
 127126436.020 7  99059598.59644  24191351.359
  24191358.125          42.600          27.300
 113603838.437 8  88522376.28946  21618041.266
  21618045.051          49.300          37.500
 129223425.847 6 100693649.02343  24590359.484
  24590366.273          37.300          21.100
 108171881.755 8  84289817.51047  20584383.055
  20584386.359          50.900          42.100
 132344064.256 7 103125287.83644  25184233.305
  25184235.633          42.600          26.100
 117132746.384 7  91272353.43344  22289587.602
  22289592.133          45.800          29.700
 109299409.986 8  85168471.25247  20798971.922
  20798973.262          51.100          42.600
 131071056.281 6 102133346.99943  24941990.938
  24942001.957          40.200          22.300
 11 11 22  1 58 30.0000000  0  9G09G12G14G15G18G19G21G22G25
 110990998.668 8  86486580.53546  21120866.313
  21120869.938          49.500          38.600
 127050916.305 7  99000752.16144  24176980.070
  24176986.090          43.600          26.600
 113555463.600 8  88484681.63746  21608835.727
  21608839.688          50.500          37.500
 129311922.521 6 100762607.40743  24607200.250
  24607206.500          36.300          21.500
 108193343.862 8  84306541.22946  20588466.938
  20588470.422          50.400          41.700
 132379263.887 7 103152716.10844  25190930.289
  25190935.230          42.400          25.400
 117227979.118 7  91346560.73445  22307709.609
  22307713.766          46.800          30.800
 109254324.578 8  85133339.78147  20790392.203
  20790393.215          52.000          42.900
 130981337.542 6 102063436.33643  24924919.422
  24924928.887          40.600          22.600
 11 11 22  1 59  0.0000000  0  9G09G12G14G15G18G19G21G22G25
 111047466.848 8  86530581.72746  21131611.648
  21131615.625          49.700          38.700
 126975600.322 7  98942064.45544  24162648.313
  24162654.664          44.000          27.000
 113507343.682 8  88447185.61846  21599678.750
  21599682.227          50.300          37.200
 129400398.746 5 100831549.86743  24624037.234
  24624042.918          34.100          19.000
 108215170.924 8  84323549.32546  20592620.750
  20592623.922          51.200          41.600
 132414861.950 7 103180454.88444  25197704.797
  25197708.246          42.900          25.400
 117323504.941 7  91420996.40945  22325887.883
  22325892.766          46.500          30.000
 109209511.991 8  85098420.89047  20781864.430
  20781866.348          51.700          42.800
 130891562.779 6 101993482.08743  24907835.758
  24907845.383          41.400          22.500
 11 11 22  1 59 30.0000000  0  9G09G12G14G15G18G19G21G22G25
 111104504.836 8  86575026.90646  21142465.633
  21142470.621          49.100          38.900
 126900492.519 7  98883538.95044  24148356.242
  24148362.141          43.900          28.400
 113459479.619 8  88409888.96546  21590570.398
  21590574.285          49.900          37.100
 129488855.097 6 100900476.79443  24640870.477
  24640875.168          38.400          21.500
 108237365.093 8  84340843.47546  20596843.953
  20596847.621          50.800          41.600
 132450857.583 7 103208503.45944  25204554.438
  25204558.027          42.100          25.700
 117419322.732 7  91495659.56244  22344121.094
  22344125.730          46.000          29.800
 109164975.189 8  85063716.89647  20773389.641
  20773390.465          51.900          42.600
 130801736.239 6 101923487.49243  24890741.656
  24890751.691          41.300          23.300
 11 11 22  2  0  0.0000000  4  1
other post-header comments skipped                          COMMENT
 11 11 22  2  0  0.0000000  0  9G09G12G14G15G18G19G21G22G25
 111162109.032 8  86619913.26546  21153427.945
  21153432.480          50.700          40.200
 126825595.122 7  98825177.44844  24134104.164
  24134109.258          42.100          28.300
 113411870.089 7  88372790.64446  21581511.133
  21581514.641          47.500          37.300
 129577289.799 6 100969386.86743  24657698.977
  24657704.324          37.100          20.900
 108259925.400 8  84358422.92846  20601137.422
  20601140.441          51.300          41.500
 132487247.684 7 103236859.39444  25211480.016
  25211483.348          42.000          26.000
 117515428.311 7  91570547.00144  22362409.719
  22362413.840          45.800          29.700
 109120714.548 8  85029228.08847  20764967.102
  20764968.379          51.100          42.700
 130711859.580 6 101853453.82943  24873638.852
  24873648.301          40.900          22.300
 11 11 22  2  0 30.0000000  0  9G09G12G14G15G18G19G21G22G25
 111220276.979 8  86665238.93546  21164496.625
  21164501.391          51.300          39.900
 126750910.931 7  98766982.07544  24119890.422
  24119897.086          43.300          26.000
 113364514.662 8  88335890.33246  21572499.305
  21572503.199          48.000          37.300
 129665702.124 6 101038279.50343  24674523.430
  24674529.320          39.300          22.300
 108282852.107 8  84376287.89346  20605500.148
  20605503.098          51.000          41.700
 132524030.148 7 103265521.07643  25218479.211
  25218482.492          42.200          23.000
 117611818.560 7  91645656.24744  22380751.977
  22380755.793          45.800          28.800
 109076731.397 8  84994955.51547  20756597.133
  20756598.359          51.600          42.500
 130621935.265 6 101783383.04143  24856527.250
  24856536.020          41.100          23.200
 11 11 22  2  1  0.0000000  0  9G09G12G14G15G18G19G21G22G25
 111279006.610 8  86711002.29646  21175672.633
  21175676.031          51.000          39.100
 126676443.177 7  98708955.33244  24105720.320
  24105726.227          43.600          26.300
 113317413.476 8  88299188.12146  21563536.148
  21563539.617          50.100          36.900
 129754091.895 6 101107154.61243  24691343.500
  24691348.953          36.300          21.100
 108306146.259 8  84394439.18046  20609932.672
  20609935.848          51.600          41.100
 132561202.906 7 103294486.92844  25225552.422
  25225555.879          43.000          24.700
 117708490.515 7  91720985.02744  22399149.273
  22399152.281          44.700          28.700
 109033027.763 8  84960900.74247  20748280.844
  20748282.133          52.300          42.100
 130531966.563 6 101713277.62943  24839406.453
  24839415.613          40.300          22.300
 11 11 22  2  1 30.0000000  0  9G09G12G14G15G18G19G21G22G25
 111338296.071 8  86757201.90746  21186954.516
  21186958.625          49.700          38.500
 126602196.126 7  98651100.52544  24091592.453
  24091597.992          44.700          27.500
 113270567.039 8  88262684.42746  21554621.641
  21554625.551          49.000          37.200
 129842459.243 6 101176012.18143  24708159.102
  24708164.668          39.000          21.700
 108329808.996 8  84412877.67647  20614435.578
  20614438.637          51.100          42.000
 132598764.474 7 103323755.67843  25232700.578
  25232703.367          42.000          22.900
 117805442.742 7  91796532.18844  22417597.500
  22417601.766          44.600          29.800
 108989605.420 8  84927065.14247  20740017.852
  20740019.129          52.500          42.800
 130441957.108 7 101643140.51244  24822278.094
  24822287.566          43.000          24.100
 11 11 22  2  2  0.0000000  0  9G09G12G14G15G18G19G21G22G25
 111398142.656 8  86803835.61146  21198342.891
  21198346.684          49.800          38.000
 126528172.485 7  98593419.85744  24077505.047
  24077511.398          43.800          26.000
 113223974.659 8  88226378.69746  21545755.133
  21545759.121          50.000          37.400
 129930803.085 6 101244851.53943  24724970.219
  24724975.633          37.700          20.900
 108353840.675 8  84431603.65846  20619008.969
  20619011.484          51.500          41.800
 132636712.481 6 103353325.55743  25239921.594
  25239924.887          41.300          22.600
 117902671.784 7  91872295.06045  22436099.773
  22436104.188          45.600          30.200
 108946465.932 8  84893449.96447  20731808.508
  20731810.133          52.100          42.600
 130351909.354 7 101572973.48844  24805143.273
  24805151.609          43.900          24.800
 11 11 22  2  2 30.0000000  0  9G09G12G14G15G18G19G21G22G25
 111458544.257 8  86850901.78446  21209837.383
  21209841.059          49.900          38.700
 126454375.859 7  98535916.05144  24063462.609
  24063468.043          43.300          27.400
 113177636.267 8  88190270.85946  21536937.398
  21536941.371          49.800          37.700
 130019123.107 6 101313672.28243  24741777.047
  24741782.207          37.800          18.600
 108378242.410 8  84450618.00246  20623652.430
  20623654.930          51.500          41.100
 132675045.139 7 103383195.17844  25247215.422
  25247219.730          43.100          24.300
 118000174.790 7  91948271.39744  22454654.156
  22454659.156          45.000          29.100
 108903611.258 8  84860056.72347  20723653.797
  20723654.645          51.500          42.700
 130261826.491 7 101502779.18444  24787999.883
  24788009.477          42.400          24.800
 11 11 22  2  3  0.0000000  0  9G09G12G14G15G18G19G21G22G25
 111519498.253 8  86898398.41146  21221436.703
  21221440.813          50.400          38.800
 126380809.197 7  98478591.47344  24049462.945
  24049469.141          43.000          28.300
 113131551.854 7  88154360.95246  21528167.852
  21528171.207          46.800          37.700
 130107418.757 6 101382474.01843  24758578.891
  24758584.184          36.400          18.300
 108403014.733 8  84469921.10546  20628365.836
  20628369.090          50.500          40.800
 132713760.300 7 103413362.86844  25254583.609
  25254587.418          42.200          24.100
 118097949.067 7  92024459.09644  22473259.883
  22473264.387          44.600          29.700
 108861042.854 8  84826886.54747  20715553.313
  20715554.402          49.100          42.900
 130171711.515 6 101432559.80044  24770851.633
  24770861.043          41.600          24.200
 11 11 22  2  3 30.0000000  0  9G09G12G14G15G18G19G21G22G25
 111581001.062 8  86946322.68246  21233140.227
  21233144.473          49.900          39.200
 126307474.501 6  98421447.63044  24035507.734
  24035513.742          41.600          28.400
 113085719.988 7  88118647.82546  21519445.984
  21519449.980          46.100          38.000
 130195688.653 6 101451255.66643  24775376.539
  24775381.516          39.200          20.100
 108428156.775 8  84489512.28446  20633150.445
  20633153.949          50.300          41.600
 132752854.585 7 103443825.96243  25262022.492
  25262026.090          42.300          22.800
 118195991.018 7  92100855.39044  22491916.422
  22491921.129          45.600          29.100
 108818761.489 8  84793940.03547  20707507.016
  20707508.719          48.200          43.300
 130081566.249 6 101362316.81744  24753698.258
  24753706.910          41.300          25.000
 11 11 22  2  4  0.0000000  0  9G09G12G14G15G18G19G21G22G25
 111643051.356 8  86994673.56346  21244947.789
  21244952.332          50.200          38.800
 126234376.576 6  98364488.24044  24021598.234
  24021604.094          41.800          26.800
 113040141.796 8  88083132.35646  21510773.375
  21510777.137          50.500          37.900
 130283933.090 6 101520017.48443  24792168.711
  24792174.727          36.100          19.600
 108453670.535 8  84509393.13546  20638005.602
  20638009.500          49.300          41.300
 132792326.929 7 103474583.66543  25269533.969
  25269537.750          42.200          22.300
 118294298.491 7  92177458.56644  22510624.117
  22510628.262          45.000          29.600
 108776769.442 8  84761218.96647  20699516.109
  20699518.074          51.100          42.500
 129991394.442 6 101292053.15044  24736537.945
  24736548.301          40.400          25.100
 11 11 22  2  4 30.0000000  0  9G09G12G14G15G18G19G21G22G25
 111705646.090 8  87043448.67446  21256859.398
  21256864.047          50.000          39.200
 126161517.662 7  98307715.16544  24007733.398
  24007739.242          43.300          28.300
 112994816.396 8  88047813.87646  21502147.875
  21502152.234          50.300          38.200
 130372150.473 6 101588758.19543  24808956.359
  24808961.281          38.000          20.600
 108479555.955 8  84529563.58946  20642931.203
  20642934.488          50.000          40.500
 132832174.869 6 103505634.04543  25277116.719
  25277119.547          40.900          21.100
 118392868.634 7  92254266.43745  22529381.641
  22529386.020          46.300          30.200
 108735067.968 8  84728724.31347  20691580.625
  20691581.988          50.600          42.700
 129901198.797 6 101221770.93444  24719375.070
  24719384.695          41.500          25.200
 11 11 22  2  5  0.0000000  0  9G09G12G14G15G18G19G21G22G25
 111768783.117 8  87092646.35946  21268873.586
  21268878.285          50.700          38.500
 126088901.409 7  98251131.16844  23993914.195
  23993920.359          43.600          27.800
 112949743.701 8  88012692.31446  21493570.563
  21493574.809          49.400          37.700
 130460341.281 6 101657478.22843  24825737.906
  24825743.551          39.400          20.100
 108505813.816 8  84550024.24646  20647927.914
  20647931.453          50.700          41.100
 132872396.409 6 103536975.50643  25284771.250
  25284773.750          41.400          20.600
 118491698.439 7  92331276.65944  22548188.164
  22548192.750          45.100          28.900
 108693658.910 8  84696457.52847  20683700.906
  20683702.301          51.700          42.400
 129810982.534 7 101151472.61944  24702207.008
  24702217.520          42.100          25.100
 11 11 22  2  5 30.0000000  0  9G09G12G14G15G18G19G21G22G25
 111832459.686 8  87142264.44846  21280990.711
  21280995.445          49.600          37.700
 126016530.811 7  98194738.55344  23980143.445
  23980148.848          43.000          29.500
 112904923.365 8  87977767.38246  21485041.656
  21485045.363          49.500          37.200
 130548504.846 6 101726177.04143  24842515.133
  24842520.926          40.900          19.900
 108532444.675 8  84570775.55746  20652995.703
  20652999.219          50.200          41.200
 132912989.131 7 103568606.17343  25292495.453
  25292498.207          42.300          20.100
 118590784.848 7  92408486.82844  22567043.305
  22567048.223          45.500          28.800
 108652543.547 8  84664419.59247  20675877.109
  20675878.180          51.200          43.000
 129720748.256 6 101081160.31944  24685035.680
  24685045.551          40.500          24.800
 11 11 22  2  6  0.0000000  0  9G09G12G14G15G18G19G21G22G25
 111896672.599 8  87192300.48746  21293210.430
  21293213.477          49.300          37.200
 125944408.546 7  98138539.48544  23966418.688
  23966424.086          44.100          27.300
 112860355.049 8  87943038.82446  21476560.500
  21476564.621          49.900          37.800
 130636640.399 6 101794853.99043  24859287.367
  24859292.336          39.100          20.900
 108559448.427 8  84591817.42646  20658134.602
  20658138.102          51.400          41.700
 132953950.278 6 103600524.01643  25300288.836
  25300292.688          41.400          20.100
 118690124.698 7  92485894.46244  22585947.641
  22585951.570          45.600          29.000
 108611723.078 8  84632611.43447  20668109.000
  20668110.527          50.500          42.800
 129630498.550 6 101010836.03843  24667861.797
  24667870.582          40.200          23.900
 11 11 22  2  6 30.0000000  0  9G09G12G14G15G18G19G21G22G25
 111961420.146 8  87242753.15546  21305531.352
  21305535.070          50.000          37.300
 125872538.750 7  98082537.11944  23952742.148
  23952747.250          43.800          28.300
 112816038.857 8  87908506.74246  21468127.555
  21468131.379          50.400          37.600
 130724747.773 6 101863509.00043  24876054.086
  24876058.055          38.300          19.000
 108586826.417 8  84613150.92346  20663344.633
  20663348.059          51.300          41.600
 132995278.463 6 103632727.82743  25308153.945
  25308157.813          41.400          21.100
 118789715.876 7  92563497.93144  22604899.000
  22604903.324          44.600          29.300
 108571200.332 8  84601035.27847  20660398.047
  20660399.051          50.900          43.000
 129540237.328 6 100940502.69744  24650686.117
  24650694.590          41.200          25.300
 11 11 22  2  7  0.0000000  0 10G09G12G14G15G18G19G21G22G25G31
 112026699.792 8  87293620.41246  21317954.273
  21317957.984          50.100          38.800
 125800924.180 7  98026733.58644  23939114.422
  23939118.703          42.000          26.000
 112771974.909 8  87874171.20246  21459742.602
  21459745.938          49.300          37.000
 130812826.278 6 101932141.61743  24892814.859
  24892820.449          40.000          21.100
 108614579.045 8  84634776.32846  20668625.258
  20668629.172          50.700          41.800
 133036971.317 7 103665215.72343  25316087.766
  25316091.539          42.600          21.800
 118889555.413 7  92641294.93844  22623897.500
  22623902.578          44.800          29.600
 108530976.639 8  84569692.14347  20652743.523
  20652745.102          50.700          42.200
 129449967.282 7 100870162.50944  24633507.305
  24633517.008          42.100          26.200
 132802134.409 6 103482233.44943  25271413.422
  25271419.660          37.600          19.600
 11 11 22  2  7 30.0000000  0 10G09G12G14G15G18G19G21G22G25G31
 112092508.537 8  87344899.97146  21330476.789
  21330481.816          50.800          39.200
 125729568.066 6  97971131.49644  23925535.383
  23925540.777          41.900          26.900
 112728161.993 8  87840031.27846  21451405.227
  21451408.676          49.600          37.900
 130900875.380 6 102000751.27443  24909570.641
  24909575.551          38.500          19.900
 108642706.862 8  84656694.10646  20673977.898
  20673981.211          50.700          41.600
 133079026.402 6 103697985.96743  25324091.055
  25324093.922          41.600          21.800
 118989640.193 7  92719283.03245  22642943.820
  22642948.223          45.000          30.400
 108491053.132 8  84538582.92847  20645146.133
  20645147.516          50.900          43.200
 129359691.211 7 100799817.64144  24616328.703
  24616338.582          42.200          24.000
 132686623.491 5 103392225.07643  25249431.695
  25249438.762          35.900          19.300
 11 11 22  2  8  0.0000000  0 10G09G12G14G15G18G19G21G22G25G31
 112158843.945 8  87396589.86646  21343098.945
  21343105.418          49.200          38.800
 125658473.694 7  97915733.34044  23912006.297
  23912011.484          43.500          28.100
 112684600.548 7  87806087.30846  21443116.203
  21443119.496          47.600          37.900
 130988894.292 6 102069337.31243  24926319.156
  24926323.879          38.200          19.000
 108671210.046 8  84678904.37146  20679401.922
  20679405.367          50.400          41.800
 133121441.235 7 103731036.49743  25332162.133
  25332166.109          42.000          22.500
 119089967.268 7  92797459.94544  22662035.289
  22662039.512          44.700          28.500
 108451431.712 8  84507709.11347  20637606.313
  20637607.844          49.800          43.000
 129269412.043 6 100729470.35943  24599148.531
  24599158.273          40.800          22.600
 132571136.783 6 103302235.53843  25227456.609
  25227462.125          37.100          19.600
 11 11 22  2  8 30.0000000  0 10G09G12G14G15G18G19G21G22G25G31
 112225702.700 8  87448687.55146  21355822.883
  21355827.656          48.000          38.300
 125587643.039 7  97860540.69644  23898527.539
  23898533.379          42.500          28.100
 112641289.402 8  87772338.37546  21434873.641
  21434877.668          49.300          38.100
 131076882.640 6 102137899.54143  24943062.641
  24943068.328          36.300          18.600
 108700088.447 8  84701407.00146  20684897.289
  20684900.945          50.400          41.700
 133164213.269 7 103764365.37043  25340301.492
  25340304.516          42.000          19.300
 119190533.436 7  92875823.13744  22681171.977
  22681176.250          45.800          27.800
 108412112.875 8  84477071.06447  20630124.664
  20630125.797          51.300          43.100
 129179132.178 6 100659122.48443  24581970.320
  24581978.195          41.800          22.300
 132455675.648 6 103212265.96143  25205484.563
  25205490.359          37.900          18.600
 11 11 22  2  9  0.0000000  0 10G09G12G14G15G18G19G21G22G25G31
 112293082.996 8  87501191.67146  21368645.406
  21368648.090          50.000          37.400
 125517080.165 6  97805556.69144  23885099.727
  23885105.836          41.400          28.000
 112598229.494 8  87738785.21446  21426679.695
  21426683.504          49.800          37.600
 131164840.445 6 102206437.98643  24959799.891
  24959806.348          36.600          19.900
 108729343.202 8  84724202.90346  20690464.227
  20690467.828          49.100          41.300
 133207340.926 7 103797971.36743  25348509.320
  25348511.652          43.000          21.100
 119291336.547 7  92954370.99044  22700353.844
  22700358.223          44.100          27.500
 108373099.282 8  84446670.86547  20622700.391
  20622701.762          50.000          42.200
 129088855.421 7 100588777.02644  24564790.492
  24564799.652          43.900          26.200
 132340243.091 6 103122318.65443  25183518.898
  25183524.086          39.200          21.500
 11 11 22  2  9 30.0000000  0 10G09G12G14G15G18G19G21G22G25G31
 112360981.332 8  87554099.50046  21381566.344
  21381568.707          51.000          37.800
 125446788.191 7  97750783.77844  23871723.430
  23871728.844          43.800          27.100
 112555419.292 8  87705426.63446  21418533.164
  21418537.234          49.100          37.900
 131252766.332 6 102274951.56243  24976531.227
  24976537.629          37.300          19.000
 108758974.269 8  84747292.04546  20696103.609
  20696106.203          49.500          40.200
 133250821.100 7 103831852.03043  25356781.945
  25356785.453          42.400          19.900
 119392372.773 7  93033100.49344  22719580.883
  22719586.082          42.600          29.800
 108334391.714 8  84416509.13547  20615334.492
  20615335.770          51.900          42.600
 128998584.024 7 100518435.77744  24547612.289
  24547621.773          43.400          27.400
 132224840.629 6 103032394.81343  25161557.828
  25161563.176          39.400          20.900
 11 11 22  2 10  0.0000000  0 10G09G12G14G15G18G19G21G22G25G31
 112429395.975 8  87607409.66646  21394584.367
  21394588.703          50.300          38.000
 125376770.776 6  97696224.84144  23858399.359
  23858405.508          40.200          27.100
 112512859.871 8  87672263.46946  21410434.398
  21410438.406          50.100          37.100
 131340660.987 6 102343440.80743  24993258.367
  24993263.871          40.200          21.800
 108788983.458 8  84770675.81346  20701813.805
  20701816.605          49.900          41.100
 133294652.761 7 103866006.59043  25365123.563
  25365126.520          42.500          19.300
 119493640.105 7  93112010.03244  22738851.836
  22738856.820          43.300          29.300
 108295992.933 8  84386588.00847  20608027.422
  20608028.402          51.300          42.400
 128908322.027 7 100448101.88044  24530435.414
  24530445.125          42.300          24.400
 132109471.644 6 102942497.06843  25139603.227
  25139609.719          39.300          21.700
 11 11 22  2 10 30.0000000  0 10G09G12G14G15G18G19G21G22G25G31
 112498323.479 8  87661119.40246  21407700.203
  21407705.547          48.300          37.900
 125307030.031 7  97641881.46544  23845128.586
  23845134.145          42.600          26.800
 112470549.790 8  87639294.59246  21402383.109
  21402387.219          49.400          38.100
 131428522.994 6 102411904.63043  25009977.391
  25009983.641          39.100          22.800
 108819369.734 8  84794353.42646  20707596.133
  20707599.117          50.500          41.100
 133338832.165 7 103900432.16843  25373530.602
  25373533.289          43.600          18.300
 119595134.928 7  93191096.85844  22758166.188
  22758170.285          42.600          28.400
 108257903.314 8  84356907.78247  20600779.531
  20600780.773          51.100          42.800
 128818071.424 7 100377776.80143  24513262.367
  24513269.762          42.400          23.800
 131994137.415 6 102852626.37543  25117655.617
  25117662.234          37.500          21.100
 11 11 22  2 11  0.0000000  0 10G09G12G14G15G18G19G21G22G25G31
 112567762.063 8  87715227.32446  21420914.328
  21420919.926          48.200          38.100
 125237569.804 6  97587756.68944  23831910.359
  23831916.113          41.300          27.300
 112428489.916 8  87606520.68746  21394379.398
  21394383.422          48.800          37.900
 131516352.511 6 102480343.08043  25026691.164
  25026696.906          38.800          22.500
 108850134.578 8  84818326.01246  20713450.359
  20713453.637          50.300          41.700
 133383357.887 7 103935127.62243  25382002.922
  25382006.352          42.400          18.300
 119696855.277 7  93270359.43844  22777522.109
  22777526.203          42.100          28.300
 108220125.391 8  84327470.45747  20593590.414
  20593591.723          50.700          43.000
 128727836.089 7 100307463.65044  24496090.320
  24496098.836          43.100          25.300
 131878840.930 6 102762785.10143  25095715.883
  25095722.035          38.700          20.900
 11 11 22  2 11 30.0000000  0 10G09G12G14G15G18G19G21G22G25G31
 112637708.717 8  87769731.19046  21434224.945
  21434229.828          50.100          38.300
 125168393.018 6  97533852.74944  23818746.359
  23818752.742          40.800          26.900
 112386679.324 7  87573941.02546  21386422.977
  21386427.031          47.800          38.200
 131604148.431 6 102548755.39343  25043398.391
  25043403.195          38.900          21.700
 108881277.915 8  84842593.53946  20719377.094
  20719380.379          50.100          41.500
 133428227.403 7 103970090.89243  25390541.617
  25390545.016          42.300          19.000
 119798797.820 7  93349795.16144  22796921.195
  22796925.918          42.900          29.300
 108182660.689 8  84298277.19047  20586461.297
  20586462.363          49.600          43.000
 128637618.786 7 100237164.55944  24478922.508
  24478930.992          43.100          24.700
 131763584.199 6 102672974.72143  25073783.094
  25073788.965          39.000          21.100
 11 11 22  2 12  0.0000000  0 10G09G12G14G15G18G19G21G22G25G31
 112708160.266 8  87824628.50646  21447631.398
  21447634.777          49.800          36.500
 125099502.985 7  97480172.29744  23805636.867
  23805643.402          43.200          27.900
 112345117.550 8  87541555.25346  21378514.133
  21378518.090          49.600          37.800
 131691910.909 6 102617141.63843  25060098.922
  25060104.852          37.900          21.300
 108912799.741 8  84867155.98346  20725375.289
  20725378.684          50.600          41.700
 133473438.115 7 104005320.03242  25399144.625
  25399147.879          42.000          17.800
 119900959.039 7  93429401.24444  22816361.242
  22816367.043          42.900          28.900
 108145510.459 8  84269328.95747  20579391.820
  20579392.953          50.300          42.200
 128547422.228 7 100166881.56544  24461758.477
  24461767.395          43.100          25.400
 131648369.348 6 102583196.97343  25051858.406
  25051863.707          39.900          21.700
 11 11 22  2 12 30.0000000  0 10G09G12G14G15G18G19G21G22G25G31
 112779113.985 8  87879917.15845  21461133.266
  21461136.191          49.700          35.600
 125030902.916 7  97426717.73944  23792583.438
  23792588.566          42.800          27.100
 112303804.442 8  87509363.23346  21370652.656
  21370656.613          49.100          38.400
 131779639.410 6 102685501.42243  25076793.453
  25076799.988          37.900          21.700
 108944701.174 8  84892014.23846  20731445.789
  20731449.246          51.000          41.900
 133518987.596 6 104040813.14043  25407812.430
  25407816.438          40.800          18.300
 120003336.747 7  93509176.02244  22835843.578
  22835848.664          43.400          28.000
 108108676.701 8  84240627.33847  20572382.539
  20572383.668          49.300          42.600
 128457249.488 6 100096617.22944  24444597.922
  24444607.723          39.800          26.300
 131533198.508 6 102493453.46243  25029942.844
  25029947.965          38.500          22.000
 11 11 22  2 13  0.0000000  0 10G09G12G14G15G18G19G21G22G25G31
 112850566.799 8  87935594.68146  21474730.781
  21474733.855          50.100          36.900
 124962595.073 7  97373490.90744  23779584.461
  23779590.445          42.000          29.100
 112262739.396 8  87477364.51346  21362838.516
  21362841.836          49.800          38.500
 131867332.827 6 102753833.77943  25093481.594
  25093487.668          38.800          21.500
 108976981.842 8  84917167.98446  20737588.594
  20737592.023          49.400          40.800
 133564873.278 6 104076568.27442  25416543.594
  25416547.984          41.400          16.900
 120105927.547 7  93589116.87844  22855366.406
  22855370.746          42.600          27.200
 108072159.846 8  84212172.65147  20565433.289
  20565434.586          49.800          42.600
 128367103.321 6 100026373.55644  24427444.352
  24427454.172          41.700          25.800
 131418073.638 6 102403745.85644  25008035.039
  25008039.934          39.500          25.000
 11 11 22  2 13 30.0000000  0 10G09G12G14G15G18G19G21G22G25G31
 112922516.151 8  87991659.10246  21488421.766
  21488426.625          49.600          37.200
 124894582.710 7  97320494.31544  23766643.180
  23766647.723          43.900          29.400
 112221922.387 8  87445559.07046  21355070.820
  21355074.855          49.300          37.900
 131954991.045 6 102822138.76843  25110162.430
  25110167.395          40.000          21.100
 109009641.998 8  84942617.44246  20743803.328
  20743807.098          50.000          41.700
 133611092.702 6 104112583.52742  25425339.617
  25425342.629          39.300          15.600
 120208728.425 7  93669221.42744  22874928.852
  22874932.277          42.200          26.000
 108035961.784 8  84183966.37247  20558545.172
  20558546.438          48.800          42.100
 128276986.782 7  99956152.96644  24410296.609
  24410304.617          43.300          25.600
 131302997.417 6 102314076.14843  24986136.203
  24986142.793          38.800          23.300
 11 11 22  2 14  0.0000000  0 10G09G12G14G15G18G19G21G22G25G31
 112994959.409 8  88048108.36546  21502207.359
  21502212.117          48.100          36.800
 124826869.222 7  97267730.60744  23753757.133
  23753762.457          42.500          28.100
 112181353.255 8  87413946.78346  21347350.570
  21347354.730          50.000          38.400
 132042613.702 6 102890416.08143  25126835.820
  25126842.113          38.100          20.900
 109042682.498 8  84968363.25646  20750090.664
  20750094.406          49.500          40.400
 133657643.756 6 104148857.05943  25434198.102
  25434201.801          41.700          19.300
 120311736.346 7  93749487.30044  22894529.914
  22894535.043          42.200          26.900
 108000084.756 8  84156010.25347  20551717.992
  20551719.625          50.300          43.000
 128186903.063 7  99885957.91544  24393153.789
  24393161.777          43.800          24.700
 131187971.735 6 102224445.88143  24964247.703
  24964253.480          37.100          22.200
 11 11 22  2 14 30.0000000  0 10G09G12G14G15G18G19G21G22G25G31
 113067894.513 8  88104940.89246  21516086.461
  21516090.617          48.900          36.900
 124759458.512 6  97215202.78044  23740929.148
  23740934.918          40.800          29.100
 112141032.187 8  87382527.78346  21339677.758
  21339681.906          48.700          38.200
 132130201.123 6 102958665.85543  25143503.539
  25143509.648          38.300          20.100
 109076104.427 8  84994406.29446  20756451.148
  20756454.383          50.000          40.800
 133704524.585 6 104185387.61043  25443119.109
  25443122.664          38.600          19.000
 120414949.347 7  93829912.94344  22914171.609
  22914176.285          42.400          27.000
 107964530.461 8  84128305.61247  20544952.078
  20544953.656          49.400          42.900
 128096856.133 7  99815791.52244  24376018.203
  24376026.445          43.900          26.000
 131072999.853 6 102134857.41743  24942369.602
  24942375.078          37.900          21.300
 11 11 22  2 15  0.0000000  0 10G09G12G14G15G18G19G21G22G25G31
 113141318.077 8  88162154.04446  21530058.781
  21530063.039          50.600          37.600
 124692352.614 7  97162912.50544  23728158.914
  23728164.570          43.800          28.500
 112100958.243 8  87351301.34946  21332052.000
  21332055.914          48.400          37.900
 132217752.511 6 103026887.58843  25160164.148
  25160169.996          39.200          23.000
 109109907.226 8  85020746.11346  20762883.750
  20762886.570          50.200          40.600
 133751732.116 6 104222172.70443  25452102.055
  25452106.227          40.400          19.300
 120518363.976 7  93910495.72744  22933850.227
  22933855.332          42.000          26.000
 107929300.152 8  84100853.43347  20538247.977
  20538249.430          49.600          42.600
 128006848.306 7  99745655.69744  24358889.602
  24358898.293          42.200          24.900
 130958083.320 6 102045312.11443  24920501.898
  24920506.984          38.800          20.600
 11 11 22  2 15 30.0000000  0 10G09G12G14G15G18G19G21G22G25G31
 113215226.780 8  88219745.27046  21544122.773
  21544126.398          50.000          36.700
 124625554.445 7  97110861.98544  23715448.305
  23715453.637          42.300          29.000
 112061131.078 8  87320267.20246  21324473.234
  21324477.000          49.000          37.900
 132305267.033 6 103095080.59343  25176817.477
  25176824.328          36.600          20.600
 109144091.223 8  85047382.99946  20769388.789
  20769391.305          51.000          40.400
 133799263.503 6 104259210.21442  25461147.641
  25461150.805          37.300          17.400
 120621976.924 7  93991233.07044  22953567.070
  22953572.406          42.100          27.000
 107894395.025 8  84073654.64347  20531605.828
  20531607.203          50.000          43.100
 127916882.131 7  99675552.31744  24341769.141
  24341779.215          43.000          26.600
 130843224.085 6 101955811.55143  24898644.516
  24898649.980          39.000          22.500
 11 11 22  2 16  0.0000000  0 10G09G12G14G15G18G19G21G22G25G31
 113289619.286 8  88277713.47645  21558278.250
  21558283.449          48.700          35.800
 124559067.822 7  97059054.25444  23702796.133
  23702801.504          43.900          29.700
 112021551.322 8  87289425.84246  21316941.648
  21316945.141          49.100          38.100
 132392744.947 6 103163245.10743  25193464.039
  25193470.766          37.400          20.400
 109178657.709 8  85074317.92746  20775966.469
  20775969.125          51.800          41.300
 133847117.739 6 104296499.23943  25470253.602
  25470257.574          38.700          18.300
 120725785.924 6  94072123.14544  22973321.391
  22973326.242          41.500          25.600
 107859817.709 8  84046711.27847  20525026.352
  20525027.219          50.000          43.000
 127826961.942 7  99605484.73744  24324658.125
  24324669.234          43.200          28.400
 130728425.591 6 101866358.22143  24876798.836
  24876804.598          38.500          21.700
 11 11 22  2 16 30.0000000  0 10G09G12G14G15G18G19G21G22G25G31
 113364491.866 7  88336055.70745  21572526.453
  21572530.930          47.800          35.100
 124492895.495 7  97007491.37844  23690203.609
  23690209.176          43.600          28.900
 111982217.665 8  87258776.25146  21309456.656
  21309460.387          49.800          38.600
 132480185.213 6 103231380.22943  25210102.594
  25210109.402          37.300          21.100
 109213605.806 8  85101550.20046  20782617.148
  20782620.074          51.900          41.000
 133895290.988 6 104334036.79642  25479420.297
  25479424.078          37.500          17.800
 120829787.659 7  94153163.37944  22993111.898
  22993116.973          42.200          26.300
 107825568.789 8  84020023.81247  20518508.711
  20518510.402          49.900          42.400
 127737089.766 7  99535454.58244  24307556.734
  24307566.879          44.800          28.500
 130613689.058 6 101776953.24943  24854965.047
  24854970.020          39.900          19.600
 11 11 22  2 17  0.0000000  0 11G09G11G12G14G15G18G19G21G22G25G31
 113439841.668 8  88394769.80846  21586866.625
  21586870.184          49.900          36.100
 132479061.299 5                  25209927.992
                        32.400
 124427040.929 7  96956176.16844  23677672.156
  23677677.594          44.400          29.800
 111943130.252 8  87228318.54846  21302018.398
  21302022.156          48.600          38.700
 132567587.853 6 103299486.00343  25226736.133
  25226742.508          38.000          22.900
 109248936.405 8  85129080.52346  20789339.703
  20789343.133          51.500          41.200
 133943781.354 6 104371821.54043  25488647.945
  25488650.613          37.700          19.600
 120933979.260 6  94234351.60244  23012939.992
  23012943.688          41.600          25.600
 107791650.136 8  83993593.70747  20512054.117
  20512055.527          50.000          42.600
 127647269.055 7  99465464.54344  24290463.914
  24290473.992          43.300          27.000
 130499017.144 6 101687598.60443  24833143.742
  24833149.285          38.300          20.900
 11 11 22  2 17 30.0000000  0 11G09G11G12G14G15G18G19G21G22G25G31
 113515665.174 8  88453853.08946  21601295.227
  21601298.996          50.500          38.000
 132411693.662 5                  25197107.016
                        31.500
 124361506.236 6  96905110.23444  23665200.875
  23665206.715          40.800          28.900
 111904288.219 8  87198052.04346  21294627.070
  21294630.977          49.200          38.400
 132654952.042 6 103367561.87343  25243361.273
  25243367.352          37.300          20.100
 109284649.202 8  85156908.66646  20796135.797
  20796139.523          51.200          40.700
 133992585.582 5 104409850.84042  25497934.477
  25497938.270          35.100          17.800
 121038357.588 7  94315685.29544  23032802.195
  23032807.129          42.600          26.500
 107758062.812 8  83967421.77147  20505662.766
  20505664.176          50.400          42.700
 127557502.409 7  99395516.58144  24273382.469
  24273390.949          44.100          26.400
 130384411.608 6 101598295.71243  24811335.484
  24811339.957          40.100          20.900
 11 11 22  2 18  0.0000000  0 11G09G11G12G14G15G18G19G21G22G25G31
 113591960.313 8  88513303.87246  21615812.336
  21615817.793          50.000          37.800
 132344724.655 5                  25184361.555
                        31.900
 124296295.014 7  96854296.34944  23652791.625
  23652796.977          43.100          28.600
 111865691.629 8  87167976.79746  21287282.289
  21287286.043          49.200          38.600
 132742277.611 6 103435607.68642  25259978.328
  25259983.793          38.100          16.900
 109320744.926 8  85185035.17746  20803004.227
  20803008.586          51.000          40.200
 134041702.102 5 104448123.39242  25507281.719
  25507285.051          33.600          17.400
 121142920.327 7  94397162.70944  23052699.875
  23052704.543          42.200          26.200
 107724808.934 8  83941509.66547  20499334.625
  20499336.160          50.600          42.900
 127467793.528 7  99325613.71744  24256311.195
  24256320.168          43.700          26.700
 130269875.524 6 101509046.86443  24789539.195
  24789544.754          38.100          19.300
 11 11 22  2 18 30.0000000  0 11G09G11G12G14G15G18G19G21G22G25G31
 113668723.715 7  88573119.48046  21630419.695
  21630425.641          47.900          37.000
 132278155.282 6 103073902.92342  25171694.336
  25171699.156          37.500          16.900
 124231409.834 7  96803736.54744  23640444.875
  23640450.105          43.600          29.800
 111827339.857 8  87138092.31446  21279984.391
  21279988.023          49.800          38.600
 132829564.013 5 103503622.95542  25276588.180
  25276594.109          35.500          16.900
 109357223.418 8  85213459.94646  20809945.734
  20809949.828          50.900          40.100
 134091127.638 5 104486636.81442  25516686.336
  25516690.336          32.900          16.900
 121247663.659 7  94478780.84344  23072632.344
  23072636.461          43.500          27.300
 107691889.574 8  83915858.21347  20493070.547
  20493071.410          49.300          43.000
 127378144.643 7  99255757.60844  24239252.070
  24239260.035          45.000          29.900
 130155410.128 6 101419853.24543  24767756.797
  24767762.203          38.800          19.900
 11 11 22  2 19  0.0000000  0 11G09G11G12G14G15G18G19G21G22G25G31
 113745953.161 8  88633298.22945  21645116.977
  21645121.695          48.100          35.800
 132211988.192 6 103022344.24742  25159103.375
  25159108.180          37.900          16.900
 124166854.200 7  96753433.50645  23628159.969
  23628165.977          43.300          30.100
 111789233.106 8  87108398.76046  21272732.734
  21272736.555          49.500          38.900
 132916811.193 6 103571607.68443  25293190.891
  25293197.672          38.700          19.000
 109394085.277 8  85242183.45946  20816960.781
  20816964.547          50.700          40.600
 134140860.204 6 104525389.41643  25526151.508
  25526153.883          37.200          18.600
 121352585.342 7  94560537.95744  23092597.203
  23092601.934          43.700          27.100
 107659307.508 8  83890469.59747  20486870.367
  20486871.512          49.500          42.900
 127288559.652 7  99185951.24244  24222203.602
  24222212.973          44.000          28.700
 130041018.539 6 101330716.93742  24745989.266
  24745993.121          36.900          17.800
 11 11 22  2 19 30.0000000  0 11G09G11G12G14G15G18G19G21G22G25G31
 113823645.649 8  88693837.83445  21659901.930
  21659904.883          49.500          35.900
 132146225.144 6 102971100.38342  25146588.055
  25146594.008          36.600          16.900
 124102631.122 7  96703389.61044  23615938.852
  23615943.961          43.800          29.400
 111751370.829 8  87078895.70346  21265527.914
  21265531.855          48.800          38.200
 133004018.940 5 103639561.58943  25309786.227
  25309792.707          35.200          19.300
 109431330.965 8  85271206.06546  20824048.141
  20824052.059          50.300          40.500
 134190897.269 5 104564379.37042  25535670.688
  25535675.477          32.800          17.800
 121457682.181 7  94642431.52044  23112597.109
  23112602.328          43.000          27.100
 107627063.166 8  83865344.14547  20480734.227
  20480735.699          49.600          43.200
 127199041.406 7  99116196.91244  24205169.016
  24205178.336          43.500          28.500
 129926702.899 6 101241639.98943  24724235.281
  24724240.023          39.900          20.100
 11 11 22  2 20  0.0000000  0 11G09G11G12G14G15G18G19G21G22G25G31
 113901798.173 8  88754735.94846  21674773.633
  21674777.055          50.500          36.800
 132080867.705 6 102920172.48342  25134151.578
  25134155.926          38.200          17.400
 124038743.918 7  96653607.46044  23603781.352
  23603786.609          43.500          29.800
 111713752.854 8  87049583.00246  21258369.336
  21258372.941          49.000          38.600
 133091186.596 6 103707484.33142  25326373.109
  25326380.129          36.200          17.800
 109468960.550 8  85300527.78646  20831209.367
  20831212.820          51.000          40.600
 134241236.198 5 104603604.58242  25545250.625
  25545255.004          34.900          17.400
 121562951.068 7  94724459.15644  23132629.180
  23132633.656          43.000          26.400
 107595157.980 8  83840482.96747  20474663.164
  20474664.301          49.000          42.600
 127109592.903 7  99046496.88244  24188146.992
  24188156.355          44.600          27.000
 129812465.557 6 101152623.89543  24702497.484
  24702502.488          38.800          21.800
 11 11 22  2 20 30.0000000  0 11G09G11G12G14G15G18G19G21G22G25G31
 113980407.644 8  88815990.10646  21689731.750
  21689736.586          48.800          36.300
 132015918.156 6 102869562.47542  25121791.219
  25121796.375          38.300          17.800
 123975195.117 7  96604088.96344  23591688.227
  23591693.875          43.700          29.800
 111676378.738 8  87020460.34146  21251257.063
  21251260.535          48.800          38.700
 133178313.947 5 103775375.65843  25342953.383
  25342959.738          35.200          18.600
 109506974.148 8  85330148.77446  20838442.844
  20838446.137          51.600          41.100
 134291874.421 5 104643062.92743  25554888.273
  25554891.012          35.500          20.100
 121668389.443 7  94806618.86444  23152693.516
  23152698.176          43.300          24.800
 107563594.106 8  83815887.74347  20468656.648
  20468657.855          50.000          42.600
 127020217.346 7  98976853.61444  24171139.039
  24171148.172          42.700          27.100
 129698308.281 6 101063670.26543  24680773.164
  24680778.492          39.200          23.300
 11 11 22  2 21  0.0000000  0 11G09G11G12G14G15G18G19G21G22G25G31
 114059471.357 7  88877598.15246  21704777.203
  21704782.402          46.700          36.300
 131951378.327 6 102819271.70342  25109509.727
  25109514.984          40.400          16.900
 123911987.835 7  96554836.59644  23579660.344
  23579665.539          44.000          28.700
 111639248.056 8  86991527.36446  21244191.125
  21244195.238          49.300          38.800
 133265400.484 5 103843235.16943  25359525.125
  25359532.191          34.100          18.300
 109545372.185 8  85360069.30246  20845749.984
  20845753.008          50.900          40.500
 134342809.443 5 104682752.56242  25564579.906
  25564583.805          34.900          16.300
 121773994.192 7  94888908.23244  23172789.695
  23172794.090          44.200          26.500
 107532373.112 8  83791559.70747  20462715.430
  20462716.953          49.300          43.000
 126930917.953 7  98907269.67344  24154146.875
  24154154.688          42.600          28.100
 129584234.013 6 100974781.25643  24659065.641
  24659071.426          38.600          20.400
 11 11 22  2 21 30.0000000  0 11G09G11G12G14G15G18G19G21G22G25G31
 114138986.661 8  88939558.10146  21719908.906
  21719913.563          49.300          37.400
 131887250.141 6 102769301.74743  25097306.859
  25097311.668          40.100          19.600
 123849125.135 7  96505852.70344  23567697.711
  23567702.828          43.100          29.600
 111602360.826 8  86962784.08646  21237172.313
  21237175.801          49.000          38.500
 133352446.142 6 103911062.80043  25376090.438
  25376097.258          36.200          19.900
 109584154.978 8  85390289.64746  20853130.211
  20853133.543          51.800          40.200
 134394039.062 4 104722671.75442  25574329.336
  25574332.941          28.600          15.600
 121879762.332 7  94971324.93844  23192916.039
  23192921.379          43.500          27.000
 107501496.667 8  83767500.14747  20456839.813
  20456841.391          50.200          43.600
 126841697.926 7  98837747.63444  24137168.836
  24137176.875          43.800          27.900
 129470244.567 7 100885958.33043  24637374.102
  24637378.988          43.700          22.800
 11 11 22  2 22  0.0000000  0 11G09G11G12G14G15G18G19G21G22G25G31
 114218950.278 8  89001867.43446  21735125.172
  21735129.340          48.600          36.000
 131823535.292 6 102719653.87143  25085182.758
  25085186.766          39.800          20.900
 123786609.584 7  96457139.36245  23555800.734
  23555806.969          43.400          30.600
 111565716.478 8  86934230.06546  21230198.695
  21230202.516          49.300          38.600
 133439450.536 6 103978858.38243  25392645.445
  25392653.328          37.600          19.900
 109623322.146 8  85420809.50646  20860582.914
  20860586.832          50.900          40.900
 134445560.213 4 104762818.12942  25584131.813
  25584137.293          27.600          15.600
 121985690.964 7  95053866.65144  23213074.305
  23213079.043          42.600          24.700
 107470965.839 8  83743709.88947  20451030.289
  20451031.496          50.600          42.800
 126752560.043 7  98768289.64244  24120205.844
  24120214.469          43.800          28.700
 129356342.337 6 100797203.43343  24615698.703
  24615705.055          38.600          21.300
 11 11 22  2 22 30.0000000  0 11G09G11G12G14G15G18G19G21G22G25G31
 114299359.768 7  89064524.17445  21750426.586
  21750430.199          46.700          34.800
 131760236.071 6 102670329.81243  25073137.164
  25073141.836          39.700          21.100
 123724444.824 7  96408699.33945  23543972.023
  23543977.418          42.900          31.100
 111529315.172 8  86905865.43346  21223271.656
  21223275.461          49.300          38.900
 133526413.830 6 104046621.89743  25409195.234
  25409201.914          38.500          19.600
 109662874.551 8  85451629.53246  20868110.109
  20868113.457          50.800          40.600
 134497370.878 5 104803190.04642  25593993.102
  25593996.039          34.800          16.300
 122091777.873 7  95136531.70344  23233261.758
  23233266.484          45.000          26.200
 107440782.632 8  83720190.51447  20445286.156
  20445287.410          49.700          43.900
 126663507.997 7  98698898.46944  24103259.992
  24103268.191          42.400          28.900
 129242530.137 6 100708518.52043  24594042.086
  24594046.215          40.700          22.200
 11 11 22  2 23  0.0000000  0 11G09G11G12G14G15G18G19G21G22G25G31
 114380211.255 8  89127525.36845  21765812.250
  21765815.754          48.400          34.900
 131697353.269 6 102621330.33243  25061170.375
  25061175.797          40.300          22.600
 123662632.870 7  96360534.26645  23532209.781
  23532215.164          43.600          31.400
 111493155.605 8  86877689.16646  21216390.813
  21216394.520          48.600          39.200
 133613334.785 6 104114352.45743  25425736.680
  25425742.695          40.500          22.300
 109702811.617 8  85482749.31946  20875709.883
  20875713.551          51.400          40.400
 134549467.590 5 104843784.98143  25603906.438
  25603910.223          34.200          19.300
 122198018.780 7  95219316.78644  23253478.516
  23253483.320          44.700          25.800
 107410947.901 8  83696942.67447  20439609.008
  20439610.242          49.800          43.400
 126574543.985 7  98629575.89944  24086330.758
  24086339.188          43.900          27.100
 129128809.025 6 100619904.83543  24572400.953
  24572407.453          41.200          21.800
 11 11 22  2 23 30.0000000  0 11G09G11G12G14G15G18G19G21G22G25G31
 114461502.668 8  89190869.32946  21781281.320
  21781285.766          48.200          36.400
 131634889.345 6 102572657.24543  25049283.766
  25049288.227          39.500          22.900
 123601177.487 7  96312647.03344  23520514.516
  23520519.664          42.600          29.900
 111457238.059 8  86849701.47346  21209556.234
  21209559.961          48.900          39.400
 133700213.722 6 104182050.20742  25442268.148
  25442274.723          36.900          17.800
 109743134.006 8  85514169.34246  20883383.141
  20883386.656          50.600          41.100
 134601848.761 5 104884601.45743  25613873.664
  25613878.043          35.000          19.900
 122304411.618 7  95302220.26444  23273724.578
  23273728.914          44.300          24.500
 107381463.619 8  83673967.90647  20433998.117
  20433999.531          49.500          44.000
 126485671.899 7  98560324.95144  24069419.289
  24069427.129          46.300          28.500
 129015182.242 7 100531364.39944  24550778.695
  24550784.547          42.700          26.300
 11 11 22  2 24  0.0000000  0 11G09G11G12G14G15G18G19G21G22G25G31
 114543230.543 7  89254553.37145  21796833.133
  21796838.551          46.400          34.700
 131572845.803 6 102524311.70843  25037476.844
  25037482.367          40.800          23.000
 123540080.814 7  96265039.29545  23508888.992
  23508893.750          43.400          30.700
 111421561.676 8  86821901.70646  21202767.258
  21202770.652          49.100          38.900
 133787049.437 6 104249714.32043  25458792.141
  25458799.641          36.400          19.600
 109783841.171 8  85545889.18346  20891129.211
  20891132.699          51.400          40.800
 134654510.829 5 104925636.79443  25623895.266
  25623898.688          33.500          19.000
 122410952.730 7  95385239.25443  23293998.688
  23294003.227          43.700          22.800
 107352330.828 8  83651267.04047  20428454.164
  20428455.566          50.800          43.800
 126396894.218 7  98491147.60044  24052525.281
  24052533.516          43.800          29.300
 128901651.246 7 100442898.69643  24529174.703
  24529179.820          42.600          21.300
 11 11 22  2 24 30.0000000  0 11G09G11G12G14G15G18G19G21G22G25G31
 114625392.281 7  89318575.46845  21812468.602
  21812473.398          47.500          35.800
 131511224.520 6 102476295.20743  25025751.859
  25025755.840          39.600          21.100
 123479346.362 7  96217713.83945  23497331.203
  23497336.668          42.700          30.900
 111386126.887 8  86794290.19546  21196024.430
  21196027.953          49.900          39.200
 133873842.295 5 104317345.02243  25475308.469
  25475315.305          35.200          18.300
 109824933.977 8  85577909.53446  20898948.594
  20898952.414          51.300          40.400
 134707451.365 6 104966889.19143  25633969.625
  25633972.430          37.000          19.600
 122517639.909 7  95468372.03244  23314300.266
  23314305.348          43.000          24.100
 107323551.600 8  83628841.66747  20422978.031
  20422979.516          49.200          43.600
 126308214.488 7  98422046.54144  24035649.313
  24035658.652          43.200          28.900
 128788218.751 7 100354509.72244  24507589.016
  24507594.074          44.200          25.800
 11 11 22  2 25  0.0000000  0 11G09G11G12G14G15G18G19G21G22G25G31
 114707985.020 7  89382933.45645  21828185.695
  21828189.344          47.800          35.100
 131450027.607 6 102428609.43343  25014105.203
  25014110.887          38.700          22.300
 123418977.258 7  96170673.02645  23485843.445
  23485848.035          44.000          30.600
 111350933.086 8  86766866.47146  21189326.594
  21189330.875          48.500          39.700
 133960592.388 5 104384942.46942  25491816.516
  25491823.340          35.500          16.900
 109866412.425 8  85610230.38546  20906842.219
  20906845.465          52.000          40.800
 134760668.292 6 105008356.92243  25644095.406
  25644099.461          38.500          21.100
 122624469.889 7  95551616.10344  23334630.523
  23334634.508          44.400          26.500
 107295127.491 8  83606693.01647  20417569.297
  20417570.590          49.800          43.000
 126219636.019 7  98353024.45944  24018794.586
  24018802.293          42.700          28.900
 128674887.465 7 100266199.57243  24486022.734
  24486026.844          42.300          22.500
 11 11 22  2 25 30.0000000  0 11G09G11G12G14G15G18G19G21G22G25G31
 114791005.562 8  89447624.80245  21843983.852
  21843987.480          48.500          34.800
 131389256.486 6 102381255.40843  25002541.461
  25002546.020          39.000          21.100
 123358975.480 7  96123918.45345  23474424.867
  23474429.742          42.900          30.200
 111315979.791 8  86739630.14746  21182675.578
  21182679.305          49.100          39.700
 134047298.887 5 104452505.97042  25508316.789
  25508322.977          34.300          17.800
 109908276.523 8  85642851.75246  20914808.164
  20914811.781          51.400          40.200
 134814158.682 5 105050037.82643  25654273.969
  25654278.277          35.500          21.100
 122731439.551 7  95634969.05443  23354985.219
  23354989.863          42.500          23.000
 107267059.683 8  83584822.00247  20412227.797
  20412229.344          49.400          43.300
 126131161.788 7  98284083.60844  24001958.227
  24001965.918          44.600          28.900
 128561659.187 6 100177969.80944  24464476.047
  24464481.527          41.900          25.800
 11 11 22  2 26  0.0000000  0 11G09G11G12G14G15G18G19G21G22G25G31
 114874451.068 7  89512647.29245  21859862.164
  21859866.699          46.900          34.600
 131328913.180 6 102334234.73143  24991058.227
  24991063.445          36.300          18.600
 123299345.066 7  96077453.21744  23463078.023
  23463083.156          42.100          29.700
 111281266.877 8  86712581.13546  21176069.688
  21176073.773          49.600          40.000
 134133961.650 5 104520035.32442  25524807.977
  25524815.188          33.800          17.400
 109950526.608 8  85675773.87846  20922848.297
  20922851.539          51.900          39.500
 134867920.264 6 105091929.88043  25664506.492
  25664509.082          39.300          21.300
 122838546.800 6  95718429.19043  23375367.406
  23375371.652          41.700          22.600
 107239350.079 8  83563230.11447  20406954.898
  20406956.566          48.400          43.500
 126042794.987 7  98215226.45244  23985142.469
  23985150.137          45.800          27.800
 128448536.538 7 100089822.32043  24442949.953
  24442953.816          43.900          21.700
 11 11 22  2 26 30.0000000  0 11G09G11G12G14G15G18G19G21G22G25G31
 114958318.123 7  89577998.20145  21875822.500
  21875826.098          47.300          33.900
 131268998.913 6 102287548.36543  24979657.000
  24979661.547          38.800          20.900
 123240088.233 7  96031279.14044  23451800.836
  23451806.613          44.000          29.900
 111246793.699 8  86685718.93346  21169509.930
  21169513.199          49.800          39.400
 134220580.187 5 104587530.15442  25541290.625
  25541298.406          34.400          15.600
 109993162.144 8  85708996.35446  20930960.930
  20930964.199          52.000          39.800
 134921949.803 5 105134030.85143  25674786.438
  25674790.559          35.200          18.300
 122945787.955 7  95801993.67443  23395775.031
  23395779.086          42.600          22.800
 107211999.589 8  83541918.04147  20401750.531
  20401751.691          49.500          43.700
 125954538.399 7  98146455.13444  23968346.734
  23968355.641          44.100          28.500
 128335521.149 7 100001758.44643  24421442.656
  24421448.559          43.800          23.500
 11 11 22  2 27  0.0000000  0 11G09G11G12G14G15G18G19G21G22G25G31
 115042604.161 7  89643675.66545  21891861.352
  21891864.883          47.600          34.800
 131209515.817 6 102241197.97143  24968337.680
  24968342.109          40.100          19.900
 123181207.718 7  95985398.28745  23440597.117
  23440602.691          43.800          31.300
 111212560.289 8  86659043.55046  21162995.375
  21162999.105          49.800          40.500
 134307155.005 5 104654990.98142  25557766.492
  25557772.980          35.400          17.800
 110036183.908 8  85742519.78146  20939148.188
  20939151.785          51.700          40.000
 134976245.219 6 105176338.98943  25685119.570
  25685123.121          39.200          22.300
 123053160.226 7  95885660.32543  23416207.258
  23416211.859          42.600          23.500
 107185010.358 8  83520887.47747  20396614.570
  20396615.523          50.100          43.200
 125866395.647 7  98077772.60244  23951573.656
  23951582.414          43.600          28.600
 128222615.989 7  99913780.42244  24399958.148
  24399963.430          44.600          28.200
 11 11 22  2 27 30.0000000  0 11G09G11G12G14G15G18G19G21G22G25G31
 115127306.156 8  89709677.21945  21907979.922
  21907983.648          48.600          35.200
 131150465.365 6 102195184.71543  24957100.891
  24957105.801          38.400          18.600
 123122706.642 7  95939813.14045  23429464.359
  23429470.195          44.100          31.400
 111178565.741 8  86632554.29946  21156526.703
  21156530.371          50.100          39.400
 134393685.217 5 104722417.11742  25574232.461
  25574239.594          34.800          17.800
 110079591.246 8  85776343.66046  20947408.695
  20947411.691          51.600          39.400
 135030803.334 6 105218851.81943  25695501.195
  25695504.902          36.200          19.600
 123160660.189 7  95969426.42744  23436664.305
  23436668.465          42.700          24.600
 107158383.363 8  83500139.16647  20391547.555
  20391549.102          49.900          43.600
 125778369.603 6  98009181.01445  23934823.664
  23934831.535          40.900          30.400
 128109822.769 6  99825889.64843  24378493.344
  24378499.004          40.200          20.400
 11 11 22  2 28  0.0000000  0 11G09G11G12G14G15G18G19G21G22G25G31
 115212421.756 7  89776001.04745  21924176.094
  21924181.285          47.900          34.700
 131091849.599 6 102149510.16443  24945946.438
  24945950.777          37.900          19.000
 123064588.220 7  95894526.14345  23418404.523
  23418409.621          44.300          31.400
 111144810.618 8  86606251.61646  21150102.734
  21150106.461          49.200          39.500
 134480170.936 5 104789808.54442  25590690.172
  25590697.629          34.700          15.600
 110123385.159 8  85810468.76646  20955742.328
  20955746.133          52.300          40.100
 135085622.314 6 105261567.87843  25705933.094
  25705936.098          37.600          20.100
 123268286.263 6  96053290.83043  23457145.094
  23457149.336          41.400          23.000
 107132120.879 8  83479674.89547  20386549.914
  20386551.430          50.200          43.900
 125690463.893 7  97940683.13444  23918095.570
  23918103.895          44.700          29.600
 127997144.471 7  99738088.49744  24357052.953
  24357057.816          45.800          29.800
 11 11 22  2 28 30.0000000  0 11G09G11G12G14G15G18G19G21G22G25G31
 115297947.386 7  89842644.39445  21940451.070
  21940455.539          46.200          34.000
 131033670.071 6 102104175.56442  24934875.336
  24934879.148          37.100          17.400
 123006855.051 7  95849539.33445  23407418.539
  23407423.785          44.600          30.900
 111111293.769 8  86580134.59446  21143725.055
  21143728.852          48.400          39.600
 134566611.570 5                  25607140.320
                        35.200
 110167564.976 8  85844894.57846  20964149.766
  20964153.176          53.000          40.400
 135140698.632 6 105304484.48443  25716413.297
  25716417.328          37.700          21.100
 123376034.482 6  96137250.40543  23477648.875
  23477652.867          39.700          22.500
 107106223.643 8  83459495.22647  20381621.820
  20381623.336          50.300          43.700
 125602681.086 7  97872280.98644  23901391.016
  23901399.039          45.200          29.300
 127884582.474 6  99650377.90543  24335631.203
  24335636.695          40.700          21.800
 11 11 22  2 29  0.0000000  0 11G09G11G12G14G15G18G19G21G22G25G31
 115383880.206 8  89909605.02545  21956804.633
  21956807.953          48.600          35.200
 130975928.208 6 102059181.95643  24923886.711
  24923892.668          37.700          19.600
 122949509.841 7  95804854.82545  23396505.797
  23396510.809          43.800          30.400
 111078015.383 8  86554203.39146  21137392.258
  21137396.219          49.700          39.200
 134653007.107 5                  25623578.953
                        34.600
 110212130.993 8  85879621.31046  20972630.461
  20972633.391          52.200          40.000
 135196030.289 6 105347600.10443  25726942.781
  25726946.344          38.600          21.800
 123483902.231 6  96221303.18543  23498175.234
  23498178.980          40.100          22.500
 107080693.714 8  83439601.77147  20376763.875
  20376765.336          49.700          43.400
 125515024.696 7  97803977.35444  23884711.031
  23884717.820          44.600          29.600
 127772139.849 7  99562760.47044  24314235.625
  24314240.324          44.800          27.700
 11 11 22  2 29 30.0000000  0 11G09G11G12G14G15G18G19G21G22G25G31
 115470217.076 8  89976880.53345  21973233.281
  21973237.324          48.700          34.900
 130918625.818 5 102014530.78242  24912982.000
  24912987.543          34.000          16.300
 122892555.346 7  95760474.80445  23385667.680
  23385673.004          44.400          31.800
 111044975.280 8  86528457.85446  21131105.023
  21131109.148          49.300          39.000
 134739357.409 6                  25640011.414
                        36.100
 110257083.267 8  85914649.04146  20981184.000
  20981187.770          52.800          40.400
 135251614.371 6 105390912.39343  25737520.195
  25737523.000          38.400          22.900
 123591886.951 6  96305447.07543  23518723.102
  23518728.215          39.200          23.600
 107055532.231 8  83419995.42047  20371975.273
  20371976.910          48.800          44.100
 125427497.969 7  97735774.80144  23868054.367
  23868062.402          43.700          29.900
 127659818.425 6  99475237.44744  24292860.656
  24292867.422          41.800          26.500
 11 11 22  2 30  0.0000000  0 11G09G11G12G14G15G18G19G21G22G25G31
 115556954.730 7  90044468.30645  21989738.453
  21989743.617          47.300          35.000
 130861764.100 6 101970223.08242  24902162.375
  24902167.738          36.800          17.400
 122835994.322 7  95716401.33245  23374904.781
  23374909.992          44.100          31.000
 111012172.429 8  86502897.18446  21124862.641
  21124866.152          49.100          39.200
 134825661.749 5                  25656435.016
                        32.000
 110302421.419 8  85949977.46846  20989811.383
  20989815.277          51.700          40.000
 135307447.869 6 105434419.02343  25748144.477
  25748147.941          38.600          23.000
 123699985.004 6  96389679.21144  23539294.680
  23539299.406          39.300          24.100
 107030740.276 8  83400677.01947  20367257.531
  20367259.164          50.300          43.900
 125340103.512 7  97667675.32445  23851423.492
  23851432.266          44.000          30.200
 127547620.062 7  99387810.14844  24271510.586
  24271514.762          42.000          26.100
 11 11 22  2 30 30.0000000  0 11G09G11G12G14G15G18G19G21G22G25G31
 115644090.867 8  90112366.57846  22006320.945
  22006325.453          48.100          36.000
 130805345.257 6 101926260.42742  24891427.359
  24891431.563          36.000          16.900
 122779829.971 7  95672636.95145  23364216.703
  23364221.863          42.700          31.300
 110979606.914 8  86477521.46146  21118665.883
  21118669.289          49.300          38.700
 134911920.574 5 105126053.50742  25672848.703
  25672856.805          32.900          13.900
 110348145.838 8  85985606.85446  20998512.664
  20998516.113          51.300          39.500
 135363528.675 6 105478118.33643  25758816.242
  25758820.137          39.000          21.300
 123808193.822 6  96473997.68143  23559884.953
  23559890.805          39.200          21.300
 107006320.161 8  83381648.34647  20362611.016
  20362612.215          49.600          43.800
 125252845.124 7  97599681.84545  23834818.797
  23834827.043          44.800          30.700
 127435547.673 6  99300481.20044  24250182.977
  24250188.934          41.000          27.300
 11 11 22  2 31  0.0000000  0 11G09G11G12G14G15G18G19G21G22G25G31
 115731622.259 8  90180572.84246  22022977.102
  22022982.188          49.100          36.000
 130749370.505 6 101882643.81642  24880775.367
  24880779.746          37.100          16.900
 122724064.401 7  95629183.31645  23353605.805
  23353609.695          44.900          32.000
 110947278.291 8  86452330.33946  21112513.828
  21112517.688          49.600          39.300
 134998133.336 5                  25689255.594
                        32.600
 110394256.394 8  86021537.13146  21007287.531
  21007290.629          52.100          39.300
 135419854.057 6 105522008.22343  25769535.195
  25769538.672          39.400          23.500
 123916510.636 6  96558400.33043  23580498.141
  23580502.316          40.300          21.700
 106982272.928 8  83362910.24547  20358034.656
  20358036.168          50.200          44.500
 125165725.744 7  97531796.67045  23818241.109
  23818249.773          44.500          30.400
 127323603.182 7  99213251.82844  24228880.891
  24228886.000          42.200          28.000
