     2.11           OBSERVATION DATA    G (GPS)             RINEX VERSION / TYPE
teqc  2019Feb25     root                20210227 05:23:57UTCPGM / RUN BY / DATE
Linux 2.4.21-27.ELsmp|Opteron|gcc|Linux 64|=+               COMMENT
     2.11           OBSERVATION DATA    M (MIXED)           COMMENT
teqc  2010Oct21     CORS/NGS/NOAA       20111123 01:47:42UTCCOMMENT
Solaris x86 5.10|AMD64|cc SC5.8 -xarch=amd64|=+|=+          COMMENT
teqc  2010Oct21     CORS-ADM Account    20111123 01:37:39UTCCOMMENT
teqc  2010Oct21     CORS/NGS/NOAA       20111123 01:35:34UTCCOMMENT
+39.015299006 (latitude)                                    COMMENT
-079.45694724 (longitude)                                   COMMENT
+969.234      (elevation)                                   COMMENT
+.000000      (antenna height)                              COMMENT
BIT 2 OF LLI FLAGS DATA COLLECTED UNDER A/S CONDITION       COMMENT
 SNR is mapped to RINEX snr flag value [0-9]                COMMENT
  L1 & L2: min(max(int(snr_dBHz/6), 0), 9)                  COMMENT
Forced Modulo Decimation to 30 seconds                      COMMENT
WVCV                                                        MARKER NAME
28                                                          MARKER NUMBER
Peter J Dailey      Rahall Appalachian Transportation InstitOBSERVER / AGENCY
4922K62079          TRIMBLE NETR5       4.42                REC # / TYPE / VERS
1440921177          TRM57971.00     NONE                    ANT # / TYPE
   908103.5529 -4879224.3126  3994246.9673                  APPROX POSITION XYZ
        0.0000        0.0000        0.0000                  ANTENNA: DELTA H/E/N
     1     1                                                WAVELENGTH FACT L1/2
     8    L1    L2    C1    C2    P1    P2    S1    S2      # / TYPES OF OBSERV
    30.0000                                                 INTERVAL
teqc.w windowed: start @ 2011 Nov 22 00:00:00.000           COMMENT
teqc.w windowed:  end  @ 2011 Nov 23 00:00:00.000           COMMENT
teqc.w edited: all GLONASS satellites excluded              COMMENT
  2011    11    22     0     0    0.0000000     GPS         TIME OF FIRST OBS
                                                            END OF HEADER
 11 11 22  0  0  0.0000000  0 11G03G05G06G09G14G15G18G21G22G26G29
 127194960.576 6  99113040.28143  24204392.867
  24204401.680          39.000          19.600
 132427679.154 6 103190521.81744  25200127.297
  25200134.691          41.400          26.900
 126991442.916 6  98954364.93144  24165631.320
  24165639.836          38.800          24.400
 115260516.115 8  89813522.80946  21933348.883
  21933354.883          48.300          37.000
 132422433.206 5                  25199153.445
                        33.700
 109867756.812 8  85611383.42646  20907116.320
  20907121.121          50.200          41.800
 111623587.286 8  86979533.76646  21241242.898
  21241247.383          51.900          39.800
 107576526.142 8  83825884.71146  20471079.383
  20471083.629          48.000          40.200
 125335007.673 7  97663703.69844  23850453.156
  23850457.383          44.300          29.800
 122846962.208 7  95725009.85744  23376966.641
  23376972.617          43.500          26.300
 128470533.210 6 100107091.19344  24447119.867
  24447127.891          41.700          26.200
 11 11 22  0  0 30.0000000  0 11G03G05G06G09G14G15G18G21G22G26G29
 127183680.116 6  99104250.40743  24202246.836
  24202254.898          39.300          21.300
 132510693.003 6 103255207.89543  25215924.375
  25215931.781          38.100          22.600
 126985307.948 6  98949584.51944  24164463.914
  24164471.891          40.900          25.400
 115172760.019 8  89745141.50346  21916648.922
  21916655.266          48.800          36.200
 132322779.734 4                  25180188.445
                        29.900
 109924214.021 8  85655376.06947  20917859.914
  20917864.484          49.800          42.100
 111581329.891 8  86946605.94846  21233201.625
  21233205.906          51.200          40.200
 107554808.317 7  83808961.74546  20466946.711
  20466950.176          46.600          39.900
 125257419.588 7  97603245.58644  23835688.617
  23835693.293          44.900          29.600
 122958796.544 7  95812153.46944  23398248.008
  23398254.039          43.800          26.900
 128570348.463 7 100184869.27744  24466114.430
  24466121.805          42.400          26.200
 11 11 22  0  1  0.0000000  0 11G03G05G06G09G14G15G18G21G22G26G29
 127172948.266 6  99095887.98243  24200204.039
  24200213.520          38.200          21.700
 132593749.229 6 103319926.99242  25231729.664
  25231736.602          36.000          17.800
 126979670.297 6  98945191.60044  24163391.672
  24163398.965          41.100          24.800
 115085401.403 8  89677069.91446  21900025.156
  21900031.301          48.600          36.600
 132223239.904 5                  25161247.000
                        30.300
 109981010.942 8  85699633.41947  20928667.750
  20928672.570          49.500          42.000
 111539230.921 8  86913801.59246  21225190.516
  21225194.578          50.900          40.100
 107533603.227 7  83792438.31646  20462911.523
  20462915.227          46.200          40.500
 125179869.884 7  97542817.34344  23820931.688
  23820934.539          45.300          28.200
 123070753.368 7  95899392.54344  23419552.656
  23419558.496          45.400          26.700
 128670123.404 6 100262615.97444  24485100.336
  24485109.047          41.800          26.400
 11 11 22  0  1 30.0000000  0 11G03G05G06G09G14G15G18G21G22G26G29
 127162765.088 6  99087953.11343  24198266.344
  24198274.754          37.900          18.600
 132676848.210 5 103384679.29242  25247541.766
  25247550.523          34.100          13.900
 126974529.677 6  98941185.98044  24162412.586
  24162420.746          40.200          24.400
 114998443.528 8  89609310.59346  21883477.906
  21883483.996          49.400          37.300
 132123814.948 5                  25142327.461
                        31.300
 110038145.433 8  85744153.81447  20939540.172
  20939544.883          50.100          42.000
 111497291.209 8  86881121.33546  21217209.555
  21217213.895          51.000          40.200
 107512912.499 7  83776315.68946  20458973.820
  20458978.020          47.900          40.500
 125102358.803 7  97482419.15444  23806181.531
  23806184.945          46.000          29.700
 123182830.198 7  95986725.12344  23440879.984
  23440886.637          44.000          27.000
 128769855.556 7 100340329.32244  24504078.438
  24504087.270          42.000          26.800
 11 11 22  0  2  0.0000000  0 11G03G05G06G09G14G15G18G21G22G26G29
 127153130.198 6  99080445.49243  24196432.641
  24196441.414          39.000          19.900
 132759989.598 6 103449464.98242  25263362.813
  25263371.051          39.400          17.800
 126969885.644 6  98937567.28544  24161529.070
  24161536.980          41.200          26.000
 114911889.827 8  89541866.21146  21867007.227
  21867013.133          48.900          37.900
 132024505.895 5                  25123429.188
                        30.100
 110095615.556 8  85788935.73546  20950476.328
  20950481.195          49.700          41.800
 111455511.359 8  86848565.63646  21209259.008
  21209263.273          51.000          40.600
 107492737.426 8  83760594.86546  20455134.875
  20455138.961          48.100          40.800
 125024886.639 7  97422051.31944  23791439.188
  23791441.684          45.200          28.600
 123295024.495 7  96074149.26044  23462230.023
  23462236.223          43.200          26.400
 128869542.161 6 100418007.16744  24523048.445
  24523057.039          41.700          27.200
 11 11 22  0  2 30.0000000  0 11G03G05G06G09G14G15G18G21G22G26G29
 127144043.502 6  99073365.00343  24194703.781
  24194712.625          38.300          21.300
 132843173.178 6 103514283.38743  25279192.672
  25279200.055          40.500          21.700
 126965737.844 6  98934335.32144  24160739.477
  24160747.309          40.900          25.300
 114825743.635 8  89474739.37346  21850613.992
  21850620.020          50.000          37.900
 131925314.271 4                  25104554.617
                        29.600
 110153419.186 8  85833977.53746  20961476.391
  20961481.090          49.600          41.500
 111413892.022 8  86816135.01346  21201339.438
  21201343.590          50.600          40.700
 107473079.645 7  83745277.13246  20451394.313
  20451398.313          47.300          40.500
 124947454.044 7  97361714.30744  23776703.648
  23776707.016          45.500          28.200
 123407333.676 7  96161662.87844  23483600.930
  23483607.840          42.700          24.600
 128969180.481 6 100495647.40244  24542009.063
  24542017.234          40.800          24.700
 11 11 22  0  3  0.0000000  0 11G03G05G06G09G14G15G18G21G22G26G29
 127135504.465 6  99066711.25843  24193078.938
  24193087.137          39.100          21.800
 132926398.524 7 103579134.32843  25295030.688
  25295037.250          42.500          23.000
 126962085.826 6  98931489.63244  24160044.477
  24160052.219          38.900          25.100
 114740008.205 8  89407932.60746  21834299.039
  21834305.309          50.100          37.700
 131826241.453 4                  25085701.359
                        29.600
 110211553.915 8  85879277.33447  20972538.734
  20972543.523          49.900          42.400
 111372434.096 8  86783830.17146  21193449.969
  21193454.293          50.800          40.000
 107453940.209 8  83730363.30446  20447752.063
  20447755.875          48.500          40.400
 124870060.895 7  97301408.01344  23761977.117
  23761979.953          44.700          28.400
 123519755.141 6  96249263.97344  23504994.727
  23505000.863          41.700          24.600
 129068767.657 6 100573247.77244  24560960.633
  24560967.926          40.800          24.200
 11 11 22  0  3 30.0000000  0 11G03G05G06G09G14G15G18G21G22G26G29
 127127513.127 6  99060484.33643  24191557.461
  24191566.648          39.500          21.300
 133009665.888 7 103644017.98444  25310875.734
  25310882.793          42.400          26.200
 126958929.131 6  98929029.93544  24159444.289
  24159451.863          41.000          26.800
 114654686.893 8  89341448.53646  21818063.359
  21818069.184          50.200          38.400
 131727288.962 5                  25066870.297
                        31.200
 110270018.107 8  85924833.86046  20983664.086
  20983669.082          50.000          41.700
 111331137.616 8  86751651.12346  21185591.336
  21185595.930          50.800          40.100
 107435320.845 8  83715854.72846  20444208.961
  20444212.883          48.100          40.600
 124792707.964 7  97241133.12244  23747256.453
  23747260.664          43.800          28.900
 123632286.229 7  96336950.48344  23526408.945
  23526415.078          42.500          25.500
 129168300.967 6 100650806.17043  24579900.570
  24579908.590          40.400          23.600
 11 11 22  0  4  0.0000000  0 11G03G05G06G09G14G15G18G21G22G26G29
 127120069.115 6  99054683.85343  24190140.766
  24190150.219          40.300          21.300
 133092974.987 6 103708934.09244  25326728.445
  25326735.977          41.500          25.300
 126956267.264 6  98926955.80644  24158937.555
  24158945.254          40.900          25.500
 114569782.969 8  89275289.70146  21801906.234
  21801912.316          49.700          37.500
 131628457.913 5                  25048063.656
                        32.300
 110328809.602 8  85970645.42146  20994851.391
  20994856.258          50.200          41.900
 111290003.306 8  86719598.44446  21177763.695
  21177768.754          50.800          40.600
 107417223.052 8  83701752.57146  20440764.969
  20440768.691          48.800          40.800
 124715395.558 7  97180889.80744  23732543.047
  23732548.168          43.100          28.600
 123744924.725 7  96424720.72344  23547843.250
  23547849.555          42.600          26.300
 129267777.766 6 100728320.50743  24598830.484
  24598838.410          40.200          22.600
 11 11 22  0  4 30.0000000  0 11G03G05G06G09G14G15G18G21G22G26G29
 127113172.062 6  99049309.65043  24188828.758
  24188837.281          41.800          22.000
 133176325.571 6 103773882.52544  25342589.797
  25342597.266          40.700          24.800
 126954099.661 6  98925266.85044  24158524.797
  24158532.938          41.700          25.000
 114485299.462 8  89209458.44746  21785829.422
  21785835.656          49.800          37.300
 131529749.431 5                  25029279.570
                        32.500
 110387925.783 8  86016709.98446  21006101.156
  21006106.258          50.200          41.900
 111249031.900 8  86687672.70446  21169967.445
  21169971.359          50.500          40.300
 107399648.028 8  83688057.76746  20437420.586
  20437424.066          48.500          40.300
 124638124.477 7  97120678.69544  23717839.516
  23717844.145          42.500          27.900
 123857667.861 7  96512572.51044  23569297.406
  23569304.012          43.200          25.400
 129367195.447 6 100805788.81443  24617749.219
  24617756.883          40.700          22.300
 11 11 22  0  5  0.0000000  0 11G03G05G06G09G14G15G18G21G22G26G29
 127106821.738 6  99044361.39743  24187620.508
  24187628.574          40.500          22.300
 133259717.691 6 103838863.34644  25358459.266
  25358466.535          40.300          24.200
 126952425.827 6  98923962.60244  24158206.023
  24158214.340          39.900          25.800
 114401239.884 8  89143957.54546  21769833.344
  21769839.410          50.700          38.000
 131431164.914 5                  25010517.852
                        30.800
 110447364.624 8  86063025.98246  21017412.141
  21017416.863          49.600          41.600
 111208224.215 8  86655874.54446  21162201.992
  21162206.031          50.600          40.400
 107382597.215 8  83674771.43446  20434175.477
  20434179.633          48.900          40.700
 124560893.862 7  97060499.13144  23703142.586
  23703147.453          43.000          29.100
 123970513.204 7  96600503.93844  23590772.234
  23590777.621          42.800          25.800
 129466551.413 6 100883209.01943  24636656.000
  24636664.422          40.200          22.200
 11 11 22  0  5 30.0000000  0 11G03G05G06G09G14G15G18G21G22G26G29
 127101017.902 6  99039839.01743  24186515.953
  24186524.070          40.500          21.300
 133343151.419 6 103903876.58143  25374335.742
  25374343.715          39.200          21.700
 126951245.307 6  98923042.79244  24157982.141
  24157989.539          41.100          27.000
 114317607.570 8  89078789.57146  21753918.766
  21753924.402          49.600          38.200
 131332705.467 5                  24991782.508
                        32.500
 110507124.253 8  86109591.93247  21028783.758
  21028788.742          50.500          42.300
 111167580.852 8  86624204.42346  21154467.391
  21154471.734          50.800          40.100
 107366071.954 7  83661894.62746  20431031.016
  20431035.117          47.800          40.300
 124483704.604 7  97000351.79445  23688454.430
  23688459.438          44.100          31.200
 124083458.182 7  96688512.98144  23612264.141
  23612270.492          43.200          26.200
 129565842.397 6 100960578.57343  24655550.492
  24655558.258          39.300          21.300
 11 11 22  0  6  0.0000000  0 11G03G05G06G09G14G15G18G21G22G26G29
 127095760.087 6  99035742.09943  24185515.227
  24185523.699          41.200          21.700
 133426626.671 6 103968922.13843  25390220.531
  25390227.984          37.900          19.600
 126950557.704 7  98922507.06344  24157851.484
  24157859.609          42.200          26.500
 114234405.564 8  89013956.90946  21738085.734
  21738091.965          50.200          37.500
 131234372.932 5 102260576.83142  24973069.648
  24973078.051          34.500          16.300
 110567203.241 8  86156406.74046  21040216.273
  21040221.250          50.200          41.900
 111127102.176 8  86592662.61646  21146764.813
  21146768.746          50.700          40.200
 107350074.210 7  83649428.87146  20427987.234
  20427990.801          46.000          41.300
 124406557.567 7  96940237.31645  23673773.875
  23673778.250          45.100          32.400
 124196500.456 7  96776597.85844  23633775.406
  23633781.504          42.600          25.000
 129665066.370 6 101037895.92443  24674432.219
  24674439.961          38.600          21.700
 11 11 22  0  6 30.0000000  0 11G03G05G06G09G14G15G18G21G22G26G29
 127091047.492 6  99032070.02943  24184618.930
  24184626.535          41.500          22.300
 133510142.824 6 104033999.59043  25406113.383
  25406120.813          38.800          21.700
 126950361.913 7  98922354.56844  24157813.445
  24157821.355          43.200          26.900
 114151636.969 8  88949461.95746  21722335.648
  21722341.254          50.000          37.900
 131136168.090 6 102184053.80642  24954383.133
  24954391.199          36.400          15.600
 110627598.157 8  86203467.72146  21051709.508
  21051714.242          51.100          41.800
 111086789.102 8  86561249.85646  21139093.578
  21139097.758          50.200          40.200
 107334604.039 7  83637374.21246  20425042.766
  20425046.738          47.600          40.500
 124329452.695 7  96880155.70545  23659101.453
  23659105.461          46.000          31.900
 124309637.515 6  96864756.60443  23655304.039
  23655310.133          41.200          22.200
 129764219.974 6 101115158.41943  24693300.797
  24693308.496          39.400          22.200
 11 11 22  0  7  0.0000000  0 11G03G05G06G09G14G15G18G21G22G26G29
 127086879.608 6  99028822.44443  24183824.984
  24183833.934          41.100          22.800
 133593700.004 6 104099109.09343  25422013.844
  25422020.906          38.600          19.900
 126950657.719 7  98922585.12044  24157870.063
  24157877.145          43.000          25.800
 114069304.848 8  88885307.12546  21706668.000
  21706674.320          50.000          37.400
 131038092.110 6 102107631.13343  24935720.188
  24935727.570          37.900          18.600
 110688307.305 8  86250773.56746  21063262.070
  21063266.355          50.000          41.800
 111046641.811 8  86529966.28746  21131453.531
  21131457.992          50.300          40.900
 107319663.161 7  83625731.98346  20422199.609
  20422203.477          47.500          40.200
 124252390.338 7  96820107.20245  23644437.195
  23644440.918          45.900          32.800
 124422866.957 6  96952987.30643  23676851.398
  23676857.285          41.400          22.800
 129863300.650 6 101192364.11243  24712154.906
  24712162.695          38.800          22.000
 11 11 22  0  7 30.0000000  0 11G03G05G06G09G14G15G18G21G22G26G29
 127083255.963 7  99025998.90443  24183135.641
  24183143.883          42.400          22.200
 133677298.083 6 104164250.37243  25437922.008
  25437929.051          40.600          22.800
 126951444.337 7  98923198.13244  24158019.930
  24158027.359          42.300          26.200
 113987412.339 8  88821494.84346  21691084.453
  21691089.844          49.900          37.900
 130940146.496 6 102031309.93842  24917081.531
  24917088.387          36.900          16.900
 110749328.728 8  86298322.73746  21074874.008
  21074878.602          51.200          41.900
 111006661.334 8  86498812.69846  21123845.656
  21123849.828          50.500          40.400
 107305252.765 7  83614503.11946  20419457.805
  20419461.305          47.400          40.600
 124175370.699 7  96760091.99145  23629780.883
  23629784.238          47.300          30.900
 124536186.105 6  97041287.96743  23698414.898
  23698421.141          41.300          22.500
 129962305.739 6 101269510.88643  24730994.109
  24731003.016          40.200          21.100
 11 11 22  0  8  0.0000000  0 11G03G05G06G09G14G15G18G21G22G26G29
 127080176.274 7  99023599.23243  24182549.938
  24182558.047          42.200          22.500
 133760936.895 6 104229423.41143  25453837.688
  25453845.395          41.300          22.500
 126952721.239 6  98924193.18944  24158263.422
  24158270.188          41.800          27.700
 113905962.898 8  88758027.80346  21675584.914
  21675590.637          50.900          37.700
 130842332.402 6 101955091.28642  24898468.656
  24898474.180          37.100          17.400
 110810660.385 8  86346113.64846  21086545.047
  21086549.555          50.200          41.000
 110966848.324 8  86467789.59646  21116269.133
  21116273.695          49.500          40.700
 107291374.331 7  83603688.77346  20416816.617
  20416820.348          47.700          40.600
 124098394.189 7  96700110.36445  23615132.633
  23615135.766          47.400          30.100
 124649592.809 6  97129656.77144  23719995.867
  23720001.688          41.000          24.800
 130061232.716 6 101346596.79843  24749820.664
  24749827.574          40.500          22.600
 11 11 22  0  8 30.0000000  0 11G03G05G06G09G14G15G18G21G22G26G29
 127077640.297 6  99021623.25043  24182066.984
  24182074.922          41.700          22.800
 133844616.123 6 104294627.99043  25469762.047
  25469769.418          39.400          19.900
 126954487.829 7  98925569.82344  24158598.523
  24158606.488          44.300          26.600
 113824959.828 8  88694908.58146  21660170.664
  21660176.586          50.300          38.300
 130744651.202 6 101878976.12142  24879879.344
  24879886.027          37.500          16.900
 110872300.257 8  86394144.72246  21098274.273
  21098279.355          50.200          41.600
 110927203.380 8  86436897.45746  21108725.398
  21108729.668          48.300          41.100
 107278029.270 7  83593290.04146  20414277.117
  20414281.285          47.100          40.400
 124021461.244 7  96640162.67144  23600492.383
  23600495.816          45.600          28.300
 124763084.497 6  97218091.82544  23741593.313
  23741599.098          41.500          25.200
 130160078.805 6 101423619.70343  24768630.320
  24768638.426          40.100          22.600
 11 11 22  0  9  0.0000000  0 11G03G05G06G09G14G15G18G21G22G26G29
 127075647.482 7  99020070.45844  24181687.625
  24181696.504          42.200          25.000
 133928336.080 5 104359864.31842  25485692.945
  25485700.848          34.500          14.800
 126956743.092 7  98927327.22544  24159028.023
  24159035.668          43.700          27.200
 113744405.759 8  88632139.23746  21644841.695
  21644847.730          50.200          38.400
 130647103.827 6 101802965.30042  24861317.203
  24861323.965          37.300          17.400
 110934245.841 8  86442414.02046  21110062.414
  21110067.457          50.800          41.400
 110887727.335 8  86406136.92946  21101213.414
  21101217.613          48.900          40.900
 107265218.534 7  83583307.66346  20411839.234
  20411843.441          46.400          40.800
 123944572.452 7  96580249.37944  23585860.656
  23585863.527          44.100          26.200
 124876658.832 7  97306591.31144  23763205.148
  23763211.516          42.800          25.100
 130258841.254 6 101500577.39543  24787423.977
  24787432.445          40.200          22.200
 11 11 22  0  9 30.0000000  0 11G03G05G06G09G14G15G18G21G22G26G29
 127074197.010 6  99018940.31144  24181411.484
  24181419.969          41.100          24.600


 126959486.747 7  98929465.19644  24159549.813
  24159556.820          43.500          25.800
 113664304.245 8  88569722.53346  21629598.945
  21629604.695          50.100          38.100
 130549691.994 5 101727060.11442  24842779.820
  24842787.188          34.800          17.400
 110996495.409 8  86490920.18647  21121907.984
  21121912.941          50.500          42.100
 110848420.798 8  86375508.48746  21093733.383
  21093737.668          48.500          40.800
 107252943.332 7  83573742.58046  20409503.188
  20409507.254          47.800          41.100
 123867727.962 7  96520370.63844  23571237.453
  23571241.230          42.100          26.200
 124990313.468 7  97395153.34144  23784833.000
  23784839.922          42.200          24.800
 130357517.690 6 101577468.10343  24806200.984
  24806209.211          40.400          22.900
 11 11 22  0 10  0.0000000  0 10G03G06G09G14G15G18G21G22G26G29
 127073288.490 6  99018232.43944  24181239.008
  24181247.246          41.600          25.300
 126962717.890 7  98931983.06344  24160164.734
  24160172.195          43.400          28.100
 113584658.399 8  88507660.89546  21614443.055
  21614448.879          49.500          38.900
 130452416.756 5 101651261.28142  24824268.430
  24824276.691          33.800          16.300
 111059047.104 8  86539661.77446  21133811.219
  21133816.039          50.500          41.800
 110809284.502 8  86345012.69946  21086285.883
  21086290.281          49.600          40.200
 107241205.161 7  83564595.97046  20407269.391
  20407273.867          47.100          40.600
 123790928.512 7  96460527.01944  23556622.008
  23556626.570          42.600          27.700
 125104046.109 6  97483776.16444  23806475.711
  23806481.813          41.400          26.300
 130456105.692 6 101654289.89143  24824962.406
  24824970.594          39.400          23.600
 11 11 22  0 10 30.0000000  0 10G03G06G09G14G15G18G21G22G26G29
 127072921.347 6  99017946.42443  24181168.406
  24181176.875          41.800          22.900
 126966436.025 7  98934880.33844  24160872.313
  24160879.383          43.800          27.200
 113505471.248 8  88445956.67546  21599374.000
  21599379.457          49.000          38.300
 130355279.496 5 101575570.00342  24805782.914
  24805791.930          34.300          15.600
 111121898.683 8  86588637.03646  21145771.883
  21145776.602          50.700          41.100
 110770319.193 8  86314650.14446  21078871.164
  21078875.391          49.600          41.100
 107230004.953 7  83555868.54946  20405138.063
  20405142.141          44.300          40.400
 123714174.426 6  96400718.70644  23542016.609
  23542020.863          40.600          28.700
 125217854.119 6  97572457.71244  23828132.828
  23828138.473          41.700          24.300
 130554602.318 6 101731040.46643  24843705.539
  24843714.148          40.200          23.500
 11 11 22  0 11  0.0000000  0 10G03G06G09G14G15G18G21G22G26G29
 127073094.599 6  99018081.47744  24181201.133
  24181210.148          40.500          24.600
 126970640.034 7  98938156.28444  24161672.016
  24161679.582          43.400          27.400
 113426746.118 8  88384612.47746  21584393.227
  21584398.730          49.600          38.400
 130258281.588 5 101499987.37142  24787325.203
  24787333.504          34.300          17.400
 111185047.861 8  86637844.19446  21157788.750
  21157793.191          50.500          41.100
 110731525.675 8  86284421.45446  21071488.813
  21071492.973          49.300          40.800
 107219343.897 7  83547561.24246  20403109.477
  20403113.199          46.500          40.600
 123637466.108 7  96340946.08945  23527419.664
  23527423.988          45.900          30.700
 125331735.310 6  97661196.27243  23849803.805
  23849809.898          40.200          22.500
 130653004.964 6 101807717.82144  24862431.250
  24862439.438          40.600          25.400
 11 11 22  0 11 30.0000000  0 10G03G06G09G14G15G18G21G22G26G29
 127073807.531 6  99018637.08143  24181337.641
  24181345.379          40.600          23.200
 126975329.067 7  98941810.13644  24162564.273
  24162572.105          43.400          28.900
 113348485.875 7  88323630.52846  21569500.516
  21569506.000          47.800          38.600
 130161423.986 6 101424514.06143  24768895.180
  24768901.582          36.100          19.000
 111248492.216 8  86687281.36246  21169861.305
  21169866.008          49.100          41.300
 110692904.415 8  86254326.99246  21064139.602
  21064143.555          50.300          40.800
 107209222.745 7  83539674.64846  20401183.648
  20401187.543          47.000          40.300
 123560803.751 7  96281209.25445  23512832.133
  23512836.000          42.800          32.800
 125445687.197 6  97749989.92643  23871487.492
  23871494.078          39.800          21.100
 130751310.808 6 101884319.72143  24881137.984
  24881145.973          40.600          22.600
 11 11 22  0 12  0.0000000  0 10G03G06G09G14G15G18G21G22G26G29
 127075059.442 6  99019612.65743  24181575.078
  24181583.809          40.000          22.800
 126980502.449 7  98945841.39244  24163548.789
  24163555.992          42.700          27.500
 113270693.740 8  88263013.33946  21554697.219
  21554702.926          48.200          38.400
 130064707.578 6 101349150.80843  24750489.188
  24750496.934          37.200          18.300
 111312229.872 8  86736947.07846  21181990.648
  21181995.078          50.200          40.900
 110654456.423 8  86224367.54446  21056822.922
  21056827.426          49.900          40.800
 107199643.086 7  83532209.99046  20399360.766
  20399364.250          46.000          40.600
 123484187.684 7  96221508.50445  23498252.367
  23498256.375          45.300          33.700
 125559707.447 6  97838836.85943  23893184.172
  23893191.016          39.000          20.900
 130849517.233 6 101960844.15943  24899825.820
  24899833.836          40.800          23.900
 11 11 22  0 12 30.0000000  0 10G03G06G09G14G15G18G21G22G26G29
 127076849.866 7  99021007.87443  24181916.063
  24181924.668          42.100          23.400
 126986159.238 7  98950249.35244  24164625.094
  24164632.852          43.400          27.700
 113193372.615 8  88202763.17646  21539983.250
  21539989.090          50.200          38.100
 129968133.714 6 101273898.60543  24732112.852
  24732119.492          39.400          21.700
 111376258.568 8  86786839.57146  21194174.836
  21194179.344          50.500          40.900
 110616181.516 8  86194542.96246  21049538.938
  21049544.059          49.500          40.700
 107190605.566 7  83525167.78146  20397640.820
  20397644.438          47.700          40.900
 123407618.449 7  96161844.22945  23483682.031
  23483685.242          47.600          33.600
 125673793.667 6  97927735.20243  23914895.141
  23914901.152          40.100          22.600
 130947621.547 6 102037289.04544  24918494.633
  24918502.742          41.300          24.800
 11 11 22  0 13  0.0000000  0 10G03G06G09G14G15G18G21G22G26G29
 127079177.792 6  99022821.87244  24182359.016
  24182367.465          40.600          25.400
 126992298.511 7  98955033.23544  24165793.719
  24165801.086          43.000          27.900
 113116525.241 8  88142882.16346  21525359.602
  21525365.230          50.800          38.600
 129871703.675 6 101198758.46843  24713762.336
  24713768.836          38.600          19.600
 111440576.476 8  86836957.42746  21206413.938
  21206418.703          50.300          41.400
 110578080.827 8  86164854.15346  21042289.242
  21042293.570          49.700          40.200
 107182111.442 7  83518548.99846  20396024.313
  20396028.332          47.200          40.700
 123331096.310 8  96102216.66445  23469120.078
  23469123.875          48.200          33.200
 125787943.526 6  98016683.13143  23936617.563
  23936623.117          40.900          22.600
 131045621.447 6 102113652.56343  24937143.219
  24937151.641          40.600          22.900
 11 11 22  0 13 30.0000000  0 10G03G06G09G14G15G18G21G22G26G29
 127082042.640 7  99025054.31544  24182904.641
  24182912.223          43.000          24.400
 126998919.577 7  98960192.57244  24167053.102
  24167060.805          43.500          26.800
 113040154.828 8  88083372.80246  21510826.891
  21510832.363          49.600          38.400
 129775418.765 5 101123731.45542  24695438.852
  24695446.449          35.900          17.400
 111505181.390 8  86887298.92346  21218707.469
  21218712.453          50.500          41.300
 110540155.130 8  86135301.68246  21035072.508
  21035076.324          50.300          41.100
 107174161.619 7  83512354.34046  20394511.445
  20394515.227          47.700          40.700
 123254621.985 7  96042626.34245  23454567.758
  23454570.883          47.300          32.700
 125902154.753 7  98105678.88943  23958350.219
  23958357.023          42.300          22.300
 131143514.224 6 102189932.59244  24955771.797
  24955780.125          41.600          25.300
 11 11 22  0 14  0.0000000  0 10G03G06G09G14G15G18G21G22G26G29
 127085443.636 7  99027704.49844  24183551.930
  24183559.820          43.100          25.300
 127006021.555 7  98965726.63344  24168404.484
  24168412.238          42.800          28.300
 112964264.732 8  88024237.72346  21496385.500
  21496390.926          50.100          38.600
 129679280.103 5 101048818.44942  24677144.063
  24677152.023          34.800          17.800
 111570071.371 8  86937862.55446  21231056.008
  21231061.031          50.300          40.700
 110502405.279 8  86105886.24846  21027888.602
  21027893.094          49.800          41.100
 107166757.379 7  83506584.81046  20393102.227
  20393106.773          47.800          40.400
 123178195.872 7  95983073.60245  23440023.273
  23440027.266          45.000          30.800
 126016425.248 6  98194720.79744  23980096.359
  23980101.914          41.400          26.200
 131241297.356 6 102266127.18144  24974379.617
  24974387.660          41.800          25.300
 11 11 22  0 14 30.0000000  0 10G03G06G09G14G15G18G21G22G26G29
 127089380.101 7  99030771.93144  24184300.789
  24184308.672          42.300          24.800
 127013603.544 7  98971634.70644  24169847.367
  24169854.941          43.100          28.200
 112888857.887 8  87965479.20046  21482035.758
  21482041.348          49.500          39.200
 129583289.201 6 100974020.47943  24658877.820
  24658885.324          36.500          18.600
 111635244.232 8  86988646.60946  21243457.641
  21243462.762          50.700          41.400
 110464832.116 8  86076608.49146  21020738.430
  21020742.688          49.900          40.500
 107159899.518 7  83501241.03346  20391797.734
  20391801.512          46.800          40.100
 123101818.308 6  95923558.68544  23425489.125
  23425493.113          41.500          29.100
 126130752.442 6  98283806.94244  24001851.367
  24001857.539          41.000          25.100
 131338968.080 6 102342234.19944  24992965.328
  24992974.035          40.200          24.600
 11 11 22  0 15  0.0000000  0 10G03G06G09G14G15G18G21G22G26G29
 127093851.282 7  99034256.02044  24185151.680
  24185159.082          43.000          24.800
 127021664.436 7  98977915.97444  24171381.070
  24171389.184          43.900          27.800
 112813936.952 8  87907099.30746  21467778.961
  21467784.691          48.800          39.200
 129487446.813 6 100899338.25543  24640640.586
  24640646.699          38.100          18.600
 111700697.792 8  87039649.38046  21255913.461
  21255918.211          50.700          41.700
 110427436.033 8  86047468.71246  21013622.297
  21013626.660          48.600          41.100
 107153589.106 7  83496323.83946  20390596.438
  20390600.582          47.400          40.800
 123025489.892 6  95864082.08544  23410964.375
  23410967.730          41.200          27.900
 126245134.259 6  98372935.58643  24023617.305
  24023624.086          39.900          22.600
 131436524.266 6 102418251.95244  25011530.203
  25011538.398          40.600          26.800
 11 11 22  0 15 30.0000000  0 10G03G06G09G14G15G18G21G22G26G29
 127098856.213 7  99038156.04844  24186103.305
  24186111.875          43.500          25.200
 127030203.547 7  98984569.86644  24173006.461
  24173014.219          44.500          28.500
 112739504.997 8  87849100.43246  21453614.664
  21453620.398          51.100          38.500
 129391754.177 6 100824772.69243  24622429.648
  24622436.594          37.500          18.600
 111766429.747 8  87090869.09146  21268421.742
  21268426.438          50.500          41.800
 110390217.792 8  86018467.51746  21006540.000
  21006544.031          49.900          40.900
 107147826.925 7  83491833.83846  20389500.031
  20389503.930          46.400          40.500
 122949210.888 7  95804643.95944  23396448.547
  23396451.723          44.300          27.100
 126359568.320 6  98462104.94343  24045392.844
  24045399.906          39.000          21.800
 131533963.017 6 102494178.21744  25030072.359
  25030080.258          41.100          27.000
 11 11 22  0 16  0.0000000  0 10G03G06G09G14G15G18G21G22G26G29
 127104394.044 7  99042471.29944  24187157.313
  24187165.309          43.400          26.600
 127039219.752 7  98991595.52644  24174722.508
  24174729.047          43.500          28.500
 112665565.266 8  87791485.10946  21439544.398
  21439550.121          50.700          38.900
 129296212.491 6 100750324.77543  24604248.398
  24604255.422          37.200          19.000
 111832438.767 8  87142304.69246  21280982.867
  21280987.691          50.500          41.800
 110353178.612 8  85989605.85146  20999491.852
  20999496.016          48.800          40.800
 107142614.343 7  83487772.09646  20388508.219
  20388512.441          46.000          40.500
 122872981.991 7  95745244.90044  23381942.000
  23381946.094          44.300          28.800
 126474052.684 5  98551313.50943  24067178.602
  24067185.461          35.800          19.000
 131631281.814 7 102570010.98644  25048591.023
  25048598.977          42.000          24.700
 11 11 22  0 16 30.0000000  0 10G03G06G09G14G15G18G21G22G26G29
 127110463.725 7  99047201.01444  24188312.633
  24188320.688          43.400          27.100
 127048712.059 7  98998992.17244  24176528.844
  24176536.242          43.200          28.300
 112592120.630 8  87734255.56746  21425568.523
  21425574.070          50.500          39.200
 129200822.891 5 100675995.36742  24586096.203
  24586103.352          34.800          16.900
 111898722.275 8  87193954.18246  21293596.195
  21293600.801          50.600          41.600
 110316318.913 8  85960884.03846  20992477.438
  20992481.480          49.800          41.000
 107137951.847 7  83484138.98846  20387621.438
  20387624.910          46.600          40.600
 122796803.450 7  95685885.06545  23367446.930
  23367449.820          45.100          30.900
 126588584.779 6  98640559.27743  24088974.375
  24088980.246          38.400          20.100
 131728478.324 6 102645748.47944  25067086.773
  25067095.309          41.800          24.600
 11 11 22  0 17  0.0000000  0 10G03G06G09G14G15G18G21G22G26G29
 127117064.258 7  99052344.34944  24189568.203
  24189576.340          43.800          26.400
 127058679.502 7  99006759.03944  24178425.008
  24178432.879          43.200          27.100
 112519174.048 8  87677414.13646  21411687.250
  21411692.496          50.300          38.800
 129105586.309 6 100601785.17843  24567973.805
  24567980.570          37.300          20.600
 111965278.300 8  87245816.02346  21306261.063
  21306266.125          50.400          40.900
 110279639.688 8  85932302.85046  20985497.578
  20985501.801          49.000          40.800
 107133840.517 7  83480935.36546  20386838.758
  20386842.391          45.500          40.900
 122720675.876 7  95626564.96545  23352960.172
  23352963.379          47.000          31.300
 126703162.550 6  98729840.65843  24110776.969
  24110783.523          39.900          20.600
 131825549.981 7 102721388.63543  25085559.469
  25085567.398          42.000          23.200
 11 11 22  0 17 30.0000000  0 10G03G06G09G14G15G18G21G22G26G29
 127124195.023 7  99057900.87944  24190925.172
  24190933.109          43.700          26.100
 127069121.031 7  99014895.34844  24180412.609
  24180418.688          44.100          28.100
 112446728.231 8  87620962.90646  21397901.375
  21397906.559          51.300          39.000
 129010504.211 6 100527695.34243  24549880.289
  24549887.023          39.400          21.700
 112032104.692 8  87297888.54646  21318977.961
  21318982.902          51.300          41.200
 110243141.136 8  85903862.45146  20978552.039
  20978556.059          50.200          40.800
 107130281.264 7  83478161.93246  20386161.438
  20386165.195          44.000          40.500
 122644599.528 7  95567284.77545  23338483.039
  23338486.652          47.200          32.600
 126817783.724 6  98819155.87643  24132589.617
  24132595.313          41.700          22.300
 131922493.949 7 102796929.36743  25104007.508
  25104014.977          42.200          23.600
 11 11 22  0 18  0.0000000  0 10G03G06G09G14G15G18G21G22G26G29
 127131854.881 7  99063869.64744  24192382.539
  24192390.602          42.900          24.700
 127080035.474 7  99023400.16044  24182489.328
  24182496.254          43.600          29.100
 112374785.964 8  87564904.04746  21384211.148
  21384216.469          51.400          39.200
 128915577.652 6 100453726.76743  24531815.984
  24531823.266          37.900          19.900
 112099199.285 8  87350170.05846  21331745.672
  21331750.676          50.700          41.100
 110206824.490 8  85875563.79546  20971641.617
  20971645.332          50.400          40.800
 107127274.746 7  83475819.20346  20385589.250
  20385593.105          45.400          40.200
 122568574.940 7  95508044.92645  23324016.250
  23324019.641          47.500          33.000
 126932446.162 7  98908503.26243  24154408.734
  24154414.719          42.900          21.700
 132019307.719 6 102872368.57943  25122430.094
  25122438.574          40.900          22.000
 11 11 22  0 18 30.0000000  0 10G03G06G09G14G15G18G21G22G26G29
 127140042.829 7  99070249.92844  24193940.758
  24193948.844          43.100          25.900
 127091422.013 7  99032272.78744  24184656.648
  24184663.066          44.000          27.700
 112303350.525 8  87509240.12246  21370617.422
  21370622.719          50.800          39.400
 128820807.903 6 100379880.37143  24513782.078
  24513788.523          40.400          21.800
 112166560.276 8  87402659.15246  21344563.805
  21344568.453          50.600          40.900
 110170690.620 8  85847407.56046  20964764.922
  20964769.449          49.800          41.200
 107124821.980 7  83473907.96246  20385122.477
  20385126.477          45.700          40.600
 122492602.830 7  95448845.97445  23309559.320
  23309562.922          47.500          33.500
 127047147.579 7  98997881.00743  24176236.633
  24176241.602          42.500          22.000
 132115989.222 6 102947704.77943  25140828.531
  25140836.605          41.000          22.300
 11 11 22  0 19  0.0000000  0 10G03G06G09G14G15G18G21G22G26G29
 127148757.697 7  99077040.77644  24195599.117
  24195607.320          42.200          25.800
 127103279.380 7  99041512.35644  24186912.102
  24186918.820          44.600          26.900
 112232424.568 8  87453973.20346  21357120.602
  21357126.211          51.700          39.800
 128726195.803 6 100306156.76243  24495778.641
  24495784.184          38.600          20.600
 112234185.413 8  87455354.07246  21357432.773
  21357437.578          51.000          40.900
 110134740.099 8  85819394.18846  20957923.906
  20957928.234          50.300          41.000
 107122923.544 7  83472428.67046  20384761.398
  20384764.957          47.400          40.400
 122416683.361 7  95389688.04245  23295112.109
  23295115.656          47.000          33.500
 127161885.884 7  99087287.48243  24198069.836
  24198075.926          42.700          22.500
 132212535.718 6 103022935.79143  25159200.781
  25159209.207          40.500          22.900
 11 11 22  0 19 30.0000000  0 10G03G06G09G14G15G18G21G22G26G29
 127157998.542 6  99084241.47844  24197357.836
  24197365.543          41.700          25.300
 127115606.479 7  99051117.92044  24189258.008
  24189264.867          43.200          27.000
 112162011.259 8  87399105.74946  21343721.328
  21343726.758          50.600          39.200
 128631742.615 6 100232556.97543  24477804.102
  24477810.227          39.900          21.100
 112302072.738 8  87508253.29646  21370351.102
  21370355.824          50.400          40.600
 110098973.494 8  85791524.13646  20951117.805
  20951121.926          50.400          41.000
 107121580.544 7  83471382.18746  20384505.461
  20384509.145          45.100          39.900
 122340817.497 7  95330571.89745  23280674.773
  23280678.621          45.800          31.800
 127276658.898 6  99176720.96943  24219910.914
  24219917.141          40.900          22.600
 132308944.662 6 103098059.57943  25177546.930
  25177555.020          39.700          21.300
 11 11 22  0 20  0.0000000  0 10G03G06G09G14G15G18G21G22G26G29
 127167764.259 7  99091851.17944  24199216.133
  24199223.770          42.100          24.500
 127128402.211 7  99061088.66644  24191693.188
  24191699.602          44.800          27.500
 112092113.386 8  87344639.93446  21330419.648
  21330425.559          50.800          39.900
 128537449.557 6 100159081.97443  24459860.617
  24459866.875          39.900          21.800
 112370219.971 8  87561355.04146  21383319.000
  21383323.910          50.000          40.700
 110063391.796 8  85763798.16146  20944346.797
  20944351.398          50.500          41.100
 107120793.518 7  83470768.93046  20384355.633
  20384359.875          46.100          40.100
 122265005.150 7  95271497.46645  23266248.242
  23266251.965          45.600          31.800
 127391464.337 6  99266179.73443  24241756.859
  24241762.957          39.100          21.300
 132405213.616 6 103173074.27943  25195866.055
  25195873.953          39.400          21.100
 11 11 22  0 20 30.0000000  0 11G03G06G09G14G15G18G19G21G22G26G29
 127178054.161 6  99099869.34144  24201173.602
  24201181.801          41.200          24.900
 127141665.679 7  99071423.85444  24194217.086
  24194223.441          43.600          27.600
 112022733.724 8  87290577.91946  21317217.602
  21317223.094          50.500          39.700
 128443317.912 6 100085732.72743  24441947.586
  24441953.539          41.700          22.300
 112438625.345 8  87614657.94246  21396336.305
  21396340.949          50.000          40.800
 110027996.236 8  85736217.22546  20937611.141
  20937615.258          50.000          41.900
 134828087.605 5 105060907.50543  25656940.242
  25656947.625          34.800          18.300
 107120563.509 7  83470589.71046  20384312.125
  20384315.832          47.400          40.400
 122189247.300 7  95212465.47145  23251832.164
  23251835.273          45.800          31.100
 127506300.450 6  99355662.37543  24263608.922
  24263615.629          36.900          19.900
 132501340.353 6 103247978.20643  25214157.992
  25214166.348          40.700          20.400
 11 11 22  0 21  0.0000000  0 11G03G06G09G14G15G18G19G21G22G26G29
 127188866.946 6  99108294.95643  24203231.633
  24203239.031          41.500          23.800
 127155395.235 7  99082122.23844  24196829.992
  24196836.469          45.100          26.400
 111953874.936 8  87236921.78346  21304114.055
  21304119.688          49.800          40.100
 128349348.311 6 100012509.72643  24424065.750
  24424071.863          40.400          21.800
 112507286.592 8  87668160.22046  21409402.281
  21409406.641          50.000          40.300
 109992786.822 8  85708781.34046  20930911.266
  20930915.273          49.800          41.700
 134771840.686 5 105017078.86342  25646236.328
  25646244.145          31.200          16.900
 107120890.942 8  83470844.86146  20384374.148
  20384378.137          48.300          40.400
 122113544.008 7  95153475.98545  23237426.055
  23237429.609          46.000          31.200
 127621164.751 6  99445166.98243  24285467.492
  24285473.473          39.000          20.100
 132597322.199 6 103322769.21443  25232422.977
  25232430.918          39.800          22.600
 11 11 22  0 21 30.0000000  0 11G03G06G09G14G15G18G19G21G22G26G29
 127200201.274 7  99117126.95844  24205388.289
  24205396.801          42.100          27.600
 127169589.990 7  99093183.15244  24199530.766
  24199537.102          44.300          27.900
 111885540.002 8  87183673.84146  21291110.102
  21291115.887          49.800          40.100
 128255542.159 6  99939414.08543  24406215.047
  24406221.168          40.900          20.100
 112576201.738 8  87721860.34246  21422516.000
  21422520.828          50.800          40.600
 109957764.845 8  85681491.50646  20924246.852
  20924250.984          49.500          41.400
 134716025.794 5 104973586.84542  25635616.172
  25635622.664          33.700          16.300
 107121776.766 8  83471535.12246  20384542.797
  20384546.910          48.300          40.900
 122037896.331 7  95094529.83045  23223030.906
  23223033.801          46.100          31.300
 127736055.320 6  99534692.05543  24307330.570
  24307336.957          39.700          20.600
 132693156.857 6 103397445.51043  25250659.227
  25250668.184          38.300          22.600
 11 11 22  0 22  0.0000000  0 11G03G06G09G14G15G18G19G21G22G26G29
 127212055.897 7  99126364.39644  24207644.531
  24207651.457          43.000          24.800
 127184248.528 7  99104605.39344  24202319.828
  24202327.516          44.100          25.900
 111817731.262 8  87130835.91646  21278206.695
  21278212.078          49.300          40.100
 128161900.330 6  99866446.42843  24388395.047
  24388401.340          39.700          20.900
 112645368.604 8  87775756.60846  21435678.203
  21435683.023          51.100          40.400
 109922930.816 8  85654348.12746  20917617.523
  20917622.117          49.400          41.800
 134660644.007 5 104930432.25142  25625076.602
  25625084.055          35.300          17.800
 107123221.239 7  83472660.69146  20384818.008
  20384821.863          44.800          40.500
 121962304.383 7  95035627.09545  23208646.016
  23208649.020          47.200          31.800
 127850969.907 6  99624235.93543  24329197.914
  24329204.512          40.400          21.500
 132788841.466 6 103472004.92043  25268867.727
  25268876.418          38.100          21.300
 11 11 22  0 22 30.0000000  0 11G03G06G09G14G15G18G19G21G22G26G29
 127224430.023 7  99136006.62744  24209998.891
  24210007.152          42.600          24.200
 127199370.022 7  99116388.40844  24205197.672
  24205204.035          44.300          26.200
 111750451.959 8  87078410.54146  21265403.609
  21265409.629          49.800          39.600
 128068423.992 6  99793607.77743  24370607.719
  24370613.531          40.900          22.800
 112714785.397 8  87829847.61746  21448887.281
  21448892.258          50.200          40.900
 109888286.143 8  85627352.30046  20911025.297
  20911029.691          49.600          41.400
 134605697.511 5 104887616.96042  25614619.117
  25614627.770          33.500          14.800
 107125225.396 7  83474222.38246  20385198.992
  20385203.113          46.500          40.500
 121886768.969 7  94976768.39645  23194272.492
  23194275.129          47.800          31.700
 127965906.572 6  99713796.97743  24351070.750
  24351075.738          40.900          21.700
 132884374.207 6 103546445.93043  25287047.250
  25287056.262          37.600          21.300
 11 11 22  0 23  0.0000000  0 11G03G06G09G14G15G18G19G21G22G26G29
 127237322.172 7  99146052.52544  24212451.750
  24212460.180          42.900          25.600
 127214952.710 7  99128530.80444  24208163.016
  24208169.344          43.900          25.300
 111683704.644 7  87026399.69746  21252701.977
  21252707.766          47.600          40.200
 127975114.307 6  99720898.98043  24352850.453
  24352857.344          40.600          23.400
 112784450.047 8  87884131.76246  21462144.602
  21462149.406          49.800          40.900
 109853831.134 7  85600504.26146  20904468.992
  20904472.938          47.800          40.800
 134551187.713 5 104845141.87142  25604247.617
  25604254.801          35.400          16.300
 107127789.694 7  83476220.54646  20385687.000
  20385691.109          43.900          40.600
 121811290.490 7  94917954.05345  23179908.688
  23179911.855          46.300          31.900
 128080863.041 6  99803373.48543  24372945.391
  24372951.066          40.900          19.300
 132979752.094 6 103620766.29743  25305197.188
  25305205.949          37.700          20.100
 11 11 22  0 23 30.0000000  0 11G03G06G09G14G15G18G19G21G22G26G29
 127250731.281 7  99156501.27544  24215002.898
  24215011.484          42.200          24.700
 127230995.600 7  99141031.81144  24211215.734
  24211222.652          43.800          27.600
 111617492.110 8  86974805.56246  21240102.109
  21240107.852          50.000          40.100
 127881972.465 6  99648320.98544  24335127.203
  24335133.352          39.600          24.400
 112854360.606 8  87938607.52446  21475447.867
  21475452.895          50.300          40.200
 109819566.578 8  85573804.61746  20897948.602
  20897952.313          49.700          41.700
 134497116.715 6 104803008.74542  25593958.828
  25593965.813          37.100          17.400
 107130914.958 7  83478655.82346  20386281.961
  20386286.066          45.700          40.400
 121735869.387 7  94859184.43645  23165556.852
  23165559.926          46.500          32.700
 128195837.374 6  99892963.96043  24394824.516
  24394829.980          40.000          19.900
 133074972.924 6 103694964.30642  25323316.555
  25323325.535          36.500          16.900
 11 11 22  0 24  0.0000000  0 11G03G06G09G14G15G18G19G21G22G26G29
 127264656.197 7  99167351.93844  24217653.305
  24217661.672          43.700          25.900
 127247497.644 7  99153890.54944  24214355.516
  24214363.160          43.600          27.400
 111551817.176 8  86923630.34446  21227604.773
  21227609.977          48.800          40.200
 127788999.168 6  99575874.30643  24317434.656
  24317440.797          38.200          23.200
 112924514.645 8  87993273.00646  21488797.938
  21488802.617          49.800          40.200
 109785493.644 8  85547254.29546  20891464.797
  20891468.484          48.800          41.100
 134443485.899 6 104761218.68542  25583751.641
  25583759.934          36.200          17.800
 107134601.661 7  83481528.58846  20386983.234
  20386987.313          47.300          40.500
 121660506.347 7  94800460.08445  23151215.234
  23151218.230          46.600          32.000
 128310827.592 6  99982566.71543  24416705.383
  24416712.680          39.100          19.600
 133170034.588 5 103769038.35442  25341406.203
  25341415.836          34.200          14.800
 11 11 22  0 24 30.0000000  0 11G03G06G09G14G15G18G19G21G22G26G29
 127279095.557 7  99178603.46744  24220400.930
  24220409.277          42.700          24.600
 127264457.260 7  99167105.87444  24217583.352
  24217589.605          43.900          26.700
 111486682.626 8  86872876.20546  21215210.266
  21215215.398          50.300          40.100
 127696195.696 6  99503560.00643  24299775.328
  24299781.020          39.000          22.500
 112994910.344 8  88048126.79946  21502193.781
  21502198.313          50.100          40.500
 109751613.104 8  85520853.89346  20885017.352
  20885020.988          50.200          41.000
 134390296.785 5 104719772.74442  25573630.703
  25573638.242          34.700          17.800
 107138850.483 7  83484839.36746  20387792.313
  20387795.918          44.500          39.700
 121585201.908 7  94741781.39045  23136885.578
  23136888.184          46.500          33.000
 128425831.698 6 100072180.26743  24438589.594
  24438597.043          37.800          19.000
 133264934.738 5 103842986.41652  25359464.922
  25359475.027          31.300          13.900
 11 11 22  0 25  0.0000000  0 11G03G06G09G14G15G18G19G21G22G26G29
 127294048.203 7  99190254.94444  24223246.289
  24223254.141          43.000          24.300
 127281873.229 7  99180676.79144  24220897.211
  24220904.215          44.000          26.500
 111422090.942 8  86822545.07946  21202918.719
  21202923.770          49.600          40.200
 127603563.088 6  99431378.85643  24282146.586
  24282153.762          37.800          21.300
 113065545.813 8  88103167.42446  21515635.289
  21515639.719          49.800          40.800
 109717925.762 8  85494604.03346  20878606.898
  20878610.738          50.300          41.400
 134337550.844 5 104678672.11242  25563594.594
  25563601.379          35.700          17.400
 107143661.486 7  83488588.20946  20388707.555
  20388711.574          46.800          40.400
 121509956.686 7  94683148.84045  23122566.227
  23122570.266          46.100          33.000
 128540847.653 6 100161803.03843  24460477.875
  24460483.559          38.400          18.600
 133359670.896 5                  25377493.484
                        31.800
 11 11 22  0 25 30.0000000  0 11G03G06G09G14G15G18G19G21G22G26G29
 127309512.666 7  99202305.25044  24226188.625
  24226196.910          43.900          24.700
 127299744.227 7  99194602.25844  24224298.070
  24224304.609          44.200          26.500
 111358044.793 8  86772639.02346  21190730.984
  21190736.133          50.500          40.000
 127511102.524 6  99359331.73043  24264552.703
  24264558.625          38.800          22.200
 113136419.204 8  88158393.44346  21529122.164
  21529126.395          49.300          40.700
 109684432.301 8  85468505.24546  20872233.133
  20872237.141          50.000          40.500
 134285249.985 6 104637918.32942  25553641.992
  25553647.980          38.700          17.400
 107149035.896 8  83492776.06246  20389730.484
  20389734.035          48.200          40.400
 121434771.355 7  94624562.96545  23108259.266
  23108263.152          47.300          33.800
 128655873.412 6 100251433.47143  24482366.766
  24482372.742          38.300          21.300
 133454240.598 4                  25395489.867
                        28.900
 11 11 22  0 26  0.0000000  0 11G03G06G09G14G15G18G19G21G22G26G29
 127325487.551 7  99214753.25744  24229229.141
  24229236.832          43.200          24.800
 127318068.708 7  99208881.07844  24227785.328
  24227791.746          43.400          26.400
 111294546.701 8  86723160.04246  21178647.453
  21178652.883          50.300          40.200
 127418814.843 6  99287419.34343  24246990.523
  24246997.590          40.200          22.000
 113207528.243 8  88213803.08446  21542653.453
  21542658.402          48.600          39.900
 109651133.585 8  85442558.21246  20865896.367
  20865900.617          50.200          41.300
 134233395.610 6 104597512.37042  25543773.203
  25543780.180          39.100          17.400
 107154973.940 8  83497403.11846  20390860.070
  20390864.066          48.300          40.600
 121359646.137 7  94566023.89845  23093963.781
  23093966.965          46.700          33.900
 128770906.859 6 100341069.93643  24504256.148
  24504262.508          38.700          20.400
 133548641.352 4                  25413454.102
                        28.000
 11 11 22  0 26 30.0000000  0 10G03G06G09G14G15G18G19G21G22G26
 127341971.787 7  99227598.21044  24232366.063
  24232373.379          42.600          25.600
 127336845.539 7  99223512.42744  24231357.734
  24231364.883          43.400          27.300
 111231599.501 8  86674110.31946  21166669.320
  21166674.371          49.600          40.600
 127326701.314 6  99215642.64643  24229462.664
  24229468.336          41.100          23.000
 113278870.946 8  88269394.80646  21556229.547
  21556234.199          48.800          39.600
 109618030.698 8  85416763.77246  20859597.633
  20859601.145          50.100          41.400
 134181989.321 6 104557455.62642  25533990.547
  25533997.836          38.400          16.300
 107161476.167 7  83502469.79446  20392097.547
  20392101.246          47.700          40.500
 121284582.075 7  94507532.49945  23079679.500
  23079682.090          46.900          34.100
 128885946.170 6 100430710.97543  24526146.992
  24526153.508          39.100          21.500
 11 11 22  0 27  0.0000000  0 10G03G06G09G14G15G18G19G21G22G26
 127358963.774 6  99240838.77143  24235599.414
  24235606.219          40.000          22.800
 127356073.544 6  99238495.30444  24235016.594
  24235023.699          41.800          27.000
 111169205.678 8  86625491.80246  21154795.836
  21154801.359          50.200          40.000
 127234763.170 7  99144002.57443  24211967.078
  24211972.617          42.600          22.600
 113350445.689 8  88325167.33546  21569849.617
  21569854.340          49.600          40.000
 109585124.689 8  85391122.74046  20853335.570
  20853339.297          50.700          41.800
 134131032.717 6 104517749.28443  25524294.273
  25524301.035          40.300          20.900
 107168543.201 8  83507976.57646  20393442.172
  20393445.875          48.600          40.200
 121209579.587 7  94449089.07745  23065406.938
  23065409.676          46.900          33.500
 129000989.427 6 100520355.04043  24548039.547
  24548045.949          40.000          21.500
 11 11 22  0 27 30.0000000  0 10G03G06G09G14G15G18G19G21G22G26
 127376462.069 7  99254473.86843  24238929.063
  24238936.746          42.600          23.200
 127375750.710 7  99253828.18844  24238761.641
  24238768.457          44.400          27.900
 111107367.810 8  86577306.49846  21143028.563
  21143033.813          48.700          40.600
 127143000.557 6  99072499.28243  24194504.797
  24194510.063          41.200          20.400
 113422249.775 8  88381118.57946  21583513.906
  21583518.277          49.500          40.000
 109552415.662 8  85365635.20446  20847111.398
  20847115.445          49.000          41.300
 134080526.663 6 104478394.01643  25514683.211
  25514689.691          41.200          20.400
 107176174.686 8  83513923.19646  20394894.461
  20394898.270          48.000          40.700
 121134638.894 7  94390693.79245  23051146.281
  23051148.832          46.100          33.100
 129116034.366 6 100610000.48743  24569932.008
  24569937.781          40.300          23.200
 11 11 22  0 28  0.0000000  0 10G03G06G09G14G15G18G19G21G22G26
 127394465.488 7  99268502.54744  24242355.227
  24242362.848          43.100          24.500
 127395876.039 7  99269510.27944  24242590.977
  24242597.895          43.400          24.500
 111046088.586 8  86529556.49746  21131367.461
  21131372.871          49.500          40.600
 127051414.941 7  99001133.88743  24177076.727
  24177082.574          42.000          22.200
 113494281.621 8  88437247.29146  21597220.742
  21597225.484          49.100          39.700
 109519905.041 8  85340302.27946  20840924.344
  20840928.574          50.000          40.900
 134030473.310 6 104439391.53543  25505158.461
  25505164.781          40.300          19.900
 107184371.811 7  83520310.57246  20396454.336
  20396458.207          47.200          40.400
 121059760.727 7  94332347.25245  23036897.125
  23036899.887          46.000          31.800
 129231079.069 6 100699645.68743  24591823.750
  24591830.672          39.200          21.100
 11 11 22  0 28 30.0000000  0 10G03G06G09G14G15G18G19G21G22G26
 127412972.595 6  99282923.70644  24245876.602
  24245884.480          41.400          24.500
 127416447.921 6  99285540.34344  24246505.430
  24246512.156          41.800          26.000
 110985370.520 8  86482243.77046  21119813.203
  21119818.738          49.800          40.800
 126960007.398 6  98929907.28743  24159682.297
  24159688.355          40.200          20.400
 113566539.277 8  88493551.95746  21610971.102
  21610976.313          49.600          39.900
 109487593.682 8  85315124.61346  20834775.750
  20834779.598          49.800          41.400
 133980874.003 6 104400742.82543  25495719.250
  25495726.754          39.500          21.300
 107193134.668 7  83527138.77646  20398121.648
  20398125.652          46.800          40.600
 120984945.833 7  94274049.99245  23022659.781
  23022662.438          45.100          32.400
 129346121.825 6 100789289.38743  24613715.953
  24613722.211          39.700          20.400
 11 11 22  0 29  0.0000000  0 10G03G06G09G14G15G18G19G21G22G26
 127431981.768 7  99297736.12144  24249493.680
  24249501.500          42.700          25.300
 127437464.893 7  99301917.24044  24250505.008
  24250512.074          43.700          27.900
 110925216.124 8  86435370.26246  21108366.266
  21108371.578          49.200          40.900
 126868778.774 6  98858820.09443  24142322.133
  24142328.352          38.900          21.100
 113639020.360 8  88550030.72846  21624763.984
  21624768.723          49.400          39.700
 109455482.286 7  85290102.76846  20828665.086
  20828669.129          47.600          41.700
 133931730.183 6 104362449.03943  25486367.969
  25486374.543          41.400          22.500
 107202463.776 7  83534408.21646  20399897.484
  20399900.742          47.500          40.200
 120910194.971 7  94215802.67145  23008435.391
  23008438.563          44.300          31.800
 129461160.537 6 100878929.94843  24635607.250
  24635613.098          38.300          19.300
 11 11 22  0 29 30.0000000  0 10G03G06G09G14G15G18G19G21G22G26
 127451491.638 7  99312938.64544  24253206.242
  24253214.375          42.200          25.300
 127458925.456 7  99318639.78344  24254589.336
  24254595.480          42.400          25.600
 110865627.799 8  86388937.84246  21097027.039
  21097031.945          49.500          40.900
 126777730.104 6  98787873.19543  24124994.523
  24125002.141          36.400          20.100
 113711723.082 8  88606682.19746  21638598.711
  21638603.504          49.400          39.900
 109423571.578 8  85265237.30446  20822592.813
  20822596.781          48.800          41.600
 133883043.108 6 104324511.19343  25477102.570
  25477109.195          41.800          21.700
 107212359.200 7  83542118.94046  20401779.914
  20401783.699          45.400          41.000
 120835508.402 7  94157605.43945  22994222.766
  22994225.816          45.000          33.500
 129576193.353 6 100968565.96243  24657496.891
  24657503.305          38.200          18.600
 11 11 22  0 30  0.0000000  0 10G03G06G09G14G15G18G19G21G22G26
 127471500.921 7  99328530.34844  24257014.219
  24257021.770          43.400          26.200
 127480828.117 7  99335706.81144  24258757.406
  24258763.523          43.800          27.100
 110806607.967 8  86342948.41146  21085795.508
  21085801.410          50.200          41.100
 126686862.541 5  98717067.36443  24107704.313
  24107710.555          35.800          20.100
 113784646.047 8  88663505.29546  21652475.398
  21652480.301          48.700          39.600
 109391862.786 8  85240529.17746  20816559.023
  20816562.855          48.800          41.400
 133834814.617 6 104286930.67043  25467924.680
  25467931.914          41.700          21.800
 107222821.499 7  83550271.38446  20403771.242
  20403774.875          47.000          40.600
 120760887.018 7  94099458.98545  22980022.680
  22980026.512          46.000          34.000
 129691218.440 6 101058195.81643  24679385.242
  24679391.836          37.100          18.300
 11 11 22  0 30 30.0000000  0 10G03G06G09G14G15G18G19G21G22G26
 127492007.669 7  99344509.67543  24260916.633
  24260924.445          43.700          23.500
 127503171.405 7  99353117.18744  24263009.055
  24263015.152          44.400          26.700
 110748159.081 8  86297403.86346  21074673.227
  21074678.582          50.200          41.600
 126596176.991 6  98646403.43943  24090447.711
  24090453.813          39.100          22.500
 113857786.624 8  88720497.95346  21666393.500
  21666398.168          48.300          40.300
 109360356.594 8  85215978.91746  20810563.500
  20810567.426          49.500          41.100
 133787046.068 7 104249708.50744  25458835.242
  25458841.953          42.500          25.600
 107233851.122 8  83558865.90546  20405870.141
  20405873.598          48.100          40.200
 120686331.490 7  94041363.85445  22965835.359
  22965838.840          45.600          34.200
 129806233.895 6 101147818.28043  24701272.648
  24701279.391          38.400          19.300
 11 11 22  0 31  0.0000000  0 10G03G06G09G14G15G18G19G21G22G26
 127513010.567 7  99360875.60544  24264913.148
  24264921.145          43.800          24.600
 127525953.987 7  99370869.87444  24267344.375
  24267350.551          43.300          26.300
 110690283.847 8  86252306.32446  21063659.609
  21063665.402          50.300          41.600
 126505674.619 6  98575882.20043  24073224.977
  24073231.496          37.100          22.500
 113931143.071 8  88777658.80946  21680352.836
  21680357.594          48.800          40.100
 109329054.324 8  85191587.56246  20804606.641
  20804610.371          49.200          41.500
 133739738.777 6 104212845.83943  25449832.547
  25449839.922          41.200          23.900
 107245448.314 7  83567902.68046  20408077.063
  20408080.680          47.800          40.500
 120611842.367 7  93983320.45745  22951660.492
  22951663.508          46.200          34.700
 129921237.802 6 101237431.69943  24723157.258
  24723162.844          39.100          19.900
 11 11 22  0 31 30.0000000  0 10G03G06G09G14G15G18G19G21G22G26
 127534508.030 7  99377626.92244  24269004.172
  24269011.742          42.300          25.700
 127549174.077 6  99388963.48744  24271761.680
  24271769.543          41.700          25.900
 110632984.440 8  86207657.47546  21052756.008
  21052761.555          50.900          41.100
 126415355.923 6  98505504.14643  24056038.383
  24056044.473          38.700          22.000
 114004713.536 8  88834986.44946  21694352.484
  21694357.852          49.100          39.700
 109297956.515 8  85167355.52846  20798688.797
  20798692.895          50.000          41.300
 133692893.899 6 104176343.49043  25440917.656
  25440924.934          39.900          22.900
 107257612.852 7  83577381.54446  20410391.250
  20410395.512          47.600          40.500
 120537420.173 7  93925329.22845  22937498.656
  22937501.313          46.100          34.600
 130036228.206 6 101327034.63043  24745038.578
  24745044.699          39.300          19.000
 11 11 22  0 32  0.0000000  0 10G03G06G09G14G15G18G19G21G22G26
 127556498.359 7  99394762.28844  24273188.766
  24273195.773          43.200          25.900
 127572830.129 7  99407396.77844  24276264.906
  24276270.281          43.700          27.000
 110576263.080 8  86163459.05546  21041962.148
  21041967.641          50.400          41.600
 126325222.005 6  98435270.07543  24038886.195
  24038892.152          37.800          19.300
 114078495.767 8  88892479.09846  21708393.367
  21708398.137          48.400          40.200
 109267063.849 8  85143283.34246  20792810.500
  20792814.234          49.400          41.300
 133646513.285 6 104140202.89943  25432092.680
  25432098.898          40.200          22.600
 107270345.193 7  83587302.85146  20412814.672
  20412818.129          45.200          40.300
 120463065.702 7  93867390.75845  22923349.258
  22923352.488          45.400          33.800
 130151203.259 6 101416625.52643  24766917.695
  24766924.273          39.200          19.000
 11 11 22  0 32 30.0000000  0 10G03G06G09G14G15G18G19G21G22G26
 127578980.090 7  99412280.56744  24277466.477
  24277474.602          42.200          24.300
 127596920.376 7  99426168.44544  24280848.203
  24280854.461          43.400          24.000
 110520122.469 8  86119713.16446  21031279.164
  21031284.434          50.400          41.700
 126235273.650 6  98365180.54543  24021768.648
  24021774.945          39.200          18.600
 114152488.192 8  88950135.53446  21722473.461
  21722478.520          48.400          40.000
 109236377.301 8  85119371.77346  20786970.875
  20786974.875          50.100          41.500
 133600597.838 6 104104424.75543  25423354.805
  25423360.617          40.800          23.000
 107283645.821 7  83597666.98046  20415345.711
  20415349.402          46.600          39.800
 120388779.281 7  93809505.30745  22909213.039
  22909216.000          45.200          33.900
 130266161.160 6 101506203.15043  24788793.547
  24788799.879          40.200          20.400
 11 11 22  0 33  0.0000000  0 10G03G06G09G14G15G18G19G21G22G26
 127601951.720 7  99430180.57843  24281838.086
  24281845.203          43.100          22.600
 127621443.478 7  99445277.37944  24285514.742
  24285521.422          42.400          25.100
 110464564.873 8  86076421.56747  21020706.852
  21020711.723          51.200          42.000
 126145512.220 6  98295236.72943  24004688.438
  24004694.141          38.900          19.000
 114226688.712 7  89007954.12446  21736593.195
  21736598.086          47.400          39.900
 109205898.209 8  85095621.85246  20781170.586
  20781174.465          49.900          41.300
 133555148.694 6 104069009.99644  25414705.703
  25414712.254          41.600          26.000
 107297514.988 7  83608474.12646  20417984.852
  20417988.441          47.300          40.800
 120314561.882 7  93751673.63845  22895089.891
  22895092.695          45.400          33.700
 130381100.306 6 101595766.12943  24810665.273
  24810672.422          38.900          19.600
 11 11 22  0 33 30.0000000  0 10G03G06G09G14G15G18G19G21G22G26
 127625411.482 7  99448460.96244  24286302.336
  24286309.516          42.900          25.000
 127646397.781 7  99464722.29344  24290263.578
  24290269.988          43.000          24.100
 110409592.584 8  86033586.05546  21010246.164
  21010251.395          51.200          41.400
 126055938.706 6  98225439.30343  23987642.695
  23987648.445          38.800          19.000
 114301095.331 8  89065933.31246  21750752.242
  21750757.172          49.100          39.200
 109175627.577 8  85072034.37047  20775410.617
  20775414.660          50.500          42.000
 133510167.812 6 104033960.08043  25406146.539
  25406153.035          39.400          22.900
 107311952.291 7  83619723.97046  20420732.445
  20420735.941          47.300          40.500
 120240414.336 7  93693896.42145  22880979.750
  22880982.395          45.600          32.600
 130496018.675 6 101685312.87743  24832534.594
  24832541.191          40.800          21.500
 11 11 22  0 34  0.0000000  0 10G03G06G09G14G15G18G19G21G22G26
 127649357.784 7  99467120.44143  24290859.023
  24290866.633          42.000          23.800
 127671781.571 7  99484501.90044  24295093.742
  24295100.637          43.000          24.700
 110355207.851 8  85991208.38046  20999896.789
  20999902.098          51.100          41.100
 125966553.623 6  98155788.70443  23970633.422
  23970638.879          39.600          18.300
 114375705.869 8  89124071.40446  21764949.906
  21764954.875          48.900          39.200
 109145566.009 8  85048609.79246  20769690.188
  20769694.109          50.000          41.900
 133465656.088 6 103999275.75244  25397676.008
  25397681.895          39.400          24.400
 107326958.000 7  83631416.73946  20423587.547
  20423591.652          47.000          40.600
 120166337.021 7  93636173.91345  22866883.094
  22866886.047          45.600          34.400
 130610914.443 6 101774842.03343  24854398.086
  24854404.035          41.100          20.400
 11 11 22  0 34 30.0000000  0 10G03G06G09G14G15G18G19G21G22G26
 127673788.869 7  99486157.70644  24295507.766
  24295516.125          42.900          24.200
 127697593.256 7  99504614.91843  24300005.289
  24300012.582          42.100          23.200
 110301413.104 8  85949290.42846  20989660.063
  20989665.398          50.900          41.600
 125877357.859 6  98086285.65242  23953659.344
  23953665.445          38.800          17.400
 114450518.875 8  89182367.25846  21779187.070
  21779191.324          48.600          38.700
 109115714.269 8  85025348.71946  20764008.914
  20764013.285          50.000          41.200
 133421614.784 6 103964957.96543  25389295.531
  25389301.266          36.600          21.100
 107342532.465 7  83643552.68646  20426551.266
  20426554.977          47.200          39.800
 120092330.590 7  93578506.66145  22852800.414
  22852803.441          46.200          34.800
 130725785.755 6 101864352.11143  24876256.461
  24876264.137          39.400          18.600
 11 11 22  0 35  0.0000000  0 10G03G06G09G14G15G18G19G21G22G26
 127698702.969 7  99505571.34143  24300249.492
  24300256.051          42.600          23.200
 127723831.218 6  99525060.10843  24304998.297
  24305004.926          41.700          23.900
 110248210.506 8  85907833.89846  20979536.195
  20979540.980          51.100          41.100
 125788352.459 6  98016930.90643  23936721.813
  23936728.270          38.700          18.300
 114525532.401 8  89240819.36546  21793461.430
  21793465.656          48.800          38.400
 109086073.404 8  85002251.96546  20758368.922
  20758372.508          50.000          41.600
 133378045.407 6 103931007.87343  25381003.750
  25381010.629          37.500          22.900
 107358676.004 7  83656132.06546  20429623.195
  20429627.297          47.300          40.400
 120018395.908 7  93520895.30745  22838731.391
  22838734.203          46.700          34.600
 130840631.202 6 101953842.03943  24898111.656
  24898118.320          39.900          18.300
 11 11 22  0 35 30.0000000  0 10G03G06G09G14G15G18G19G21G22G26
 127724098.436 7  99525360.09444  24305081.695
  24305088.855          42.100          24.600
 127750493.691 6  99545836.07543  24310072.180
  24310078.750          41.600          23.300
 110195602.438 8  85866840.63846  20969524.945
  20969529.832          51.600          41.300
 125699538.321 6  97947725.22743  23919822.234
  23919826.992          40.400          19.900
 114600744.480 8  89299426.18046  21807773.945
  21807778.141          48.100          38.600
 109056644.301 8  84979320.21646  20752768.664
  20752772.754          50.100          41.700
 133334949.050 5 103897426.43243  25372803.188
  25372809.094          35.700          22.200
 107375388.475 7  83669154.76846  20432803.797
  20432807.324          47.200          40.600
 119944533.591 7  93463340.32545  22824675.609
  22824678.016          47.300          35.000
 130955448.652 5 102043310.20042  24919959.922
  24919967.199          35.900          14.800
 11 11 22  0 36  0.0000000  0 10G03G06G09G14G15G18G19G21G22G26
 127749973.700 6  99545522.66944  24310005.250
  24310012.973          41.900          25.800
 127777578.838 6  99566941.42443  24315226.328
  24315232.898          40.700          22.900
 110143590.900 8  85826312.19846  20959626.984
  20959632.770          51.100          41.100
 125610916.380 6  97878669.27743  23902956.992
  23902963.105          39.400          18.300
 114676152.892 7  89358185.99146  21822123.406
  21822128.203          47.700          38.900
 109027427.851 8  84956554.17446  20747208.852
  20747213.152          49.800          41.700
 133292326.860 6 103864214.49543  25364692.641
  25364698.207          36.200          21.500
 107392669.596 7  83682620.57346  20436092.281
  20436095.836          44.100          40.500
 119870744.092 7  93405842.08145  22810634.008
  22810636.895          47.300          34.800
 131070236.526 6 102132755.17842  24941804.086
  24941811.059          36.800          14.800
 11 11 22  0 36 30.0000000  0 10G03G06G09G14G15G18G19G21G22G26
 127776327.033 6  99566057.79643  24315019.930
  24315027.023          41.400          22.800
 127805085.275 6  99588375.00943  24320460.781
  24320467.332          40.900          22.800
 110092178.214 8  85786250.39846  20949844.133
  20949849.016          51.400          41.300
 125522487.756 6  97809763.98743  23886129.797
  23886136.074          40.200          19.300
 114751756.013 8  89417097.51946  21836510.391
  21836514.969          48.800          39.000
 108998425.343 8  84933954.83946  20741690.039
  20741694.023          49.400          41.700
 133250180.368 6 103831373.22843  25356672.008
  25356678.023          36.000          21.300
 107410519.633 7  83696529.69446  20439488.563
  20439492.914          47.300          40.300
 119797028.619 7  93348401.53845  22796605.867
  22796609.145          46.400          34.700
 131184993.141 6                  24963641.742
                        36.700
 11 11 22  0 37  0.0000000  0 10G03G06G09G14G15G18G19G21G22G26
 127803156.984 7  99586964.30843  24320125.188
  24320133.258          42.500          22.600
 127833011.405 6  99610135.68443  24325774.070
  24325780.934          40.900          23.500
 110041366.970 8  85746657.25946  20940174.750
  20940180.055          51.400          41.100
 125434253.456 6  97741010.07143  23869339.836
  23869345.160          41.300          21.300
 114827552.432 8  89476159.65446  21850933.617
  21850938.266          49.100          38.200
 108969638.186 8  84911523.30846  20736212.227
  20736215.574          48.800          41.300
 133208510.993 5 103798903.68243  25348742.297
  25348748.652          35.300          20.900
 107428938.958 7  83710882.41946  20442993.961
  20442997.953          44.600          40.400
 119723387.771 7  93291019.14145  22782592.414
  22782595.152          46.500          34.200
 131299717.045 6 102311356.24142  24985472.977
  24985478.418          37.100          16.900
 11 11 22  0 37 30.0000000  0 10G03G06G09G14G15G18G19G21G22G26
 127830460.948 7  99608240.15743  24325321.156
  24325328.836          42.100          22.600
 127861355.171 6  99632221.74643  24331167.430
  24331174.957          41.700          23.300
 109991158.922 8  85707534.13946  20930620.414
  20930625.195          51.600          41.500
 125346214.058 6  97672408.01343  23852586.555
  23852591.152          41.300          22.000
 114903539.641 8  89535370.47146  21865393.813
  21865398.586          49.800          39.000
 108941066.484 8  84889259.67046  20730774.633
  20730778.383          48.700          41.400
 133167319.291 5 103766806.44543  25340902.383
  25340910.211          33.200          19.600
 107447927.213 7  83725678.45746  20446607.477
  20446610.766          45.500          40.400
 119649822.160 7  93233695.38745  22768593.164
  22768596.035          47.100          33.300
 131414406.140 6 102400724.40743  25007297.445
  25007303.707          39.800          18.300
 11 11 22  0 38  0.0000000  0 10G03G06G09G14G15G18G19G21G22G26
 127858237.684 6  99629884.43643  24330606.109
  24330614.137          40.000          22.800
 127890114.780 6  99654631.87343  24336640.500
  24336647.594          40.600          22.500
 109941556.057 8  85668882.58646  20921181.469
  20921186.176          51.500          41.500
 125258370.060 6  97603958.23943  23835870.156
  23835875.754          41.400          21.500
 114979715.800 8  89594728.51346  21879889.758
  21879894.102          49.400          39.200
 108912711.250 8  84867164.69546  20725379.188
  20725382.918          48.400          41.200
 133126606.437 5 103735082.22543  25333155.734
  25333162.645          33.100          18.300
 107467484.270 7  83740917.72246  20450328.727
  20450332.703          46.900          40.300
 119576332.456 7  93176430.74445  22754608.398
  22754611.137          47.300          33.400
 131529058.565 6 102490063.94643  25029115.234
  25029121.188          40.300          20.100
 11 11 22  0 38 30.0000000  0 10G03G06G09G14G15G18G19G21G22G26
 127886485.043 6  99651895.43043  24335982.219
  24335989.805          40.500          22.000
 127919288.448 6  99677364.63444  24342192.734
  24342199.090          41.700          24.700
 109892560.507 8  85630704.26746  20911857.531
  20911863.008          51.700          41.100
 125170722.746 6  97535661.73443  23819190.781
  23819197.102          40.600          22.600
 115056079.311 8  89654232.55246  21894420.828
  21894426.176          49.900          39.400
 108884573.945 8  84845239.53946  20720024.875
  20720028.746          49.400          41.300
 133086373.612 5 103703732.17843  25325499.070
  25325506.371          33.800          19.300
 107487609.905 7  83756600.03246  20454158.477
  20454162.504          47.800          40.100
 119502919.398 7  93119225.82745  22740638.563
  22740641.000          47.600          34.600
 131643672.886 6 102579373.82743  25050925.750
  25050931.988          40.500          21.800
 11 11 22  0 39  0.0000000  0 10G03G06G09G14G15G18G19G21G22G26
 127915201.008 6  99674271.55743  24341446.273
  24341453.863          40.700          22.500
 127948874.011 6  99700418.36844  24347822.500
  24347829.328          39.900          25.600
 109844174.142 8  85593000.64146  20902650.453
  20902655.016          51.200          41.100
 125083272.511 6  97467518.79543  23802549.922
  23802555.789          41.700          22.600
 115132627.957 8  89713880.84346  21908987.453
  21908992.902          50.100          38.800
 108856654.849 8  84823484.41546  20714711.813
  20714715.672          49.300          41.600
 133046622.032 5 103672757.01743  25317935.055
  25317941.266          35.500          20.600
 107508303.787 7  83772725.13246  20458096.672
  20458100.324          47.600          40.600
 119429583.706 8  93062081.19345  22726684.070
  22726686.184          49.200          35.500
 131758247.063 6 102668652.44043  25072729.258
  25072734.293          40.800          19.300
 11 11 22  0 39 30.0000000  0 10G03G06G09G14G15G18G19G21G22G26
 127944384.043 7  99697011.60643  24346999.609
  24347007.711          42.000          22.600
 127978870.323 6  99723792.12044  24353530.945
  24353537.141          41.600          24.400
 109796399.228 8  85555773.47146  20893558.688
  20893563.855          51.100          41.100
 124996020.529 7  97399530.29043  23785946.547
  23785951.988          42.400          22.600
 115209360.247 8  89773672.22846  21923589.852
  21923594.660          49.300          39.400
 108828955.492 8  84801900.51746  20709440.844
  20709444.738          48.900          41.600
 133007352.806 5 103642157.71043  25310462.156
  25310468.766          34.400          20.900
 107529566.614 7  83789293.56646  20462142.367
  20462146.648          44.900          39.900
 119356325.938 8  93004997.27345  22712742.805
  22712745.344          48.300          35.400
 131872779.933 6 102757898.83443  25094523.414
  25094529.582          38.700          20.900
 11 11 22  0 40  0.0000000  0 10G03G06G09G14G15G18G19G21G22G26
 127974032.096 6  99720114.04443  24352641.477
  24352648.637          39.400          22.200
 128009275.126 6  99747484.20043  24359316.594
  24359323.570          41.000          23.400
 109749237.727 8  85519024.28546  20884584.203
  20884589.301          50.800          41.600
 124908967.612 7  97331696.90144  23769380.914
  23769386.281          42.600          24.700
 115286273.725 8  89833604.81346  21938225.492
  21938230.340          49.100          38.800
 108801476.315 8  84780488.18846  20704211.766
  20704215.363          48.600          41.200
 132968566.795 6 103611934.98543  25303081.508
  25303087.875          36.700          22.200
 107551397.626 8  83806304.74046  20466296.914
  20466300.801          48.300          40.500
 119283147.266 7  92947975.00045  22698817.734
  22698819.738          47.300          35.300
 131987269.464 6 102847111.42043  25116309.766
  25116316.441          38.400          20.100
 11 11 22  0 40 30.0000000  0 10G03G06G09G14G15G18G19G21G22G26
 128004143.227 6  99743577.30043  24358371.727
  24358379.445          39.900          22.600
 128040086.676 6  99771493.22444  24365179.258
  24365186.789          41.400          25.500
 109702691.371 8  85482754.42746  20875726.703
  20875731.906          50.800          41.400
 124822114.635 6  97264019.30743  23752852.914
  23752858.613          41.400          23.900
 115363366.858 8  89893677.38646  21952896.063
  21952900.852          48.800          39.400
 108774218.183 8  84759248.10246  20699024.672
  20699028.559          49.400          41.700
 132930264.983 6 103582089.53843  25295793.047
  25295799.504          37.200          20.100
 107573796.763 7  83823758.61146  20470558.969
  20470563.125          45.900          40.300
 119210047.797 7  92891014.44645  22684907.180
  22684910.066          47.500          35.500
 132101714.065 6 102936289.03743  25138087.641
  25138094.035          36.100          18.600
 11 11 22  0 41  0.0000000  0 10G03G06G09G14G15G18G19G21G22G26
 128034715.861 6  99767400.12343  24364189.750
  24364197.246          39.400          22.500
 128071303.071 7  99795817.71944  24371119.867
  24371126.848          42.200          27.600
 109656762.628 8  85446965.83046  20866986.820
  20866991.633          50.100          41.200
 124735462.432 6  97196498.16143  23736363.688
  23736368.734          41.300          23.200
 115440637.843 8  89953888.53546  21967600.367
  21967604.461          48.000          38.800
 108747182.907 8  84738181.66746  20693880.016
  20693883.809          49.500          41.800
 132892448.749 6 103552622.45443  25288597.758
  25288602.480          40.500          22.600
 107596763.919 8  83841655.09046  20474929.742
  20474933.465          48.600          40.800
 119137028.818 7  92834116.60745  22671011.633
  22671014.961          46.600          35.000
 132216112.393 5 103025430.52242  25159857.336
  25159863.367          35.500          16.900
 11 11 22  0 41 30.0000000  0 10G03G06G09G14G15G18G19G21G22G26
 128065747.890 6  99791581.00943  24370095.281
  24370101.926          40.300          22.000
 128102922.533 7  99820456.28544  24377137.500
  24377143.633          43.200          26.000
 109611453.409 8  85411659.97246  20858364.313
  20858369.527          50.800          41.300
 124649011.823 6  97129134.09543  23719912.398
  23719918.523          40.800          23.500
 115518084.979 8  90014236.95946  21982337.648
  21982342.496          48.100          38.500
 108720370.758 8  84717289.09946  20688777.875
  20688781.535          49.800          41.600
 132855119.126 6 103523534.53243  25281493.539
  25281499.191          39.300          22.600
 107620298.857 7  83859994.00046  20479408.898
  20479412.590          47.900          40.300
 119064090.686 7  92777281.78045  22657131.664
  22657134.723          46.100          34.800
 132330462.576 5 103114534.58842  25181616.164
  25181624.043          33.400          15.600
 11 11 22  0 42  0.0000000  0 10G03G06G09G14G15G18G19G21G22G26
 128097237.692 6  99816118.51343  24376086.219
  24376093.586          39.800          20.900
 128134943.482 7  99845407.71444  24383230.172
  24383237.473          42.300          27.500
 109566765.790 8  85376838.48846  20849860.945
  20849866.191          49.800          41.900
 124562763.614 6  97061927.75544  23703499.438
  23703505.703          40.600          24.000
 115595706.704 7  90074721.41946  21997108.391
  21997113.473          47.900          38.600
 108693783.329 8  84696571.64047  20683718.445
  20683722.590          49.300          42.000
 132818277.264 6 103494826.72943  25274481.984
  25274488.117          39.300          22.200
 107644401.684 7  83878775.42146  20483995.016
  20483998.844          44.600          40.300
 118991234.972 7  92720511.15446  22643268.156
  22643270.699          46.400          36.000
 132444763.669 5 103203600.30542  25203367.289
  25203374.863          35.200          16.900
 11 11 22  0 42 30.0000000  0 10G03G06G09G14G15G18G19G21G22G26
 128129182.778 6  99841010.83643  24382165.891
  24382172.762          38.400          19.300
 128167363.709 7  99870670.23244  24389399.844
  24389406.809          43.200          27.800
 109522701.460 8  85342502.66846  20841475.727
  20841480.762          50.800          41.300
 124476718.596 6  96994879.73544  23687125.688
  23687131.715          41.500          25.300
 115673500.780 7  90135340.18946  22011912.438
  22011917.320          47.500          38.200
 108667421.483 8  84676029.94847  20678701.813
  20678705.676          49.700          42.000
 132781924.198 6 103466499.75243  25267564.031
  25267570.414          40.600          22.800
 107669071.825 8  83897998.90346  20488689.492
  20488693.848          48.900          39.900
 118918462.187 8  92663805.13445  22629419.727
  22629422.168          48.400          35.200
 132559013.387 6 103292626.01542  25225108.875
  25225115.898          36.200          14.800
 11 11 22  0 43  0.0000000  0 10G03G06G09G14G15G18G19G21G22G26
 128161581.122 6  99866256.33043  24388330.453
  24388338.730          39.400          20.400
 128200181.142 7  99896242.30244  24395644.805
  24395650.875          43.600          27.500
 109479262.042 8  85308653.80646  20833209.602
  20833214.625          51.100          41.800
 124390877.529 7  96927990.64144  23670791.094
  23670796.645          42.900          25.700
 115751465.397 7  90196091.83646  22026748.711
  22026753.109          47.800          37.900
 108641285.775 8  84655664.48046  20673728.516
  20673732.547          50.200          41.200
 132746060.136 6 103438553.92843  25260739.516
  25260745.277          38.700          22.800
 107694308.617 7  83917663.93446  20493491.797
  20493495.730          44.900          40.500
 118845772.520 8  92607163.87845  22615587.656
  22615589.730          48.700          35.800
 132673210.340 6 103381610.66142  25246840.219
  25246847.043          36.100          17.400
 11 11 22  0 43 30.0000000  0 10G03G06G09G14G15G18G19G21G22G26
 128194431.060 6  99891853.73643  24394581.695
  24394589.453          38.600          20.100
 128233393.847 7  99922122.37744  24401964.586
  24401971.328          43.700          27.600
 109436449.399 8  85275293.32947  20825062.672
  20825067.641          50.900          42.200
 124305241.122 7  96861261.01744  23654494.766
  23654500.359          42.100          26.000
 115829598.836 7  90256975.03746  22041617.156
  22041621.398          47.900          37.600
 108615377.397 8  84635476.14946  20668798.203
  20668802.031          50.000          41.700
 132710686.303 6 103410990.00143  25254008.172
  25254014.148          40.500          22.500
 107720111.878 8  83937770.36246  20498402.250
  20498406.004          48.500          39.700
 118773167.058 7  92550588.23945  22601771.320
  22601773.086          47.900          35.800
 132787352.735 6 103470552.83742  25268561.336
  25268567.496          38.100          15.600
 11 11 22  0 44  0.0000000  0 10G03G06G09G14G15G18G19G21G22G26
 128227730.351 6  99917801.25343  24400918.664
  24400925.852          40.100          20.600
 128266999.932 7  99948308.93444  24408360.336
  24408366.527          43.400          28.300
 109394265.349 8  85242422.66847  20817034.938
  20817040.383          51.100          42.400
 124219810.206 6  96794691.55844  23638237.852
  23638243.793          41.000          24.100
 115907899.203 8  90317988.32346  22056516.945
  22056522.078          49.100          37.500
 108589697.337 8  84615465.72546  20663911.320
  20663915.000          50.000          41.100
 132675803.733 6 103383808.88643  25247369.914
  25247375.742          40.800          22.900
 107746481.571 7  83958318.17146  20503420.297
  20503423.965          47.200          40.200
 118700646.794 8  92494078.96545  22587970.977
  22587973.012          48.600          35.500
 132901439.440 6 103559451.56042  25290270.516
  25290276.504          40.600          16.300
 11 11 22  0 44 30.0000000  0 10G03G06G09G14G15G18G19G21G22G26
 128261477.169 6  99944097.51343  24407340.773
  24407347.695          39.400          20.100
 128300997.442 7  99974800.53144  24414829.227
  24414835.648          44.100          28.100
 109352711.968 8  85210043.43846  20809127.828
  20809132.527          50.200          41.800
 124134585.409 6  96728282.66844  23622020.352
  23622025.754          41.700          25.600
 115986364.745 8  90379130.30446  22071448.984
  22071453.297          48.600          38.500
 108564246.614 8  84595634.00546  20659067.789
  20659072.004          49.600          40.900
 132641413.480 6 103357011.39143  25240825.664
  25240831.000          41.100          22.600
 107773417.338 7  83979307.07546  20508545.852
  20508549.777          44.300          40.800
 118628212.745 7  92437636.89345  22574187.156
  22574188.996          47.300          34.800
 133015468.632 6 103648305.63042  25311969.789
  25311975.977          40.500          17.400
 11 11 22  0 45  0.0000000  0 10G03G06G09G14G15G18G19G21G22G26
 128295669.378 6  99970740.85343  24413846.977
  24413854.648          38.700          20.100
 128335384.545 7 100001595.72044  24421372.820
  24421380.012          44.500          27.900
 109311790.832 8  85178156.87147  20801340.758
  20801346.066          51.700          42.200
 124049567.856 7  96662035.27444  23605842.063
  23605847.375          43.600          25.800
 116064993.677 8  90440399.59946  22086411.305
  22086416.031          49.600          38.900
 108539026.491 8  84575981.97346  20654269.023
  20654273.035          50.000          41.600
 132607516.111 6 103330597.94443  25234375.734
  25234381.066          41.600          22.500
 107800918.490 8  84000736.54246  20513779.289
  20513783.105          48.300          40.200
 118555864.907 7  92381262.01246  22560419.297
  22560421.992          47.000          36.100
 133129438.998 6 103737113.77443  25333657.563
  25333663.793          41.700          19.000
 11 11 22  0 45 30.0000000  0 10G03G06G09G14G15G18G19G21G22G26
 128330304.561 6  99997729.35443  24420437.219
  24420444.656          39.900          19.000
 128370159.222 7 100028692.88844  24427990.516
  24427997.066          45.000          28.400
 109271503.848 8  85146764.44446  20793674.281
  20793679.367          50.200          41.800
 123964757.961 7  96595949.70944  23589702.836
  23589708.504          43.700          27.400
 116143784.202 8  90501794.80946  22101404.750
  22101409.254          49.100          38.300
 108514037.714 8  84556510.21446  20649513.836
  20649517.574          49.300          41.000
 132574112.580 6 103304569.29843  25228018.250
  25228025.008          41.800          22.600
 107828984.827 7  84022606.41146  20519120.055
  20519123.934          44.900          40.200
 118483604.669 7  92324955.39345  22546668.867
  22546670.996          46.400          35.600
 133243348.948 6 103825874.82742  25355333.055
  25355340.430          38.700          16.900
 11 11 22  0 46  0.0000000  0 10G03G06G09G14G15G18G19G21G22G26
 128365380.869 6 100025061.55343  24427112.117
  24427120.496          39.400          20.100
 128405319.126 7 100056090.23944  24434681.234
  24434688.164          45.000          29.600
 109231852.540 8  85115867.34046  20786128.719
  20786133.777          50.300          41.700
 123880156.545 7  96530026.56744  23573603.813
  23573609.109          44.100          26.200
 116222734.512 7  90563314.53246  22116428.016
  22116432.980          47.300          38.100
 108489281.058 8  84537219.32146  20644803.023
  20644806.555          50.000          40.900
 132541203.740 7 103278926.11343  25221755.602
  25221762.020          42.100          22.000
 107857615.646 8  84044916.13146  20524568.672
  20524572.004          48.000          40.000
 118411432.671 7  92268717.51546  22532934.695
  22532938.086          47.600          36.000
 133357197.148 6 103914587.66442  25376997.984
  25377004.906          37.000          15.600
 11 11 22  0 46 30.0000000  0 10G03G06G09G14G15G18G19G21G22G26
 128400896.028 6 100052735.71743  24433871.047
  24433878.031          40.200          19.300
 128440862.547 7 100083786.44044  24441444.383
  24441451.574          45.400          29.900
 109192838.503 8  85085466.82047  20778704.938
  20778709.820          49.700          42.000
 123795764.063 7  96464266.22744  23557544.430
  23557550.000          44.400          26.800
 116301842.920 7  90624957.44646  22131482.125
  22131486.832          47.600          39.000
 108464757.620 8  84518110.16646  20640136.109
  20640140.133          49.800          41.100
 132508790.366 6 103253669.01543  25215588.758
  25215593.832          41.400          22.300
 107886810.632 8  84067665.46246  20530124.266
  20530127.488          48.000          40.500
 118339349.841 7  92212549.11745  22519217.914
  22519220.727          47.100          35.700
 133470982.055 6 104003251.26243  25398651.102
  25398657.254          38.400          19.300
 11 11 22  0 47  0.0000000  0 10G03G06G09G14G15G18G19G21G22G26
 128436848.356 6 100080750.56843  24440712.313
  24440719.957          41.300          22.500
 128476787.571 7 100111779.98545  24448281.406
  24448288.223          44.900          30.700
 109154463.651 8  85055564.36247  20771402.359
  20771407.281          50.600          42.100
 123711581.912 7  96398669.76443  23541524.844
  23541529.855          42.800          23.200
 116381107.720 7  90686722.21646  22146565.352
  22146570.551          47.500          38.300
 108440468.914 8  84499183.91946  20635514.063
  20635517.875          49.200          41.700
 132476873.361 7 103228798.73843  25209514.531
  25209519.906          43.600          22.500
 107916569.464 8  84090854.15646  20535787.070
  20535790.766          48.400          40.200
 118267357.096 8  92156450.90546  22505518.172
  22505520.586          48.100          36.100
 133584702.429 5 104091864.56042  25420290.195
  25420297.793          34.800          17.800
 11 11 22  0 47 30.0000000  0 10G03G06G09G14G15G18G19G21G22G26
 128473235.581 6 100109104.23643  24447636.453
  24447643.738          39.800          19.600
 128513091.933 7 100140069.12044  24455189.195
  24455196.746          44.600          29.500
 109116729.499 8  85026161.14847  20764221.750
  20764226.449          50.400          42.100
 123627610.684 7  96333237.71744  23525545.969
  23525551.523          43.000          26.000
 116460527.314 7  90748607.60446  22161678.305
  22161683.457          47.300          37.900
 108416415.770 8  84480441.21746  20630936.914
  20630940.523          49.500          41.400
 132445453.644 6 103204315.95543  25203534.984
  25203540.672          41.100          21.700
 107946891.726 7  84114481.88546  20541557.141
  20541560.938          46.100          39.600
 118195455.381 8  92100423.62846  22491835.680
  22491838.102          48.000          36.000
 133698356.726 5 104180426.25742  25441917.625
  25441925.570          32.500          15.600
 11 11 22  0 48  0.0000000  0  9G03G06G09G14G15G18G19G21G22
 128510055.060 6 100137794.80243  24454641.922
  24454650.027          38.900          19.300
 128549773.418 7 100168652.09744  24462169.555
  24462176.695          45.000          29.100
 109079637.482 8  84997258.30246  20757163.383
  20757168.313          51.100          41.800
 123543851.096 7  96267970.54444  23509607.047
  23509612.871          42.400          26.500
 116540099.452 7  90810611.85746  22176820.930
  22176825.652          47.500          37.400
 108392598.884 8  84461882.61946  20626404.625
  20626408.500          49.100          41.800
 132414531.790 6 103180221.08343  25197651.836
  25197656.078          41.100          20.100
 107977776.329 7  84138547.79446  20547433.953
  20547438.203          47.800          40.200
 118123645.149 8  92044467.64045  22478170.789
  22478172.715          48.200          35.000
 11 11 22  0 48 30.0000000  0 10G03G06G09G14G15G18G19G21G22G26
 128547305.678 6 100166821.26643  24461731.531
  24461739.004          40.200          19.600
 128586830.874 6 100197528.07644  24469221.328
  24469227.777          41.500          28.800
 109043189.934 8  84968857.63847  20750227.500
  20750232.672          51.300          42.500
 123460303.928 7  96202868.92944  23493708.641
  23493714.188          42.000          26.900
 116619823.405 8  90872734.41546  22191991.516
  22191996.320          48.200          37.500
 108369020.025 8  84443509.49346  20621917.852
  20621921.789          49.000          41.000
 132384108.876 7 103156515.01543  25191861.773
  25191867.484          42.300          20.400
 108009223.700 7  84163052.23546  20553418.367
  20553422.199          47.800          40.100
 118051928.156 7  91988584.31546  22464523.563
  22464525.980          47.600          36.200
 133925459.900 5                  25485135.906
                        30.800
 11 11 22  0 49  0.0000000  0  9G03G06G09G14G15G18G19G21G22
 128584984.254 6 100196181.21543  24468902.211
  24468908.551          38.800          19.000
 128624260.917 7 100226694.34744  24476343.422
  24476350.348          43.500          26.400
 109007387.200 8  84940959.42447  20743414.594
  20743419.441          51.400          42.100
 123376969.076 6  96137932.78144  23477849.141
  23477855.539          41.300          24.500
 116699696.302 8  90934973.02846  22207190.875
  22207195.754          48.800          37.300
 108345679.229 8  84425321.87146  20617475.813
  20617480.020          48.900          41.400
 132354184.830 7 103133197.64343  25186167.602
  25186172.277          42.100          20.100
 108041232.206 7  84187993.91546  20559509.305
  20559513.266          47.600          40.200
 117980304.114 7  91932773.43445  22450893.383
  22450896.383          47.300          35.700
 11 11 22  0 49 30.0000000  0  9G03G06G09G14G15G18G19G21G22
 128623089.846 6 100225873.88543  24476152.992
  24476160.141          38.600          19.000
 128662063.067 6 100256150.58744  24483536.875
  24483544.570          41.600          26.500
 108972232.621 8  84913566.27247  20736724.734
  20736729.801          51.400          42.200
 123293848.856 7  96073163.84744  23462032.836
  23462038.391          42.200          25.900
 116779717.764 8  90997327.41046  22222418.344
  22222423.078          48.400          36.700
 108322578.915 8  84407321.63746  20613080.516
  20613084.094          48.700          41.200
 132324761.750 6 103110270.66743  25180568.617
  25180572.949          41.300          19.000
 108073802.752 7  84213373.55446  20565706.867
  20565711.418          44.500          40.300
 117908775.610 8  91877036.99046  22437282.227
  22437284.668          48.300          36.200
 11 11 22  0 50  0.0000000  0  9G03G06G09G14G15G18G19G21G22
 128661619.060 6 100255896.72143  24483484.586
  24483491.961          38.300          19.300
 128700234.296 6 100285894.42644  24490801.063
  24490808.191          41.700          25.000
 108937726.599 8  84886678.48647  20730158.414
  20730163.461          52.000          42.300
 123210942.986 7  96008561.97544  23446255.625
  23446261.684          43.200          27.400
 116859885.445 7  91059795.73846  22237673.852
  22237678.395          47.600          36.000
 108299719.527 8  84389509.13946  20608730.258
  20608734.164          48.200          41.400
 132295839.552 6 103087733.93943  25175065.078
  25175069.699          41.400          20.900
 108106933.633 7  84239189.81246  20572011.930
  20572015.852          47.300          40.400
 117837342.216 8  91821374.63746  22423688.945
  22423691.398          48.500          36.900
 11 11 22  0 50 30.0000000  0  9G03G06G09G14G15G18G19G21G22
 128700570.449 6 100286248.45243  24490896.352
  24490904.305          38.300          18.300
 128738772.796 6 100315924.42744  24498134.359
  24498141.445          40.600          26.200
 108903870.783 8  84860297.34947  20723715.906
  20723721.223          51.400          42.200
 123128252.526 7  95944127.92444  23430520.969
  23430526.113          43.300          25.900
 116940197.862 8  91122376.83046  22252957.211
  22252961.363          48.300          36.400
 108277102.354 8  84371885.37746  20604426.539
  20604430.371          48.800          41.700
 132267419.018 6 103065588.15843  25169656.086
  25169661.531          40.600          19.900
 108140624.707 8  84265442.58746  20578423.297
  20578427.668          49.200          40.100
 117766005.499 8  91765787.63846  22410114.109
  22410116.598          48.500          37.500
 11 11 22  0 51  0.0000000  0  9G03G06G09G14G15G18G19G21G22
 128739940.884 5 100316926.73343  24498388.102
  24498395.414          34.900          18.300
 128777675.602 6 100346238.32144  24505537.602
  24505544.875          40.600          24.700
 108870665.815 8  84834423.36647  20717397.125
  20717401.969          51.500          42.600
 123045777.029 7  95879861.35544  23414826.648
  23414831.699          42.400          27.400
 117020652.645 8  91185068.88546  22268266.859
  22268271.352          48.600          36.200
 108254727.273 8  84354450.25546  20600168.461
  20600172.172          48.400          41.700
 132239499.936 6 103043833.10343  25164342.656
  25164348.508          41.100          20.900
 108174874.463 7  84292130.70146  20584940.773
  20584944.738          47.000          40.000
 117694765.333 8  91710275.85246  22396557.586
  22396560.156          48.600          36.700
 11 11 22  0 51 30.0000000  0  9G03G06G09G14G15G18G19G21G22
 128779728.409 5 100347930.01742  24505960.445
  24505966.879          35.500          17.800
 128816940.917 6 100376834.67743  24513008.625
  24513016.559          38.600          22.600
 108838113.625 8  84809058.04846  20711202.820
  20711207.824          49.900          41.700
 122963517.929 7  95815763.44044  23399172.922
  23399178.160          43.000          27.400
 117101248.050 8  91247870.48746  22283603.680
  22283608.289          48.500          37.000
 108232595.905 8  84337205.04046  20595957.055
  20595961.043          48.200          41.800
 132212083.700 6 103022469.90743  25159126.578
  25159130.852          39.500          20.100
 108209682.661 8  84319253.96346  20591564.508
  20591568.395          48.100          40.000
 117623623.303 8  91654840.55346  22383019.953
  22383022.215          48.600          37.100
 11 11 22  0 52  0.0000000  0  9G03G06G09G14G15G18G19G21G22
 128819930.486 6 100379256.35042  24513610.195
  24513617.016          37.700          17.800
 128856566.714 5 100407711.89343  24520549.313
  24520557.422          35.500          21.300
 108806215.480 8  84784202.37746  20705132.813
  20705137.680          50.600          41.800
 122881475.800 7  95751834.57544  23383561.320
  23383566.031          42.500          26.000
 117181982.585 7  91310780.51646  22298967.305
  22298971.613          47.600          37.300
 108210709.374 8  84320150.60646  20591792.383
  20591795.875          48.900          41.200
 132185170.431 6 103001498.57143  25154004.586
  25154010.027          39.700          20.100
 108245048.451 7  84346811.70646  20598294.531
  20598298.449          47.300          40.100
 117552579.883 7  91599482.07646  22369500.328
  22369503.063          47.700          36.300
 11 11 22  0 52 30.0000000  0  9G03G06G09G14G15G18G19G21G22
 128860544.973 5 100410904.01542  24521338.547
  24521346.184          34.300          16.900
 128896550.465 6 100438868.01343  24528157.906
  24528165.246          38.100          21.100
 108774972.524 8  84759857.24246  20699187.258
  20699191.828          51.800          41.800
 122799651.217 6  95688075.24944  23367989.211
  23367994.879          41.400          26.700
 117262854.552 8  91373797.62846  22314356.383
  22314361.645          48.100          36.700
 108189068.415 8  84303287.53146  20587673.883
  20587677.707          48.600          41.700
 132158760.555 6 102980919.54243  25148979.438
  25148984.145          38.300          19.300
 108280970.860 8  84374803.18746  20605129.930
  20605133.961          48.100          40.000
 117481636.077 8  91544201.24246  22355999.836
  22356002.059          48.100          36.100
 11 11 22  0 53  0.0000000  0  9G03G06G09G14G15G18G19G21G22
 128901569.605 6 100442871.30242  24529145.367
  24529152.594          38.300          17.800
 128936890.058 5 100470301.46643  24535833.883
  24535841.898          34.600          18.600
 108744386.253 8  84736023.80246  20693366.805
  20693371.980          50.700          41.600
 122718044.444 7  95624485.62944  23352460.609
  23352466.145          43.000          26.400
 117343862.268 7  91436920.50846  22329772.156
  22329776.715          47.800          37.300
 108167674.102 8  84286616.64646  20583602.883
  20583606.492          48.800          41.400
 132132855.042 6 102960733.55543  25144049.117
  25144054.000          39.800          21.700
 108317448.926 7  84403227.63946  20612072.102
  20612075.965          46.100          40.200
 117410792.750 8  91488998.70146  22342519.383
  22342521.227          48.000          36.300
 11 11 22  0 53 30.0000000  0  9G03G06G09G14G15G18G19G21G22
 128943002.204 6 100475156.49743  24537029.977
  24537037.102          37.400          18.300
 128977583.492 5 100502010.58443  24543578.375
  24543585.852          33.100          19.600
 108714458.064 8  84712703.16547  20687671.844
  20687676.285          51.100          42.100
 122636656.518 7  95561066.54544  23336972.391
  23336978.086          42.000          25.800
 117425004.164 8  91500147.96046  22345212.438
  22345217.523          48.000          37.800
 108146527.728 7  84270138.95646  20579578.828
  20579582.633          47.900          41.600
 132107454.353 6 102940940.88043  25139214.852
  25139220.473          39.100          20.600
 108354482.430 7  84432084.90446  20619118.859
  20619123.117          44.700          40.300
 117340051.020 8  91433875.31546  22329057.430
  22329059.188          48.500          36.900
 11 11 22  0 54  0.0000000  0  9G03G06G09G14G15G18G19G21G22
 128984840.399 6 100507757.73542  24544991.672
  24544998.348          37.900          17.800
 129018628.521 5 100533993.71843  24551389.445
  24551396.363          34.800          20.600
 108685189.005 8  84689896.12947  20682101.742
  20682106.867          51.000          42.100
 122555488.238 7  95497818.60044  23321526.805
  23321532.188          44.100          27.300
 117506278.761 7  91563478.79246  22360678.398
  22360683.301          47.900          37.300
 108125630.421 8  84253855.35246  20575602.227
  20575606.109          49.100          41.300
 132082558.943 6 102921541.93443  25134478.594
  25134483.512          38.700          21.500
 108392070.497 7  84461374.29446  20626271.461
  20626275.473          45.700          39.900
 117269411.993 8  91378831.94646  22315615.352
  22315617.520          48.500          37.500
 11 11 22  0 54 30.0000000  0  9G03G06G09G14G15G18G19G21G22
 129027081.683 5 100540672.99742  24553029.367
  24553037.074          34.300          17.400
 129060023.010 6 100566249.13343  24559266.727
  24559273.473          37.300          19.300
 108656580.597 8  84667603.88146  20676658.016
  20676662.926          51.200          41.800
 122474540.089 7  95434742.15044  23306123.492
  23306128.734          43.100          27.900
 117587684.036 8  91626911.47446  22376169.289
  22376174.488          48.100          36.900
 108104983.239 8  84237766.64346  20571672.961
  20571676.570          48.100          41.300
 132058169.138 6 102902536.94643  25129836.516
  25129841.785          37.200          20.600
 108430212.193 8  84491095.08346  20633529.758
  20633533.512          48.300          39.700
 117198876.336 8  91323869.13546  22302192.742
  22302195.199          48.900          36.500
 11 11 22  0 55  0.0000000  0  9G03G06G09G14G15G18G19G21G22
 129069723.754 6 100573900.59442  24561144.070
  24561151.578          37.300          16.300
 129101764.157 6 100598774.74143  24567209.914
  24567216.031          39.500          18.600
 108628633.822 8  84645827.19347  20671340.023
  20671344.906          50.800          42.000
 122393812.166 7  95371837.36444  23290760.719
  23290766.324          43.000          26.900
 117669218.760 8  91690445.00646  22391685.039
  22391689.887          48.000          37.100
 108084586.942 8  84221873.43446  20567791.852
  20567795.770          48.500          41.500
 132034285.317 6 102883926.29143  25125291.930
  25125297.805          36.600          21.500
 108468906.457 8  84521246.44846  20640893.156
  20640897.121          49.600          39.600
 117128444.920 8  91268987.54946  22288789.711
  22288792.137          48.700          36.700
 11 11 22  0 55 30.0000000  0  9G03G06G09G14G15G18G19G21G22
 129112764.399 6 100607438.85642  24569334.438
  24569341.344          37.000          16.900
 129143850.211 6 100631569.13643  24575218.992
  24575224.223          41.300          20.100
 108601349.748 8  84624566.90646  20666147.586
  20666153.090          51.700          41.800
 122313305.632 7  95309105.05944  23275441.164
  23275445.598          43.100          27.500
 117750880.938 7  91754077.88146  22407224.555
  22407229.715          47.500          36.600
 108064442.619 8  84206176.56446  20563958.648
  20563962.793          48.800          40.900
 132010908.026 6 102865710.30943  25120842.867
  25120848.254          38.400          20.400
 108508152.485 7  84551827.75346  20648361.023
  20648365.133          47.600          39.700
 117058118.611 8  91214187.87546  22275406.977
  22275409.488          48.200          37.100
 11 11 22  0 56  0.0000000  0  9G03G06G09G14G15G18G19G21G22
 129156201.101 6 100641285.66142  24577599.664
  24577606.930          38.800          17.800
 129186278.804 6 100664630.39743  24583292.289
  24583297.980          40.200          20.600
 108574729.767 8  84603824.08347  20661081.992
  20661087.004          51.000          42.200
 122233021.064 6  95246545.71644  23260162.734
  23260168.293          41.700          27.300
 117832669.200 7  91817808.98946  22422788.609
  22422793.113          47.900          36.900
 108044551.516 8  84190677.01346  20560173.508
  20560177.078          49.100          41.800
 131988037.714 6 102847889.39943  25116491.016
  25116496.270          37.300          19.900
 108547949.404 8  84582838.32846  20655934.430
  20655938.523          48.000          39.400
 116987898.829 8  91159471.20446  22262044.898
  22262047.410          48.000          37.500
 11 11 22  0 56 30.0000000  0  9G03G06G09G14G15G18G19G21G22
 129200031.642 6 100675439.36642  24585940.672
  24585947.758          38.700          17.400
 129229048.156 6 100697957.18843  24591431.016
  24591437.340          39.500          21.300
 108548775.267 8  84583599.82346  20656143.227
  20656147.613          51.000          41.600
 122152959.227 7  95184159.93644  23244927.773
  23244933.344          43.400          26.900
 117914582.200 7  91881637.28846  22438376.523
  22438381.020          47.900          37.100
 108024915.254 8  84175376.03146  20556436.914
  20556440.344          49.000          41.200
 131965675.211 5 102830464.14443  25112234.797
  25112240.492          33.800          21.100
 108588296.683 7  84614277.75346  20663612.445
  20663616.484          46.800          39.400
 116917786.715 8  91104838.42946  22248702.750
  22248705.094          48.400          37.500
 11 11 22  0 57  0.0000000  0  9G03G06G09G14G15G18G19G21G22
 129244254.122 5 100709898.52342  24594355.883
  24594362.492          35.800          14.800
 129272155.752 6 100731547.58343  24599634.648
  24599639.961          40.900          20.900
 108523487.114 8  84563894.78947  20651331.328
  20651335.832          51.700          42.400
 122073120.715 7  95121948.14844  23229735.258
  23229740.180          44.100          28.900
 117996618.175 7  91945561.43146  22453987.461
  22453992.172          47.400          36.100
 108005534.522 8  84160274.16547  20552748.602
  20552752.887          48.700          42.000
 131943820.858 5 102813434.83843  25108076.438
  25108081.902          33.900          20.900
 108629193.263 8  84646145.20246  20671394.844
  20671398.895          48.300          39.500
 116847783.023 8  91050290.13046  22235382.016
  22235383.988          49.200          37.500
 11 11 22  0 57 30.0000000  0  9G03G06G09G14G15G18G19G21G22
 129288865.387 6 100744660.54642  24602845.234
  24602852.758          39.200          17.800
 129315599.226 7 100765399.70143  24607901.117
  24607907.023          43.400          22.600
 108498866.061 8  84544709.57046  20646645.930
  20646650.656          51.900          41.600
 121993505.878 7  95059910.65344  23214584.914
  23214590.277          42.600          28.100
 118078775.379 7  92009580.03545  22469621.125
  22469625.871          46.900          35.900
 107986410.025 8  84145371.96746  20549109.375
  20549113.156          48.300          41.200
 131922474.474 6 102796801.39143  25104013.805
  25104019.602          36.900          22.000
 108670638.253 7  84678439.98646  20679281.477
  20679285.355          47.000          40.200
 116777888.710 8  90995827.06346  22222081.633
  22222083.277          48.400          37.900
 11 11 22  0 58  0.0000000  0  9G03G06G09G14G15G18G19G21G22
 129333863.009 6 100779723.68643  24611408.422
  24611415.148          40.600          18.300
 129359376.037 7 100799511.52743  24616231.867
  24616238.363          43.800          22.000
 108474913.139 8  84526044.97946  20642087.594
  20642092.852          52.000          41.600
 121914115.096 7  94998047.76544  23199477.266
  23199482.293          42.800          26.000
 118161052.312 7  92073691.92246  22485277.672
  22485282.410          46.500          36.300
 107967543.246 7  84130670.58846  20545519.219
  20545523.176          47.900          41.600
 131901636.691 6 102780564.25743  25100048.430
  25100054.742          36.900          22.500
 108712630.391 7  84711161.11946  20687272.164
  20687276.293          47.000          39.500
 116708104.601 8  90941449.86446  22208801.828
  22208804.145          48.500          37.800
 11 11 22  0 58 30.0000000  0  9G03G06G09G14G15G18G19G21G22
 129379244.523 6 100815085.93843  24620043.320
  24620051.043          38.400          18.300
 129403484.096 7 100833881.44644  24624626.328
  24624631.441          43.600          25.700
 108451629.516 8  84507901.91446  20637657.125
  20637661.738          50.800          41.800
 121834948.958 7  94936359.90344  23184412.563
  23184417.434          42.400          28.200
 118243447.174 7  92137895.71246  22500956.680
  22500961.766          46.100          36.400
 107948934.663 7  84116170.40746  20541978.039
  20541981.801          47.500          40.800
 131881307.683 5 102764723.57743  25096180.813
  25096186.164          34.300          22.900
 108755168.478 8  84744307.66246  20695366.898
  20695370.879          49.000          40.000
 116638431.744 8  90887159.35346  22195543.406
  22195545.535          48.600          37.300
 11 11 22  0 59  0.0000000  0  9G03G06G09G14G15G18G19G21G22
 129425007.749 6 100850745.58143  24628754.070
  24628759.520          37.800          20.600
 129447920.857 6 100868507.51644  24633081.695
  24633087.836          41.600          25.700
 108429016.052 8  84490281.05947  20633353.648
  20633358.520          51.100          42.200
 121756008.327 7  94874847.74544  23169391.047
  23169395.500          42.800          27.700
 118325958.468 7  92202190.22045  22516658.719
  22516663.273          47.300          35.700
 107930585.772 8  84101872.57446  20538486.219
  20538490.430          48.800          41.700
 131861487.927 5 102749279.67443  25092408.547
  25092414.449          34.100          22.200
 108798251.389 7  84777878.74946  20703565.242
  20703569.473          47.200          39.500
 116568871.106 8  90832956.30046  22182306.617
  22182308.844          48.400          38.100
 11 11 22  0 59 30.0000000  0  9G03G06G09G14G15G18G19G21G22
 129471149.918 6 100886700.60743  24637533.367
  24637540.086          38.100          21.500
 129492684.482 6 100903388.26444  24641599.578
  24641606.594          40.800          24.600
 108407074.092 8  84473183.44946  20629178.344
  20629183.383          51.600          41.900
 121677293.604 7  94813511.63644  23154411.898
  23154417.008          43.200          29.400
 118408584.996 7  92266574.52046  22532381.695
  22532386.734          46.700          36.200
 107912498.156 7  84087778.33646  20535044.867
  20535048.434          47.900          41.500
 131842177.665 5 102734232.80543  25088733.891
  25088739.418          34.200          22.500
 108841878.675 7  84811874.01746  20711867.742
  20711871.895          47.900          40.200
 116499424.056 8  90778841.75246  22169091.297
  22169093.453          48.700          38.000
 11 11 22  1  0  0.0000000  4  1
other post-header comments skipped                          COMMENT
 11 11 22  1  0  0.0000000  0  9G03G06G09G14G15G18G19G21G22
 129517668.826 6 100922949.10043  24646384.992
  24646391.563          39.400          20.100
 129537772.320 6 100938521.66243  24650179.523
  24650186.086          41.600          23.600
 108385804.111 8  84456609.45947  20625130.602
  20625135.617          48.900          42.200
 121598805.443 6  94752352.09244  23139475.813
  23139481.352          41.700          29.400
 118491325.024 7  92331047.26445  22548126.555
  22548131.516          46.700          35.900
 107894672.433 7  84073888.17046  20531652.102
  20531655.867          44.900          41.500
 131823377.194 6 102719583.15243  25085156.141
  25085161.945          37.700          22.300
 108886048.948 7  84846292.39746  20720272.977
  20720276.930          47.700          39.600
 116430091.449 8  90724816.37746  22155897.484
  22155899.926          48.700          37.300
 11 11 22  1  0 30.0000000  0  9G03G06G09G14G15G18G19G21G22
 129564561.471 6 100959488.80443  24655308.883
  24655315.699          38.900          21.500
 129583181.888 6 100973905.75344  24658820.273
  24658826.773          41.900          24.000
 108365207.216 8  84440559.94746  20621211.219
  20621216.066          51.700          41.700
 121520544.277 6  94691369.40144  23124582.945
  23124588.160          40.300          27.800
 118574176.793 8  92395607.08346  22563892.617
  22563897.773          48.000          36.500
 107877109.487 8  84060202.76347  20528310.203
  20528313.941          48.500          42.000
 131805086.402 6 102705330.70443  25081676.016
  25081681.340          37.900          21.500
 108930760.841 8  84881132.81546  20728781.094
  20728785.137          48.300          39.800
 116360874.262 8  90670880.93746  22142725.906
  22142728.090          49.100          37.400
 11 11 22  1  1  0.0000000  0  9G03G06G09G14G15G18G19G21G22
 129611825.828 6 100996318.20243  24664302.789
  24664309.926          37.000          20.400
 129628911.007 6 101009538.82144  24667522.914
  24667529.387          41.400          25.200
 108345284.210 8  84425035.54847  20617419.977
  20617424.844          50.300          42.400
 121442510.723 7  94630564.09944  23109733.734
  23109739.027          43.600          28.900
 118657138.806 7  92460252.79046  22579680.211
  22579685.129          47.600          36.100
 107859810.605 7  84046723.12446  20525018.531
  20525022.422          46.400          41.700
 131787305.710 6 102691475.70143  25078291.469
  25078297.246          38.600          22.900
 108976013.601 7  84916394.68746  20737392.594
  20737396.359          45.500          39.200
 116291773.416 8  90617036.14746  22129576.641
  22129577.953          48.700          37.400
 11 11 22  1  1 30.0000000  0  9G03G06G09G14G15G18G19G21G22
 129659458.898 6 101033434.90143  24673366.617
  24673374.074          37.700          19.600
 129674957.072 6 101045418.85944  24676284.438
  24676291.898          40.900          24.800
 108326035.646 8  84410036.68147  20613757.313
  20613761.980          51.900          42.200
 121364704.962 7  94569936.26744  23094927.680
  23094933.012          44.300          29.600
 118740209.842 7  92524983.45846  22595487.859
  22595492.883          47.500          36.000
 107842776.561 7  84033449.84846  20521776.914
  20521780.871          47.900          41.300
 131770035.237 6 102678018.26344  25075005.891
  25075011.512          38.900          24.700
 109021805.826 7  84952076.92146  20746106.594
  20746110.656          47.600          39.900
 116222790.163 7  90563282.98846  22116449.383
  22116451.352          47.300          37.900
 11 11 22  1  2  0.0000000  0  9G03G06G09G14G15G18G19G21G22
 129707458.741 6 101070837.39443  24682501.336
  24682507.926          40.100          19.900
 129721317.788 6 101081544.08743  24685106.773
  24685113.762          38.300          22.800
 108307462.358 8  84395564.01347  20610222.875
  20610227.453          52.100          42.500
 121287127.712 7  94509486.47644  23080165.430
  23080170.148          44.500          28.600
 118823387.974 7  92589797.57546  22611316.367
  22611321.082          47.000          36.300
 107826008.515 8  84020383.84746  20518586.102
  20518589.723          48.400          41.600
 131753274.900 6 102664958.29643  25071816.086
  25071821.719          38.300          22.900
 109068136.342 8  84988178.60746  20754923.352
  20754926.773          48.600          39.100
 116153925.142 8  90509621.96346  22103344.781
  22103347.027          48.100          37.100
 11 11 22  1  2 30.0000000  0  9G03G06G09G14G15G18G19G21G22
 129755822.461 6 101108523.44843  24691704.383
  24691711.023          39.900          19.600
 129767990.745 6 101117912.61943  24693987.633
  24693995.543          37.300          22.900
 108289565.165 8  84381618.17446  20606817.164
  20606821.719          52.000          41.800
 121209779.533 7  94449215.17844  23065446.789
  23065451.918          45.400          29.900
 118906671.928 7  92654694.15045  22627164.938
  22627169.504          47.600          35.100
 107809507.759 8  84007526.12346  20515446.086
  20515450.027          48.600          41.300
 131737024.937 6 102652296.06444  25068724.352
  25068729.258          41.000          26.200
 109115003.740 7  85024698.63746  20763841.383
  20763845.469          47.800          39.500
 116085179.425 7  90456053.89846  22090262.633
  22090265.039          47.500          37.800
 11 11 22  1  3  0.0000000  0  9G03G06G09G14G15G18G19G21G22
 129804547.486 6 101146491.06243  24700976.469
  24700982.820          40.500          19.600
 129814973.809 5 101154522.75443  24702928.359
  24702935.691          34.800          21.800
 108272344.957 8  84368199.85047  20603540.156
  20603544.855          52.300          42.300
 121132660.899 7  94389122.76444  23050771.133
  23050776.445          44.300          29.900
 118990060.229 7  92719672.04046  22643033.180
  22643037.785          47.400          36.300
 107793275.490 8  83994877.60946  20512357.172
  20512361.105          49.500          41.200
 131721285.798 6 102640031.86243  25065729.094
  25065734.176          39.600          23.500
 109162407.262 7  85061636.42646  20772862.195
  20772866.148          47.000          39.300
 116016554.495 7  90402579.96446  22077203.688
  22077206.211          47.800          38.400
 11 11 22  1  3 30.0000000  0  9G03G06G09G14G15G18G19G21G22
 129853631.452 6 101184738.29643  24710316.883
  24710323.316          40.900          21.100
 129862264.487 5 101191372.59443  24711926.891
  24711934.816          34.000          21.800
 108255802.022 8  84355309.26546  20600392.023
  20600396.516          52.100          41.600
 121055772.116 7  94329209.48245  23036139.734
  23036144.875          44.100          30.200
 119073551.383 7  92784730.07245  22658920.625
  22658925.703          47.000          35.300
 107777312.639 8  83982439.03246  20509319.156
  20509323.191          50.000          41.400
 131706057.421 6 102628165.66044  25062830.945
  25062836.566          39.400          25.700
 109210345.576 8  85098990.93946  20781984.578
  20781988.703          48.200          39.400
 115948051.398 7  90349200.96146  22064168.328
  22064170.348          47.500          37.900
 11 11 22  1  4  0.0000000  0  9G03G06G09G14G15G18G19G21G22
 129903071.803 6 101223263.24343  24719724.313
  24719732.016          39.800          19.000
 129909860.133 5 101228460.07043  24720985.203
  24720992.160          35.400          22.600
 108239937.411 8  84342947.25247  20597373.156
  20597377.813          51.900          42.500
 120979113.851 7  94269475.82144  23021551.898
  23021557.414          43.800          29.000
 119157143.804 7  92849867.00445  22674827.602
  22674832.480          46.400          35.000
 107761620.231 8  83970211.18746  20506333.430
  20506337.086          49.500          41.800
 131691339.916 6 102616697.53444  25060030.375
  25060035.121          37.200          24.700
 109258817.376 7  85136761.15446  20791208.281
  20791212.133          46.700          39.500
 115879671.225 8  90295917.73646  22051155.977
  22051158.109          48.100          38.400
 11 11 22  1  4 30.0000000  0  9G03G06G09G14G15G18G19G21G22
 129952866.092 6 101262064.03942  24729199.602
  24729206.727          38.100          17.400
 129957758.763 5 101265783.66843  24730099.273
  24730106.570          35.500          21.300
 108224751.830 8  84331114.35147  20594483.352
  20594488.352          51.900          42.400
 120902686.907 7  94209922.41944  23007008.531
  23007014.125          43.000          28.500
 119240836.168 7  92915081.81945  22690754.000
  22690758.578          46.300          34.600
 107746199.698 8  83958195.19546  20503398.961
  20503402.695          49.900          41.600
 131677133.517 6 102605627.70244  25057326.734
  25057331.891          38.300          24.700
 109307821.726 7  85174946.33946  20800533.648
  20800537.594          47.300          39.400
 115811415.115 7  90242731.18646  22038166.711
  22038169.582          47.500          38.600
 11 11 22  1  5  0.0000000  0  9G03G06G09G14G15G18G19G21G22
 130003011.486 6 101301138.37143  24738742.563
  24738750.234          38.500          20.100
 130005957.398 6 101303341.06343  24739272.063
  24739278.730          38.100          22.000
 108210245.357 8  84319810.62646  20591722.781
  20591727.586          50.900          41.900
 120826491.356 7  94150549.27645  22992509.297
  22992514.039          43.700          30.200
 119324626.844 7  92980373.24845  22706698.805
  22706703.504          44.900          35.000
 107731051.745 8  83946391.60446  20500516.945
  20500520.098          49.200          41.200
 131663437.755 6 102594955.72844  25054720.727
  25054725.926          40.800          26.100
 109357356.609 7  85213544.92846  20809960.016
  20809963.715          47.300          38.700
 115743283.843 8  90189641.91946  22025201.992
  22025204.246          48.300          38.400
 11 11 22  1  5 30.0000000  0  9G03G06G09G14G15G18G19G21G22
 130053505.097 6 101340484.06443  24748351.414
  24748358.352          39.400          19.900
 130054453.653 6 101341130.33844  24748500.648
  24748507.215          39.500          24.500
 108196418.800 8  84309036.70346  20589091.867
  20589096.520          51.500          41.700
 120750527.429 7  94091356.64244  22978053.859
  22978058.547          43.200          29.400
 119408514.450 7  93045740.18645  22722662.383
  22722666.840          45.600          34.400
 107716177.464 8  83934801.25446  20497685.867
  20497689.457          49.500          41.400
 131650252.801 6 102584681.76144  25052212.320
  25052217.293          39.600          25.800
 109407420.875 7  85252556.03146  20819487.141
  20819490.961          47.600          39.200
 115675278.311 7  90136650.61646  22012261.094
  22012263.094          47.500          37.900
 11 11 22  1  6  0.0000000  0  9G03G06G09G14G15G18G19G21G22
 130104344.556 6 101380099.23043  24758025.805
  24758033.289          39.700          20.900
 130103245.301 6 101379149.79743  24757785.609
  24757792.152          41.800          22.600
 108183272.831 8  84298793.10947  20586590.172
  20586594.598          50.900          42.400
 120674796.022 7  94032345.21845  22963642.336
  22963647.668          43.900          30.200
 119492497.405 7  93111181.44445  22738643.641
  22738648.211          44.700          34.400
 107701577.963 8  83923425.03346  20494907.711
  20494911.375          49.500          41.200
 131637578.641 6 102574805.86944  25049799.539
  25049804.570          40.600          26.900
 109458013.229 7  85291978.62946  20829114.313
  20829118.160          47.900          39.000
 115607399.990 8  90083758.45146  21999344.234
  21999346.617          48.900          38.000
 11 11 22  1  6 30.0000000  0  9G03G06G09G14G15G18G19G21G22
 130155527.439 6 101419981.96243  24767765.727
  24767771.887          39.200          22.000
 130152329.760 6 101417397.45743  24767125.477
  24767132.273          39.400          22.300
 108170807.707 8  84289080.04147  20584218.016
  20584222.520          50.700          42.600
 120599297.183 7  93973514.98344  22949276.000
  22949280.207          43.600          28.800
 119576574.263 7  93176695.86145  22754642.773
  22754647.695          45.000          34.200
 107687254.181 8  83912263.65046  20492181.930
  20492185.582          49.200          41.400
 131625415.165 6 102565327.89944  25047484.703
  25047490.320          37.200          25.300
 109509132.402 7  85331811.73446  20838842.281
  20838845.836          46.900          38.700
 115539650.062 8  90030966.32246  21986452.023
  21986454.266          48.400          37.700
 11 11 22  1  7  0.0000000  0  9G03G06G09G14G15G18G19G21G22
 130207050.743 6 101460130.01843  24777570.539
  24777577.242          39.500          21.700
 130201704.731 6 101455871.47143  24776521.273
  24776528.363          38.600          22.900
 108159024.132 8  84279898.05447  20581976.313
  20581980.523          49.700          42.200
 120524031.533 7  93914866.47244  22934952.766
  22934957.473          44.200          28.300
 119660743.799 7  93242282.51545  22770659.789
  22770664.742          44.800          34.700
 107673207.664 7  83901318.31847  20489508.875
  20489512.613          47.600          42.300
 131613762.455 6 102556247.92044  25045267.961
  25045272.914          39.100          25.800
 109560776.856 7  85372054.14246  20848669.656
  20848673.973          46.800          39.900
 115472029.594 8  89978275.07546  21973584.391
  21973586.195          48.900          38.100
 11 11 22  1  7 30.0000000  0  9G03G06G09G14G15G18G19G21G22
 130258912.409 6 101500541.71443  24787439.070
  24787446.699          39.200          22.900
 130251368.008 6 101494570.10643  24785971.922
  24785978.805          39.000          22.000
 108147922.801 8  84271247.68847  20579863.094
  20579868.031          49.900          42.300
 120448999.820 7  93856400.25444  22920674.656
  22920679.613          45.100          29.300
 119745004.663 7  93307940.32045  22786693.750
  22786699.301          44.100          34.600
 107659439.938 8  83890590.22746  20486889.055
  20486892.777          49.300          41.100
 131602620.687 6 102547566.09044  25043147.602
  25043152.246          41.300          26.500
 109612945.750 7  85412705.20946  20858597.297
  20858601.473          46.500          38.800
 115404540.043 7  89925685.83846  21960741.617
  21960743.512          47.700          38.200
 11 11 22  1  8  0.0000000  0  9G03G06G09G14G15G18G19G21G22
 130311109.419 6 101541214.68643  24797371.820
  24797379.289          41.100          22.600
 130301316.630 6 101533491.14043  24795477.313
  24795483.617          40.600          21.500
 108137503.739 7  84263128.95046  20577880.313
  20577885.410          47.900          41.600
 120374202.292 7  93798116.50244  22906441.188
  22906445.984          44.700          29.500
 119829355.217 7  93373667.99545  22802746.016
  22802750.359          44.900          34.800
 107645951.337 7  83880079.63546  20484322.391
  20484326.102          45.100          40.600
 131591989.548 6 102539282.11244  25041124.164
  25041129.527          39.800          27.700
 109665637.276 7  85453763.52546  20868623.555
  20868627.617          46.300          39.300
 115337182.154 7  89873199.19546  21947923.188
  21947925.168          47.300          37.700
 11 11 22  1  8 30.0000000  0  9G03G06G09G14G15G18G19G21G22
 130363638.774 6 101582146.66743  24807368.148
  24807374.219          40.000          22.600
 130351548.038 6 101572632.51843  24805035.352
  24805041.953          39.400          20.400
 108127767.360 8  84255542.17947  20576027.719
  20576032.547          49.700          42.300
 120299639.241 7  93740015.49145  22892252.453
  22892256.793          44.700          30.200
 119913794.079 7  93439464.50345  22818813.930
  22818818.926          45.700          35.600
 107632743.043 8  83869787.46446  20481808.844
  20481812.301          49.000          41.500
 131581868.758 6 102531395.81144  25039198.258
  25039203.570          38.300          26.700
 109718849.849 7  85495227.85146  20878749.938
  20878754.055          47.400          38.700
 115269956.863 7  89820815.86346  21935131.008
  21935132.660          47.000          38.400
 11 11 22  1  9  0.0000000  0  9G03G06G09G14G15G18G19G21G22
 130416498.248 6 101623335.86543  24817426.406
  24817433.480          39.000          23.200
 130402059.859 6 101611992.39843  24814648.016
  24814653.617          38.400          19.900
 108118714.043 8  84248487.66646  20574305.055
  20574309.637          49.600          41.800
 120225311.064 7  93682097.47145  22878108.063
  22878112.895          45.200          30.500
 119998320.068 7  93505328.89945  22834898.094
  22834903.324          44.900          34.900
 107619816.367 8  83859714.73746  20479349.070
  20479352.379          49.100          41.500
 131572258.146 6 102523907.09444  25037369.602
  25037374.730          39.100          25.100
 109772581.938 7  85537096.99246  20888974.906
  20888978.938          46.200          39.400
 115202865.507 7  89768536.91446  21922363.758
  21922366.203          47.300          38.100
 11 11 22  1  9 30.0000000  0  9G03G06G09G14G15G18G19G21G22
 130469685.253 6 101664780.25844  24827547.984
  24827554.621          40.900          24.200
 130452849.628 6 101651568.85243  24824313.125
  24824318.918          37.900          18.600
 108110343.918 8  84241965.50847  20572712.180
  20572716.426          49.300          42.000
 120151218.108 7  93624362.73544  22864008.328
  22864013.102          43.700          29.700
 120082931.513 7  93571259.87345  22850999.305
  22851004.445          45.600          34.000
 107607172.097 8  83849862.06846  20476942.633
  20476946.680          48.700          41.200
 131563157.711 6 102516815.88044  25035638.336
  25035641.984          40.300          25.600
 109826832.146 7  85579369.85846  20899298.398
  20899302.648          46.200          38.800
 115135909.277 7  89716363.24846  21909622.039
  21909624.355          46.800          38.600
 11 11 22  1 10  0.0000000  0  9G03G06G09G14G15G18G19G21G22
 130523196.814 6 101706477.60543  24837731.133
  24837737.926          40.900          23.900
 130503914.871 6 101691359.97943  24834030.078
  24834036.109          38.900          19.900
 108102657.541 8  84235976.13646  20571249.844
  20571254.289          49.900          41.800
 120077360.957 7  93566811.80445  22849953.289
  22849959.000          44.400          30.600
 120167627.045 7  93637256.37545  22867116.258
  22867121.645          45.100          34.500
 107594811.493 8  83840230.43446  20474590.648
  20474594.410          49.300          41.400
 131554567.088 6 102510121.91844  25034003.453
  25034007.973          39.500          25.300
 109881598.788 7  85622045.14746  20909719.836
  20909724.227          47.300          38.300
 115069089.294 8  89664295.74646  21896907.000
  21896909.422          48.200          38.900
 11 11 22  1 10 30.0000000  0  9G03G06G09G14G15G18G19G21G22
 130577030.162 6 101748425.64643  24847975.102
  24847981.906          38.600          23.600
 130555252.910 6 101731363.63443  24843798.445
  24843805.461          37.200          19.000
 108095655.019 8  84230519.64547  20569917.305
  20569921.699          48.900          42.000
 120003740.066 7  93509444.92444  22835944.344
  22835949.492          44.700          29.900
 120252405.269 7  93703317.31345  22883249.344
  22883254.633          45.300          35.500
 107582735.587 8  83830820.64846  20472292.453
  20472296.461          49.200          41.300
 131546486.086 6 102503825.09444  25032465.016
  25032469.695          40.500          27.500
 109936880.350 7  85665121.66946  20920239.664
  20920244.082          45.800          38.600
 115002406.413 7  89612335.08246  21884217.070
  21884219.648          47.800          39.000
 11 11 22  1 11  0.0000000  0  9G03G06G09G14G15G18G19G21G22
 130631182.512 6 101790622.26844  24858279.727
  24858286.867          40.200          24.900
 130606861.306 6 101771577.99143  24853620.227
  24853626.340          37.800          19.300
 108089336.615 8  84225596.22846  20568714.344
  20568719.168          49.200          41.600
 119930355.446 7  93452262.16845  22821979.328
  22821984.566          44.500          30.000
 120337264.991 7  93769441.75045  22899397.922
  22899402.117          44.300          33.900
 107570945.511 8  83821633.58146  20470048.883
  20470052.859          48.800          41.300
 131538914.650 6 102497925.32244  25031024.672
  25031029.223          39.400          26.400
 109992675.604 7  85708598.47046  20930857.227
  20930861.691          46.300          39.000
 114935862.325 7  89560482.56146  21871554.852
  21871557.371          47.100          38.800
 11 11 22  1 11 30.0000000  0  9G03G06G09G14G15G18G19G21G22
 130685651.463 6 101833065.62143  24868644.188
  24868651.211          38.200          22.600
 130658737.574 6 101812001.10643  24863492.383
  24863498.324          37.900          20.400
 108083702.463 8  84221205.99547  20567642.570
  20567647.273          49.800          42.000
 119857207.728 7  93395264.00245  22808060.359
  22808065.172          45.800          31.600
 120422204.758 7  93835628.56745  22915560.742
  22915565.602          44.600          33.400
 107559442.145 8  83812669.92846  20467859.961
  20467863.820          49.300          41.400
 131531852.311 6 102492422.24644  25029680.328
  25029684.715          40.700          27.500
 110048982.856 7  85752474.22846  20941571.859
  20941576.449          45.100          39.200
 114869458.071 7  89508739.01746  21858918.633
  21858920.828          47.100          39.000
 11 11 22  1 12  0.0000000  0  9G03G06G09G14G15G18G19G21G22
 130740434.389 6 101875753.59443  24879069.391
  24879076.590          37.000          21.700
 130710879.058 6 101852630.77143  24873412.984
  24873420.840          36.900          20.100
 108078752.492 8  84217348.89646  20566700.273
  20566705.203          48.000          41.500
 119784297.248 7  93338450.67744  22794185.555
  22794190.418          45.500          29.900
 120507223.252 7  93901876.73745  22931739.672
  22931744.043          44.900          33.500
 107548226.855 8  83803930.74846  20465726.164
  20465729.512          49.100          41.400
 131525298.809 6 102487315.66844  25028433.047
  25028438.262          40.100          25.600
 110105800.437 7  85796747.64546  20952384.328
  20952388.297          44.900          38.800
 114803194.824 7  89457105.34046  21846308.938
  21846311.059          46.900          38.600
 11 11 22  1 12 30.0000000  0  9G03G06G09G14G15G18G19G21G22
 130795528.465 6 101918684.03543  24889553.922
  24889560.465          36.700          20.900
 130763283.449 6 101893465.34743  24883386.055
  24883392.570          36.200          20.100
 108074487.277 8  84214025.36746  20565888.719
  20565893.750          48.700          41.800
 119711624.325 7  93281822.49045  22780356.375
  22780361.613          45.200          30.400
 120592319.198 7  93968185.26345  22947932.656
  22947937.016          44.700          33.100
 107537300.893 8  83795417.02046  20463646.672
  20463650.305          49.100          41.300
 131519253.947 6 102482605.45144  25027282.500
  25027288.379          41.200          26.400
 110163126.726 7  85841417.46846  20963293.164
  20963297.504          47.800          38.300
 114737073.806 7  89405582.50146  21833726.539
  21833728.355          47.100          39.400
 11 11 22  1 13  0.0000000  0  9G03G06G09G14G15G18G19G21G22
 130850930.726 6 101961854.64643  24900096.445
  24900103.512          37.800          21.500
 130815947.942 6 101934502.58943  24893407.898
  24893414.938          37.500          20.600
 108070906.514 8  84211235.17646  20565207.414
  20565211.859          48.900          41.900
 119639189.226 7  93225379.58544  22766572.695
  22766577.145          44.700          29.900
 120677491.165 7  94034553.01645  22964140.703
  22964145.156          44.500          33.400
 107526665.147 8  83787129.43446  20461622.297
  20461626.398          49.400          41.300
 131513717.385 6 102478291.28844  25026229.336
  25026234.203          40.700          27.700
 110220960.039 7  85886482.36646  20974298.320
  20974302.246          46.400          38.300
 114671096.259 8  89354171.44746  21821171.273
  21821173.359          48.000          38.600
 11 11 22  1 13 30.0000000  0  9G03G06G09G14G15G18G19G21G22
 130906638.569 6 102005263.31743  24910697.438
  24910704.328          36.200          20.600
 130868870.090 6 101975740.60143  24903478.625
  24903486.109          36.700          22.200
 108068010.418 8  84208978.49446  20564656.297
  20564660.953          48.600          41.800
 119566992.462 7  93169122.42145  22752833.867
  22752838.730          45.400          31.000
 120762737.753 7  94100978.92645  22980362.766
  22980366.996          44.200          33.300
 107516320.663 8  83779068.79946  20459654.266
  20459657.852          48.700          41.400
 131508688.680 7 102474372.87944  25025272.484
  25025277.121          42.200          27.300
 110279298.901 7  85931941.20246  20985399.891
  20985403.953          47.000          38.600
 114605263.262 8  89302873.02746  21808643.586
  21808645.684          48.300          39.100
 11 11 22  1 14  0.0000000  0  9G03G06G09G14G15G18G19G21G22
 130962649.250 6 102048907.98743  24921355.984
  24921362.777          37.300          19.900
 130922047.120 6 102017177.22443  24913597.328
  24913604.855          37.100          22.000
 108065798.955 8  84207255.29746  20564235.219
  20564240.152          49.700          41.500
 119495034.371 7  93113051.21745  22739140.523
  22739145.246          45.300          30.400
 120848057.621 7  94167461.94445  22996597.930
  22996603.160          45.200          33.600
 107506268.558 8  83771235.99646  20457741.219
  20457745.023          48.300          41.100
 131504167.605 6 102470849.98344  25024412.320
  25024417.219          40.400          26.400
 110338141.378 7  85977792.46046  20996597.125
  20996601.641          47.600          38.900
 114539575.934 8  89251688.12446  21796143.820
  21796145.949          48.400          38.800
 11 11 22  1 14 30.0000000  0  9G03G06G09G14G15G18G19G21G22
 131018959.492 5 102092786.10042  24932071.266
  24932077.750          34.800          17.400
 130975476.467 6 102058810.47543  24923765.320
  24923771.891          38.700          23.000
 108064272.256 8  84206065.67447  20563944.680
  20563949.613          50.000          42.100
 119423315.219 7  93057166.21245  22725492.922
  22725497.289          45.600          31.100
 120933449.592 7  94234001.12445  23012847.820
  23012852.629          45.200          34.600
 107496509.932 8  83763631.88146  20455884.563
  20455888.492          49.300          41.700
 131500153.491 6 102467722.12944  25023648.352
  25023652.938          40.400          27.100
 110397485.689 8  86024034.76046  21007889.891
  21007894.211          48.300          38.200
 114474035.568 8  89200617.73746  21783672.070
  21783674.141          48.900          39.000
 11 11 22  1 15  0.0000000  0  9G03G06G09G14G15G18G19G21G22
 131075566.920 6 102136895.80042  24942843.625
  24942850.336          37.100          17.400
 131029155.454 6 102100638.23143  24933980.250
  24933986.496          39.600          22.600
 108063430.169 8  84205409.51847  20563784.594
  20563789.055          50.500          42.600
 119351834.945 7  93001467.34445  22711889.852
  22711895.383          45.400          30.400
 121018912.391 7  94300595.49345  23029110.680
  23029115.797          45.200          33.300
 107487045.376 8  83756256.90847  20454083.609
  20454087.125          48.400          42.300
 131496645.840 6 102464988.95944  25022980.695
  25022985.664          37.900          25.300
 110457330.179 8  86070666.81346  21019278.383
  21019281.914          48.300          38.600
 114408643.051 8  89149662.55346  21771227.891
  21771230.203          49.500          39.200
 11 11 22  1 15 30.0000000  0  9G03G06G09G14G15G18G19G21G22
 131132469.564 5 102181235.44843  24953671.359
  24953679.098          33.700          18.300
 131083081.925 6 102142658.86144  24944242.945
  24944248.504          41.100          24.300
 108063272.632 8  84205286.77747  20563754.430
  20563759.387          52.300          42.300
 119280594.246 7  92945955.15845  22698333.992
  22698338.559          45.200          31.600
 121104444.707 7  94367244.02045  23045387.195
  23045392.391          45.400          33.500
 107477876.981 8  83749112.70946  20452338.914
  20452342.027          48.200          41.600
 131493644.731 6 102462650.43244  25022409.320
  25022414.156          38.900          24.300
 110517673.274 8  86117687.39646  21030761.242
  21030765.340          48.300          37.900
 114343400.121 8  89098823.93546  21758812.719
  21758814.699          49.000          39.200
 11 11 22  1 16  0.0000000  0  9G03G06G09G14G15G18G19G21G22
 131189663.741 5 102225802.40942  24964555.234
  24964562.188          34.900          15.600
 131137253.133 6 102184870.17843  24954549.969
  24954557.629          41.100          23.800
 108063799.746 8  84205697.52747  20563855.242
  20563859.648          50.800          42.000
 119209593.396 7  92890629.86145  22684822.789
  22684827.094          44.700          31.200
 121190045.357 7  94433945.80645  23061676.500
  23061681.570          45.300          33.700
 107469005.572 7  83742199.92746  20450650.852
  20450654.047          47.900          41.100
 131491149.598 6 102460706.25344  25021934.773
  25021939.344          39.900          26.500
 110578513.343 8  86165095.21746  21042338.797
  21042342.918          48.700          38.300
 114278308.073 8  89048102.88946  21746426.203
  21746427.840          49.500          39.200
 11 11 22  1 16 30.0000000  0  9G03G06G09G14G15G18G19G21G22
 131247146.649 5 102270594.25942  24975494.867
  24975501.051          33.800          15.600
 131191666.107 7 102227269.90643  24964904.469
  24964911.816          42.100          23.200
 108065011.071 8  84206641.43246  20564085.469
  20564089.832          50.200          41.500
 119138832.742 7  92835491.71845  22671357.328
  22671362.297          45.400          32.000
 121275712.660 7  94500699.52845  23077978.508
  23077982.996          45.500          33.100
 107460431.458 7  83735518.80646  20449018.875
  20449022.633          47.200          41.700
 131489159.397 6 102459155.47744  25021555.266
  25021560.777          39.000          25.600
 110639848.339 8  86212888.69846  21054010.242
  21054014.453          49.300          38.600
 114213367.897 8  88997500.17146  21734068.695
  21734070.195          49.900          39.000
 11 11 22  1 17  0.0000000  0  9G03G06G09G14G15G18G19G21G22
 131304916.121 5 102315609.56942  24986487.555
  24986494.652          30.800          14.800
 131246318.922 6 102269856.48743  24975304.594
  24975311.449          40.300          23.900
 108066907.031 8  84208118.82146  20564445.922
  20564450.938          51.000          41.800
 119068312.881 7  92780541.21845  22657938.203
  22657942.676          45.800          31.800
 121361445.639 7  94567504.42245  23094292.969
  23094297.898          45.700          34.200
 107452156.688 7  83729070.93846  20447444.211
  20447447.984          47.600          41.500
 131487674.226 6 102457998.25744  25021273.164
  25021277.824          39.200          25.600
 110701676.659 8  86261066.58946  21065775.672
  21065779.801          48.200          38.100
 114148581.330 8  88947017.15046  21721740.219
  21721741.801          49.100          39.200
 11 11 22  1 17 30.0000000  0  9G03G06G09G14G15G18G19G21G22
 131362968.850 5                  24997533.281
                        30.100
 131301208.320 6 102312627.44243  24985750.367
  24985756.859          40.600          20.600
 108069486.591 8  84210128.88447  20564937.063
  20564941.477          49.800          42.200
 118998033.587 7  92725778.17445  22644564.563
  22644568.617          46.400          32.000
 121447243.052 7  94634359.52945  23110619.820
  23110624.113          45.700          34.100
 107444181.633 8  83722856.61346  20445926.359
  20445930.484          48.200          41.400
 131486693.042 6 102457233.69744  25021087.094
  25021090.766          37.600          25.600
 110763996.500 7  86309627.48546  21077635.023
  21077639.180          47.100          38.100
 114083948.864 8  88896654.20846  21709441.070
  21709442.465          49.100          39.700
 11 11 22  1 18  0.0000000  0  8G06G09G14G15G18G19G21G22
 131356331.782 6 102355580.78843  24996239.109
  24996245.656          41.000          19.300
 108072750.147 8  84212671.92746  20565558.219
  20565562.512          50.400          41.800
 118927995.318 7  92671202.93245  22631236.430
  22631241.414          46.400          31.700
 121533103.600 7  94701263.83945  23126958.297
  23126962.961          45.800          33.500
 107436507.615 7  83716876.86546  20444466.422
  20444470.082          47.500          41.700
 131486215.527 6 102456861.66244  25020995.422
  25021000.199          41.000          26.100
 110826805.961 7  86358569.90546  21089587.406
  21089591.309          47.800          38.300
 114019472.183 8  88846412.65646  21697171.078
  21697172.996          48.900          39.400
 11 11 22  1 18 30.0000000  0  8G06G09G14G15G18G19G21G22
 131411687.003 6 102398714.73343  25006773.500
  25006780.133          40.200          20.400
 108076697.405 8  84215747.72347  20566308.961
  20566314.195          51.100          42.400
 118858198.437 7  92616815.78845  22617954.430
  22617959.129          46.000          30.800
 121619026.159 7  94768216.45445  23143308.984
  23143314.098          44.500          33.700
 107429135.816 7  83711132.61146  20443063.578
  20443067.340          47.800          41.800
 131486241.595 6 102456882.02344  25021000.391
  25021005.246          40.900          24.700
 110890103.277 8  86407892.47246  21101632.094
  21101636.707          48.700          37.700
 113955152.697 8  88796293.60546  21684932.016
  21684933.586          49.300          39.200
 11 11 22  1 19  0.0000000  0  8G06G09G14G15G18G19G21G22
 131467271.024 6 102442026.98743  25017350.648
  25017357.652          38.200          18.600
 108081327.717 8  84219355.77146  20567190.281
  20567195.000          50.900          41.600
 118788642.887 7  92562616.66445  22604718.500
  22604722.625          45.600          30.700
 121705009.348 7  94835216.32745  23159671.250
  23159676.016          45.000          33.600
 107422067.173 7  83705624.58046  20441718.672
  20441722.266          47.900          41.600
 131486770.045 7 102457293.84444  25021100.977
  25021105.949          42.100          24.600
 110953886.175 7  86457593.40646  21113769.922
  21113774.191          47.500          38.400
 113890991.166 8  88746297.62946  21672722.094
  21672724.086          48.900          39.800
 11 11 22  1 19 30.0000000  0  8G06G09G14G15G18G19G21G22
 131523081.326 6 102485515.50342  25027970.344
  25027977.273          36.000          17.800
 108086640.797 8  84223495.84246  20568201.539
  20568206.055          50.100          41.500
 118719329.047 7  92508605.91345  22591528.133
  22591533.441          45.400          31.500
 121791051.993 7  94902262.52445  23176044.547
  23176049.277          44.700          32.300
 107415302.738 7  83700353.59447  20440431.531
  20440434.906          47.500          42.000
 131487800.508 6 102458096.84644  25021297.484
  25021301.781          41.300          24.600
 111018152.830 7  86507671.30646  21125999.125
  21126003.172          46.900          37.700
 113826989.035 8  88696425.85846  21660542.617
  21660544.484          48.700          39.800
 11 11 22  1 20  0.0000000  0  8G06G09G14G15G18G19G21G22
 131579115.500 6 102529178.49643  25038634.094
  25038640.246          37.200          19.300
 108092636.550 8  84228167.87147  20569342.141
  20569347.031          50.500          42.200
 118650257.565 7  92454784.01345  22578384.805
  22578389.316          46.000          32.500
 121877153.101 7  94969354.28145  23192428.461
  23192433.227          44.600          32.000
 107408844.025 7  83695320.83647  20439202.445
  20439205.770          47.900          42.100
 131489332.161 6 102459290.38744  25021588.625
  25021593.383          41.000          24.900
 111082901.727 7  86558124.97446  21138320.391
  21138324.719          47.500          38.300
 113763148.244 8  88646679.79946  21648394.445
  21648396.598          48.600          40.000
 11 11 22  1 20 30.0000000  0  8G06G09G14G15G18G19G21G22
 131635370.731 6 102573013.74243  25049338.359
  25049345.578          38.700          19.600
 108099314.510 8  84233371.48447  20570612.852
  20570617.852          50.800          42.100
 118581428.512 7  92401151.02045  22565286.961
  22565291.754          44.400          31.500
 121963310.996 7  95036490.28645  23208823.930
  23208828.477          44.100          31.500
 107402691.772 7  83690526.87346  20438031.055
  20438035.234          47.900          41.600
 131491364.445 6 102460874.01644  25021974.656
  25021980.219          40.600          25.500
 111148130.863 8  86608952.85446  21150733.586
  21150737.656          48.400          38.400
 113699469.358 8  88597059.91446  21636276.297
  21636278.586          48.400          40.200
 11 11 22  1 21  0.0000000  0  8G06G09G14G15G18G19G21G22
 131691844.100 6 102617018.95143  25060085.977
  25060092.348          39.200          20.100
 108106674.030 8  84239106.18947  20572013.523
  20572018.133          51.400          42.100
 118512841.617 7  92347706.71045  22552235.078
  22552239.027          46.000          32.100
 122049524.821 7  95103669.87745  23225229.672
  23225234.750          45.200          30.800
 107396846.805 7  83685972.35846  20436918.594
  20436922.969          47.100          41.300
 131493896.675 6 102462847.16244  25022457.000
  25022461.773          40.900          25.900
 111213838.167 8  86660153.33746  21163236.898
  21163240.813          48.200          37.600
 113635953.655 8  88547567.17846  21624189.891
  21624191.848          48.600          39.700
 11 11 22  1 21 30.0000000  0  8G06G09G14G15G18G19G21G22
 131748533.045 6 102661192.12243  25070873.453
  25070880.184          39.800          22.000
 108114714.860 8  84245371.77947  20573543.867
  20573548.449          50.900          42.100
 118444497.568 7  92294451.63645  22539229.805
  22539234.734          46.100          32.900
 122135793.305 7  95170892.06245  23241646.367
  23241651.176          43.800          31.700
 107391310.422 7  83681658.29346  20435865.805
  20435869.109          47.200          41.700
 131496927.997 6 102465209.26944  25023034.117
  25023038.605          40.900          26.700
 111280021.421 7  86711724.68146  21175831.813
  21175835.207          47.300          37.800
 113572602.538 8  88498202.68746  21612134.492
  21612136.719          49.100          39.400
 11 11 22  1 22  0.0000000  0  8G06G09G14G15G18G19G21G22
 131805435.088 6 102705531.32143  25081700.969
  25081707.887          40.300          21.700
 108123436.553 8  84252167.90946  20575203.570
  20575208.367          50.600          41.500
 118376396.621 7  92241386.01045  22526270.195
  22526275.234          45.300          32.700
 122222115.257 7  95238155.90045  23258073.070
  23258078.102          44.300          32.100
 107386083.927 8  83677585.70546  20434871.172
  20434874.207          48.300          41.900
 131500457.969 6 102467959.93744  25023705.359
  25023710.156          41.100          25.300
 111346679.148 7  86763665.75046  21188515.383
  21188520.070          47.300          37.800
 113509417.515 8  88448967.62046  21600110.859
  21600112.922          48.700          40.200
 11 11 22  1 22 30.0000000  0  8G06G09G14G15G18G19G21G22
 131862547.593 6 102750034.56243  25092570.258
  25092576.027          41.700          23.400
 108132838.516 8  84259494.12547  20576992.539
  20576997.043          50.500          42.100
 118308538.635 7  92188509.69545  22513357.227
  22513362.027          46.000          31.200
 122308489.693 7  95305460.64145  23274509.367
  23274514.336          44.100          32.000
 107381168.523 7  83673755.51646  20433935.719
  20433939.465          46.800          41.800
 131504485.813 6 102471098.53844  25024472.172
  25024476.395          41.400          26.400
 111413809.231 7  86815974.87946  21201290.031
  21201294.637          45.300          37.700
 113446400.154 8  88399863.20446  21588119.234
  21588120.980          48.800          40.200
 11 11 22  1 23  0.0000000  0  8G06G09G14G15G18G19G21G22
 131919867.829 6 102794699.66343  25103477.484
  25103484.121          41.100          23.200
 108142920.333 8  84267350.09647  20578911.172
  20578915.504          51.500          42.100
 118240924.133 7  92135823.09645  22500490.875
  22500495.594          46.000          32.400
 122394915.176 7  95372805.14645  23290955.852
  23290960.961          44.500          32.100
 107376564.464 8  83670167.93846  20433059.773
  20433063.109          48.300          41.900
 131509010.508 6 102474624.32144  25025333.672
  25025337.566          39.700          25.600
 111481409.407 8  86868650.32546  21214153.945
  21214158.535          48.300          37.500
 113383551.404 8  88350890.16746  21576159.438
  21576161.289          49.200          40.200
 11 11 22  1 23 30.0000000  0  8G06G09G14G15G18G19G21G22
 131977392.884 6 102839524.34843  25114424.195
  25114430.547          39.500          22.500
 108153681.211 8  84275735.21247  20580958.578
  20580963.520          50.500          42.000
 118173553.389 7  92083326.43645  22487670.727
  22487675.754          45.700          32.600
 122481390.337 7  95440188.37145  23307411.336
  23307416.867          44.000          32.000
 107372272.782 7  83666823.77246  20432242.766
  20432246.508          46.200          41.400
 131514031.499 6 102478536.81044  25026288.023
  25026293.301          40.700          26.500
 111549477.502 8  86921690.37046  21227107.094
  21227111.668          48.500          37.400
 113320872.577 8  88302049.54346  21564232.016
  21564233.535          48.800          39.800
 11 11 22  1 24  0.0000000  0  8G06G09G14G15G18G19G21G22
 132035120.395 6 102884506.83344  25125409.367
  25125415.820          40.200          24.700
 108165120.957 8  84284649.31247  20583136.031
  20583139.977          51.200          42.200
 118106426.569 7  92031019.85845  22474896.625
  22474901.453          45.900          32.100
 122567914.359 7  95507609.65845  23323877.000
  23323881.656          44.400          32.700
 107368295.184 7  83663724.34647  20431486.375
  20431489.660          47.600          42.600
 131519547.769 7 102482835.24744  25027338.438
  25027342.852          42.600          27.400
 111618012.013 7  86975093.86846  21240148.859
  21240153.207          47.300          37.500
 113258364.990 8  88253342.34046  21552337.422
  21552338.902          49.300          40.100
 11 11 22  1 24 30.0000000  0  8G06G09G14G15G18G19G21G22
 132093047.441 6 102929644.74143  25136432.258
  25136439.133          39.200          22.500
 108177238.604 8  84294091.65046  20585441.469
  20585446.094          51.800          41.800
 118039543.732 7  91978903.40345  22462169.281
  22462173.793          46.100          33.600
 122654486.035 7  95575068.07945  23340350.336
  23340355.434          44.400          32.800
 107364632.471 7  83660870.28646  20430788.570
  20430792.824          47.400          41.300
 131525558.590 6 102487519.02844  25028481.617
  25028486.578          40.500          25.200
 111687010.741 7  87028859.08846  21253278.688
  21253283.340          47.900          36.600
 113196030.080 8  88204769.68746  21540475.141
  21540477.027          49.600          40.400
 11 11 22  1 25  0.0000000  0  8G06G09G14G15G18G19G21G22
 132151171.712 6 102974936.33943  25147492.578
  25147499.508          39.300          21.800
 108190033.851 8  84304061.98046  20587876.344
  20587880.906          51.500          41.800
 117972905.379 7  91926977.44245  22449488.617
  22449493.234          47.000          33.600
 122741104.366 7  95642562.85345  23356833.313
  23356838.609          44.700          31.900
 107361286.405 8  83658262.96646  20430152.266
  20430156.145          48.500          41.700
 131532063.395 6 102492587.72243  25029719.852
  25029724.441          40.200          23.300
 111756471.685 7  87082984.47146  21266496.836
  21266501.563          47.600          38.100
 113133869.530 8  88156332.91346  21528646.453
  21528648.488          49.200          39.900
 11 11 22  1 25 30.0000000  0  8G06G09G14G15G18G19G21G22
 132209490.289 6 103020379.35743  25158590.648
  25158597.047          39.200          19.600
 108203505.880 8  84314559.67546  20590439.742
  20590444.535          51.400          41.500
 117906511.186 7  91875241.72445  22436854.352
  22436858.922          45.400          33.200
 122827768.139 7  95710093.03345  23373324.703
  23373330.074          44.000          31.400
 107358257.243 8  83655902.57246  20429575.922
  20429580.027          48.900          41.600
 131539061.089 7 102498040.51444  25031051.922
  25031055.852          42.200          26.500
 111826392.500 8  87137468.20146  21279802.461
  21279806.957          48.200          36.900
 113071884.329 8  88108032.76646  21516850.914
  21516853.094          49.400          40.400
 11 11 22  1 26  0.0000000  0  9G06G09G12G14G15G18G19G21G22
 132268000.152 6 103065971.44543  25169724.734
  25169731.438          37.100          19.600
 108217653.409 8  84325583.73646  20593132.203
  20593136.730          51.700          41.600
 131675954.178 6 102604685.10043  25057106.359
  25057113.516          38.800          19.900
 117840361.235 7  91823696.36645  22424265.906
  22424270.840          45.800          33.200
 122914475.930 7  95777657.50945  23389824.953
  23389830.246          43.300          31.300
 107355545.789 7  83653789.75246  20429059.789
  20429063.262          47.900          41.500
 131546550.554 6 102503876.52544  25032476.383
  25032481.121          41.800          25.900
 111896770.852 8  87192308.45546  21293194.766
  21293199.176          48.700          36.300
 113010075.700 8  88059870.22046  21505089.031
  21505090.793          49.000          40.800
 11 11 22  1 26 30.0000000  0  9G06G09G12G14G15G18G19G21G22
 132326698.512 6 103111710.38843  25180894.703
  25180901.496          38.100          19.900
 108232475.892 8  84337133.73446  20595952.883
  20595957.633          52.400          41.600
 131592681.774 7 102539797.56744  25041259.727
  25041267.477          42.600          25.000
 117774455.783 7  91772341.49245  22411724.781
  22411729.203          46.400          32.800
 123001226.765 7  95845255.53345  23406333.297
  23406338.305          43.200          31.800
 107353152.870 8  83651925.13646  20428604.648
  20428608.246          48.400          41.600
 131554530.594 6 102510094.76844  25033995.063
  25033999.773          41.300          25.600
 111967604.479 8  87247503.46246  21306674.289
  21306678.301          48.400          36.700
 112948444.879 8  88011846.21946  21493361.289
  21493363.012          48.200          40.100
 11 11 22  1 27  0.0000000  0  9G06G09G12G14G15G18G19G21G22
 132385583.225 6 103157594.57343  25192099.859
  25192106.430          39.200          18.300
 108247972.859 8  84349209.30546  20598901.742
  20598906.629          51.900          41.600
 131509418.684 6 102474917.31243  25025415.844
  25025422.199          40.700          20.900
 117708795.185 7  91721177.41945  22399229.859
  22399233.863          46.400          32.600
 123088019.792 7  95912886.42445  23422849.109
  23422854.102          43.700          31.000
 107351080.151 8  83650310.03746  20428210.148
  20428213.633          48.200          41.600
 131563000.715 6 102516694.88844  25035606.992
  25035611.273          40.700          25.600
 112038891.542 7  87303051.79846  21320239.617
  21320243.691          46.800          36.800
 112886993.593 8  87963962.11746  21481667.391
  21481669.137          49.300          40.000
 11 11 22  1 27 30.0000000  0  9G06G09G12G14G15G18G19G21G22
 132444651.736 6 103203621.96843  25203340.695
  25203346.965          38.600          19.300
 108264143.853 8  84361810.09046  20601979.258
  20601983.625          52.300          41.800
 131426168.560 6 102410047.16143  25009573.461
  25009580.723          39.300          20.900
 117643380.026 7  91670204.59445  22386781.734
  22386786.375          45.800          32.900
 123174853.927 7  95980549.37445  23439373.469
  23439378.195          43.800          31.900
 107349329.331 8  83648945.74846  20427877.016
  20427880.488          48.400          41.500
 131571960.029 6 102523676.23644  25037311.781
  25037315.930          41.600          25.700
 112110630.511 8  87358952.27346  21333891.031
  21333894.906          48.400          36.200
 112825723.186 8  87916218.95046  21470008.211
  21470009.984          49.800          40.400
 11 11 22  1 28  0.0000000  0  9G06G09G12G14G15G18G19G21G22
 132503900.972 6 103249790.18642  25214614.516
  25214621.734          36.800          16.900
 108280987.456 8  84374934.98646  20605184.258
  20605188.930          52.100          41.800
 131342933.966 6 102345189.18543  24993734.891
  24993742.375          38.900          19.300
 117578209.943 7  91619422.76045  22374380.609
  22374385.285          45.400          32.500
 123261727.955 7  96048243.37745  23455904.961
  23455909.840          43.400          31.200
 107347900.689 7  83647832.52146  20427605.125
  20427608.520          45.400          41.400
 131581407.743 6 102531038.10544  25039109.164
  25039114.637          40.900          26.100
 112182818.969 7  87415203.00046  21347628.258
  21347632.289          45.700          36.600
 112764635.029 8  87868617.81146  21458383.328
  21458385.668          50.000          40.900
 11 11 22  1 28 30.0000000  0  9G06G09G12G14G15G18G19G21G22
 132563328.407 6 103296097.24343  25225924.164
  25225930.078          38.500          18.300
 108298502.928 8  84388583.41146  20608517.172
  20608521.859          51.600          41.300
 131259717.946 6 102280345.54843  24977898.633
  24977905.621          39.700          20.900
 117513285.334 7  91568832.19645  22362025.664
  22362030.313          45.900          33.300
 123348640.859 7  96115967.68045  23472444.047
  23472448.461          43.200          31.200
 107346795.320 7  83646971.19546  20427394.750
  20427398.266          46.400          41.300
 131591342.722 7 102538779.68244  25040999.852
  25041004.398          42.200          25.800
 112255454.285 8  87471801.92446  21361450.383
  21361454.402          48.200          36.600
 112703730.733 8  87821159.93746  21446793.859
  21446795.730          49.400          40.900
 11 11 22  1 29  0.0000000  0  9G06G09G12G14G15G18G19G21G22
 132622931.411 6 103342541.07843  25237265.625
  25237272.988          37.800          18.300
 108316689.610 8  84402754.86246  20611977.984
  20611982.504          52.300          41.100
 131176523.789 6 102215518.93943  24962067.164
  24962074.723          38.400          19.000
 117448606.260 7  91518432.93045  22349717.297
  22349722.547          46.400          33.700
 123435591.829 7  96183721.69945  23488990.633
  23488995.145          44.000          31.000
 107346014.493 7  83646362.75247  20427245.820
  20427249.754          47.600          42.100
 131601763.832 6 102546900.05644  25042982.633
  25042987.516          41.600          27.200
 112328534.309 8  87528747.37646  21375357.117
  21375361.777          48.000          37.200
 112643012.212 8  87773846.82546  21435239.297
  21435241.586          49.800          40.900
 11 11 22  1 29 30.0000000  0  9G06G09G12G14G15G18G19G21G22
 132682707.019 6 103389119.49942  25248640.547
  25248647.637          38.000          16.900
 108335546.409 8  84417448.48646  20615566.445
  20615571.441          51.800          41.500
 131093354.527 6 102150711.76243  24946241.125
  24946248.055          41.600          21.800
 117384172.622 7  91468224.93645  22337455.797
  22337461.395          46.300          34.000
 123522579.553 7  96251504.29845  23505543.781
  23505548.086          43.400          30.800
 107345558.943 7  83646007.77446  20427159.508
  20427163.285          47.900          41.400
 131612670.002 6 102555398.36344  25045058.789
  25045062.914          40.300          24.800
 112402056.725 8  87586037.54946  21389347.938
  21389352.074          49.500          36.900
 112582479.432 8  87726678.42846  21423720.148
  21423722.191          50.200          40.400
 11 11 22  1 30  0.0000000  0  9G06G09G12G14G15G18G19G21G22
 132742652.661 6 103435830.40742  25260047.414
  25260054.879          36.900          17.800
 108355072.298 8  84432663.46946  20619281.984
  20619286.641          52.300          41.400
 131010212.922 6 102085926.13544  24930419.289
  24930427.020          41.300          25.300
 117319984.626 7  91418208.34445  22325242.063
  22325245.984          44.500          33.200
 123609602.898 7  96319314.66745  23522103.250
  23522108.230          42.700          30.900
 107345429.455 7  83645906.87346  20427134.602
  20427138.344          47.100          41.000
 131624060.366 6 102564273.98344  25047225.914
  25047230.375          40.600          24.300
 112476019.743 8  87643671.04146  21403422.414
  21403426.773          48.400          36.000
 112522134.355 8  87679656.31046  21412237.289
  21412239.129          48.000          41.200
 11 11 22  1 30 30.0000000  0  9G06G09G12G14G15G18G19G21G22
 132802765.370 6 103482671.49042  25271486.461
  25271494.176          36.200          17.400
 108375266.292 8  84448399.05746  20623124.766
  20623129.543          52.000          41.500
 130927102.219 7 102021164.60244  24914604.336
  24914611.270          43.600          25.600
 117256042.600 7  91368383.39545  22313073.805
  22313078.254          47.000          34.000
 123696660.897 7  96387152.03245  23538670.188
  23538675.328          43.900          31.100
 107345627.303 7  83646061.03846  20427172.688
  20427176.215          47.600          41.100
 131635933.629 6 102573525.92944  25049484.852
  25049490.121          40.700          25.600
 112550420.871 7  87701645.92145  21417580.711
  21417584.520          46.400          35.500
 112461978.763 8  87632781.83646  21400789.703
  21400791.945          49.600          40.900
 11 11 22  1 31  0.0000000  0  9G06G09G12G14G15G18G19G21G22
 132863042.860 6 103529640.92242  25282957.492
  25282964.879          37.100          16.300
 108396127.764 8  84464654.75646  20627094.859
  20627099.371          51.600          41.800
 130844025.803 7 101956429.78344  24898795.516
  24898802.703          44.600          28.800
 117192346.554 7  91318750.13445  22300953.047
  22300957.977          44.500          34.200
 123783752.632 7  96455015.70345  23555242.773
  23555248.230          43.800          31.500
 107346153.890 7  83646471.36746  20427272.633
  20427276.414          47.000          41.300
 131648288.879 6 102583153.43444  25051836.234
  25051840.926          40.400          25.000
 112625257.922 7  87759960.48446  21431821.773
  21431825.598          46.800          36.500
 112402013.994 8  87586056.05046  21389378.883
  21389380.750          48.000          40.900
 11 11 22  1 31 30.0000000  0  9G06G09G12G14G15G18G19G21G22
 132923482.053 5 103576736.36942  25294458.125
  25294466.402          35.000          15.600
 108417655.290 8  84481429.46146  20631191.289
  20631195.625          51.600          41.600
 130760986.676 7 101891724.02644  24882993.953
  24883001.105          43.900          27.300
 117128896.529 7  91269308.58445  22288878.578
  22288883.180          46.700          33.200
 123870876.938 7  96522904.75645  23571821.938
  23571827.039          44.100          31.100
 107347009.849 7  83647138.33846  20427435.367
  20427439.141          47.500          41.600
 131661124.886 6 102593155.56344  25054278.297
  25054283.648          41.600          24.400
 112700528.497 8  87818612.85846  21446145.258
  21446149.402          48.700          36.700
 112342241.321 8  87539479.95546  21378004.555
  21378006.387          49.800          40.500
 11 11 22  1 32  0.0000000  0  9G06G09G12G14G15G18G19G21G22
 132984080.388 6 103623955.87042  25305990.844
  25305998.035          37.100          16.900
 108439847.999 8  84498722.48646  20635414.445
  20635418.910          51.600          41.400
 130677988.016 6 101827049.83243  24867199.891
  24867205.941          41.600          22.900
 117065692.546 7  91220058.72745  22276851.305
  22276855.816          44.100          32.500
 123958032.709 7  96590818.29344  23588407.664
  23588412.633          43.000          29.900
 107348195.937 7  83648062.56047  20427661.117
  20427665.031          47.200          42.200
 131674440.388 6 102603531.31244  25056813.148
  25056817.246          41.000          25.700
 112776230.278 8  87877601.23646  21460551.031
  21460555.113          48.500          36.300
 112282662.170 8  87493054.65546  21366667.000
  21366668.680          48.100          40.600
 11 11 22  1 32 30.0000000  0  9G06G09G12G14G15G18G19G21G22
 133044835.081 6 103671297.17942  25317551.602
  25317558.402          36.300          15.600
 108462704.916 8  84516533.07846  20639763.836
  20639768.578          51.100          41.400
 130595032.766 6 101762409.46143  24851413.266
  24851420.473          40.200          22.200
 117002734.636 7  91171000.62045  22264870.992
  22264875.121          46.300          32.700
 124045219.291 7  96658755.87545  23604997.844
  23605003.648          43.000          30.400
 107349713.477 7  83649245.05346  20427949.844
  20427953.758          47.100          41.800
 131688234.415 6 102614279.93344  25059437.508
  25059442.074          41.800          24.700
 112852361.068 8  87936923.90745  21475037.727
  21475042.129          49.100          35.600
 112223278.258 8  87446781.48746  21355366.750
  21355368.711          49.600          40.500
 11 11 22  1 33  0.0000000  0  9G06G09G12G14G15G18G19G21G22
 133105743.528 5 103718758.25142  25329142.336
  25329149.578          34.700          15.600
 108486224.573 8  84534860.08446  20644239.602
  20644243.832          50.500          41.600
 130512123.963 6 101697805.27542  24835636.273
  24835643.742          37.400          15.600
 116940023.248 7  91122134.62945  22252937.188
  22252942.047          45.900          33.800
 124132435.449 7  96726716.46444  23621595.305
  23621600.242          42.400          29.600
 107351563.887 7  83650686.92746  20428302.063
  20428305.629          47.200          41.800
 131702505.946 6 102625400.64843  25062153.719
  25062158.238          41.300          23.400
 112928918.589 8  87996579.09445  21489606.102
  21489610.473          48.800          35.400
 112164090.500 8  87400661.16946  21344103.281
  21344105.668          49.700          40.600
 11 11 22  1 33 30.0000000  0  9G06G09G12G14G15G18G19G21G22
 133166803.122 5                  25340761.977
                        35.500
 108510406.054 8  84553702.80746  20648841.172
  20648845.578          50.500          41.000
 130429265.035 6 101633239.97642  24819867.055
  24819875.488          36.400          13.900
 116877558.589 7  91073460.88945  22241050.539
  22241054.891          43.700          33.500
 124219680.369 6  96794699.48044  23638197.086
  23638202.844          41.700          29.800
 107353747.911 8  83652388.76046  20428717.906
  20428721.441          49.900          41.300
 131717253.582 6 102636892.34944  25064959.563
  25064964.301          40.500          24.200
 113005900.439 7  88056564.92745  21504255.555
  21504259.844          47.300          35.200
 112105100.770 8  87354695.15646  21332877.883
  21332879.711          48.400          40.500
 11 11 22  1 34  0.0000000  0  9G06G09G12G14G15G18G19G21G22
 133228011.110 5                  25352408.594
                        33.700
 108535248.335 8  84573060.43046  20653568.555
  20653572.992          50.800          41.800
 130346458.929 6 101568715.71742  24804110.445
  24804117.703          38.400          17.400
 116815340.576 7  91024979.34745  22229210.336
  22229215.090          45.700          33.300
 124306952.871 7  96862703.98344  23654804.695
  23654809.965          42.400          29.400
 107356266.405 8  83654351.22246  20429196.602
  20429200.730          48.100          41.800
 131732476.131 6 102648754.11644  25067856.805
  25067861.313          40.100          25.100
 113083304.457 7  88116879.72645  21518984.711
  21518988.980          46.000          35.700
 112046310.619 8  87308884.66446  21321690.539
  21321692.590          49.500          40.500
 11 11 22  1 34 30.0000000  0  9G06G09G12G14G15G18G19G21G22
 133289364.479 5                  25364084.305
                        32.200
 108560749.706 8  84592931.63246  20658421.063
  20658425.523          51.100          41.400
 130263708.462 7 101504234.90143  24788364.469
  24788371.570          42.300          19.600
 116753369.023 7  90976689.84945  22217417.586
  22217422.844          45.000          34.600
 124394252.136 7  96930729.35645  23671417.617
  23671422.828          43.100          30.500
 107359120.001 8  83656574.79847  20429739.945
  20429743.742          48.200          42.100
 131748171.905 6 102660984.63844  25070843.195
  25070847.352          41.100          25.700
 113161127.902 7  88177521.34345  21533794.352
  21533798.531          47.800          35.100
 111987721.277 8  87263230.63446  21310541.633
  21310542.871          49.400          40.900
 11 11 22  1 35  0.0000000  0  8G09G12G14G15G18G19G21G22
 108586909.157 8  84613315.62946  20663398.953
  20663403.445          50.800          41.100
 130181017.125 7 101439800.06544  24772628.578
  24772635.285          44.300          25.400
 116691643.994 7  90928592.45445  22205671.734
  22205676.652          46.300          34.000
 124481577.033 7  96998774.69144  23688034.758
  23688039.824          43.700          28.900
 107362309.848 8  83659060.38846  20430347.156
  20430350.895          48.500          41.300
 131764339.904 6 102673583.11144  25073919.883
  25073924.652          39.500          24.100
 113239368.617 8  88238488.10745  21548683.617
  21548688.063          48.600          35.400
 111929334.011 8  87217734.07546  21299430.586
  21299432.766          50.000          41.200
 11 11 22  1 35 30.0000000  0  8G09G12G14G15G18G19G21G22
 108613725.477 8  84634211.46546  20668501.797
  20668506.309          49.300          41.400
 130098387.841 7 101375413.63544  24756905.273
  24756912.438          44.600          28.900
 116630165.476 7  90880687.13845  22193972.875
  22193977.766          44.300          33.800
 124568926.623 7  97066839.29544  23704656.898
  23704661.410          44.400          29.400
 107365837.119 7  83661808.91247  20431017.977
  20431021.965          47.600          42.000
 131780979.202 6 102686548.81443  25077086.313
  25077090.770          39.200          23.900
 113318024.046 7  88299778.02545  21563651.078
  21563655.270          47.800          35.400
 111871150.286 8  87172396.11646  21288358.664
  21288360.422          49.200          41.100
 11 11 22  1 36  0.0000000  0  8G09G12G14G15G18G19G21G22
 108641197.058 8  84655617.89446  20673729.805
  20673734.211          50.500          41.300
 130015823.513 7 101311077.86944  24741193.000
  24741201.047          44.600          29.800
 116568933.599 7  90832974.02345  22182320.828
  22182325.313          46.300          34.800
 124656299.973 7  97134922.39544  23721283.586
  23721289.082          43.100          29.100
 107369702.426 8  83664820.83047  20431753.703
  20431757.746          48.200          42.200
 131798087.939 6 102699880.34644  25080341.484
  25080346.367          40.500          25.900
 113397091.819 7  88361389.24945  21578697.398
  21578701.461          47.600          35.000
 111813171.595 8  87127217.92846  21277325.594
  21277327.875          49.600          41.100
 11 11 22  1 36 30.0000000  0  9G06G09G12G14G15G18G19G21G22
 133536179.781 4                  25411048.664
                        28.300
 108669322.956 8  84677534.18246  20679081.750
  20679086.242          50.000          41.400
 129933327.923 7 101246795.64944  24725495.211
  24725502.215          43.200          27.600
 116507948.605 7  90785453.27245  22170716.164
  22170720.703          46.700          34.000
 124743696.349 7  97203023.45945  23737914.430
  23737919.738          43.400          30.000
 107373907.380 7  83668097.42446  20432554.164
  20432557.645          46.600          41.700
 131815665.323 6 102713577.00943  25083687.313
  25083691.086          39.400          23.800
 113476569.603 7  88423319.96445  21593821.211
  21593825.559          47.300          35.500
 111755400.048 8  87082201.13946  21266332.102
  21266334.121          48.900          41.300
 11 11 22  1 37  0.0000000  0  9G06G09G12G14G15G18G19G21G22
 133598219.490 4                  25422855.156
                        29.600
 108698101.943 8  84699959.36946  20684558.180
  20684562.590          49.100          40.800
 129850903.914 6 101182569.21844  24709811.008
  24709817.027          36.800          25.100
 116447210.276 7  90738124.72945  22159158.141
  22159162.219          46.100          34.600
 124831114.510 7  97271141.44344  23754549.867
  23754555.020          43.800          29.800
 107378452.384 8  83671638.97646  20433418.773
  20433422.133          48.200          41.700
 131833709.869 6 102727637.75744  25087120.195
  25087124.543          39.200          24.300
 113556454.951 7  88485568.26245  21609022.844
  21609026.965          46.900          35.300
 111697836.440 8  87037346.39546  21255378.289
  21255380.086          49.000          41.700
 11 11 22  1 37 30.0000000  0  9G06G09G12G14G15G18G19G21G22
 133660388.531 4                  25434686.266
                        28.600
 108727532.590 8  84722892.34146  20690158.586
  20690163.313          49.100          40.900
 129768554.844 6 101118401.33943  24694138.375
  24694146.727          37.700          22.000
 116386718.981 7  90690988.69045  22147646.922
  22147651.340          46.900          34.400
 124918553.708 6  97339275.85544  23771188.148
  23771193.797          41.400          29.100
 107383339.071 8  83675446.78146  20434348.727
  20434352.172          48.500          41.600
 131852220.341 6 102742061.50243  25090642.867
  25090647.434          37.200          22.600
 113636745.764 7  88548132.49445  21624301.523
  21624306.145          46.200          35.700
 111640482.622 8  86992655.12046  21244464.391
  21244465.871          48.000          41.700
 11 11 22  1 38  0.0000000  0  8G09G12G14G15G18G19G21G22
 108757613.251 8  84746331.81646  20695882.711
  20695887.254          49.200          41.000
 129686283.650 6 101054294.02143  24678483.773
  24678490.820          38.800          22.200
 116326474.791 7  90644045.19345  22136182.945
  22136186.844          47.500          34.600
 125006013.110 7  97407425.98744  23787832.023
  23787836.980          42.000          28.800
 107388567.905 7  83679521.19346  20435343.461
  20435347.477          47.500          41.600
 131871195.152 6 102756847.11243  25094253.352
  25094257.980          38.400          23.000
 113717439.328 8  88611010.56945  21639657.086
  21639661.348          48.600          35.500
 111583339.904 8  86948128.33846  21233590.469
  21233592.395          48.400          41.300
 11 11 22  1 38 30.0000000  0  8G09G12G14G15G18G19G21G22
 108788342.212 8  84770276.46446  20701730.594
  20701735.105          48.700          40.600
 129604093.371 6 100990249.72143  24662843.273
  24662850.109          41.000          20.900
 116266477.312 7  90597293.93345  22124765.070
  22124770.016          46.800          34.600
 125093491.679 6  97475591.05744  23804478.398
  23804484.020          41.900          29.300
 107394139.624 7  83683862.79346  20436404.148
  20436407.746          47.600          41.600
 131890632.825 6 102771993.35243  25097951.773
  25097956.918          38.400          23.000
 113798532.694 7  88674200.17645  21655089.008
  21655093.148          46.000          34.700
 111526409.848 8  86903767.27046  21222756.648
  21222758.898          48.600          41.200
 11 11 22  1 39  0.0000000  0  8G09G12G14G15G18G19G21G22
 108819718.182 8  84794725.26846  20707701.047
  20707705.527          48.200          40.800
 129521987.240 7 100926270.89643  24647218.930
  24647225.113          42.300          19.000
 116206726.480 7  90550734.87345  22113394.789
  22113399.383          46.400          34.600
 125180988.518 7  97543770.36844  23821128.805
  23821134.020          43.000          28.900
 107400055.262 7  83688472.37946  20437529.742
  20437533.914          47.800          41.600
 131910531.909 6 102787499.21043  25101738.320
  25101743.473          38.300          21.800
 113880023.868 7  88737699.76145  21670596.359
  21670600.371          47.900          35.000
 111469693.680 8  86859572.86146  21211964.250
  21211966.063          48.000          41.800
 11 11 22  1 39 30.0000000  0  8G09G12G14G15G18G19G21G22
 108851740.064 8  84819677.38446  20713794.625
  20713799.375          49.600          40.800
 129439968.549 7 100862360.21544  24631611.422
  24631617.539          43.400          25.000
 116147222.509 7  90504368.17445  22102071.688
  22102076.344          46.300          34.100
 125268502.719 7  97611963.18744  23837783.094
  23837787.656          43.500          28.200
 107406315.901 7  83693350.80246  20438721.250
  20438724.531          47.600          41.900
 131930891.164 6 102803363.56943  25105612.875
  25105618.387          38.000          22.800
 113961910.294 7  88801507.33945  21686178.617
  21686182.809          47.900          34.900
 111413193.118 8  86815546.45846  21201212.188
  21201214.238          49.100          41.900
 11 11 22  1 40  0.0000000  0  8G09G12G14G15G18G19G21G22
 108884406.288 8  84845131.58646  20720010.969
  20720015.227          49.700          40.900
 129358040.408 7 100798520.14243  24616021.203
  24616027.156          43.200          23.500
 116087965.468 7  90458193.88345  22090795.641
  22090800.332          46.000          34.700
 125356033.538 7  97680169.00244  23854438.828
  23854443.734          43.300          28.700
 107412922.362 7  83698498.69247  20439978.430
  20439982.547          47.700          42.000
 131951708.999 6 102819585.26943  25109573.883
  25109579.668          37.300          22.800
 114044189.224 7  88865620.76645  21701835.953
  21701839.668          47.800          33.800
 111356909.672 8  86771689.24146  21190502.023
  21190503.859          48.600          41.200
 11 11 22  1 40 30.0000000  0  8G09G12G14G15G18G19G21G22
 108917715.417 8  84871086.75246  20726349.641
  20726354.109          49.400          41.600
 129276206.280 6 100734753.33344  24600447.828
  24600455.449          40.700          24.400
 116028955.704 7  90412212.27145  22079566.711
  22079571.090          45.400          34.800
 125443579.658 7  97748386.70944  23871098.922
  23871103.070          44.600          27.200
 107419875.999 7  83703917.10746  20441301.930
  20441305.258          47.500          41.400
 131972984.357 6 102836163.49243  25113623.570
  25113627.758          37.500          22.200
 114126858.641 7  88930038.47545  21717566.953
  21717571.270          47.600          34.200
 111300845.431 8  86728002.84046  21179833.477
  21179834.988          49.400          41.100
 11 11 22  1 41  0.0000000  0  8G09G12G14G15G18G19G21G22
 108951665.867 8  84897541.65246  20732810.234
  20732814.305          50.100          40.700
 129194469.124 7 100671062.17044  24584894.406
  24584901.531          42.100          25.800
 115970192.931 7  90366423.13345  22068384.320
  22068388.770          45.200          34.400
 125531140.354 7  97816615.78744  23887760.930
  23887765.672          44.600          29.400
 107427177.269 7  83709606.40846  20442690.906
  20442694.523          47.200          40.900
 131994715.391 6 102853096.78243  25117757.930
  25117763.129          37.600          22.900
 114209915.838 7  88994758.33345  21733372.281
  21733376.375          47.200          34.900
 111245000.846 8  86684487.59346  21169206.391
  21169208.109          49.000          41.200
 11 11 22  1 41 30.0000000  0  8G09G12G14G15G18G19G21G22
 108986255.879 8  84924494.91046  20739392.195
  20739396.723          50.700          40.700
 129112831.809 6 100607448.73844  24569358.750
  24569365.555          39.800          25.300
 115911676.531 7  90320825.96145  22057249.273
  22057253.660          47.300          35.700
 125618715.371 7  97884856.02444  23904425.227
  23904430.543          43.900          29.000
 107434826.993 8  83715567.23046  20444146.516
  20444150.199          49.100          41.800
 132016900.573 6 102870383.96443  25121980.641
  25121984.625          37.600          21.700
 114293358.046 7  89059778.21245  21749250.789
  21749255.383          47.200          34.200
 111189377.848 8  86641145.01846  21158621.164
  21158623.168          50.300          41.400
 11 11 22  1 42  0.0000000  0  8G09G12G14G15G18G19G21G22
 109021483.765 8  84951945.21446  20746096.023
  20746100.727          49.900          41.200
 129031297.810 6 100543915.88344  24553843.180
  24553850.188          39.300          25.600
 115853407.261 7  90275421.37345  22046160.703
  22046165.258          47.000          34.500
 125706303.337 7  97953106.35644  23921092.711
  23921097.980          43.900          27.900
 107442826.386 8  83721800.52247  20445668.867
  20445672.348          48.000          42.200
 132039538.282 6 102888023.76943  25126287.445
  25126292.645          36.900          21.700
 114377183.128 7  89125096.42445  21765202.219
  21765206.801          47.500          33.900
 111133978.013 8  86597976.33446  21148079.406
  21148081.445          49.200          41.200
 11 11 22  1 42 30.0000000  0  8G09G12G14G15G18G19G21G22
 109057347.969 8  84979891.35746  20752920.383
  20752925.426          49.400          41.300
 128949870.285 6 100480465.94044  24538347.211
  24538355.496          37.900          24.600
 115795385.039 7  90230209.26645  22035119.391
  22035123.313          44.300          34.900
 125793903.717 7  98021366.32844  23937762.570
  23937768.602          43.500          28.600
 107451176.498 7  83728307.10346  20447258.063
  20447261.605          47.500          41.800
 132062627.023 6 102906015.05643  25130681.156
  25130685.742          36.600          21.100
 114461387.922 7  89190710.51645  21781225.773
  21781230.488          47.300          34.300
 111078803.309 7  86554983.07746  21137580.078
  21137581.891          47.300          41.000
 11 11 22  1 43  0.0000000  0  8G09G12G14G15G18G19G21G22
 109093846.968 8  85008332.13846  20759865.945
  20759870.996          49.800          41.200
 128868552.730 6 100417101.66943  24522873.719
  24522881.352          38.900          23.900
 115737609.429 8  90185189.33245  22024125.047
  22024129.828          48.200          35.700
 125881515.380 6  98089635.10544  23954434.766
  23954439.980          41.300          28.400
 107459878.138 8  83735087.59447  20448913.641
  20448917.383          48.800          42.100
 132086165.445 6 102924356.67143  25135161.828
  25135165.234          37.900          22.900
 114545970.356 7  89256618.87145  21797321.398
  21797326.398          46.700          34.100
 111023854.710 8  86512166.00246  21127123.586
  21127125.512          49.000          41.200
 11 11 22  1 43 30.0000000  0  8G09G12G14G15G18G19G21G22
 109130978.905 8  85037266.12046  20766932.188
  20766936.961          49.500          41.400
 128787348.031 6 100353825.35243  24507420.625
  24507427.699          41.600          22.600
 115680080.714 7  90140361.79145  22013177.930
  22013182.313          45.800          35.600
 125969137.659 6  98157912.14744  23971107.797
  23971113.832          41.200          28.100
 107468932.092 8  83742142.62346  20450636.758
  20450640.258          48.700          41.800
 132110151.848 6 102943047.43143  25139724.266
  25139730.195          37.100          22.000
 114630927.641 7  89322819.31745  21813488.391
  21813492.871          46.700          34.300
 110969133.888 7  86469526.41246  21116710.523
  21116712.223          47.800          41.400
 11 11 22  1 44  0.0000000  0  8G09G12G14G15G18G19G21G22
 109168742.038 8  85066691.93546  20774118.094
  20774122.727          49.400          41.800
 128706259.374 6 100290639.45143  24491990.148
  24491997.246          41.000          22.800
 115622798.714 7  90095726.49745  22002277.445
  22002281.457          45.700          35.100
 126056769.575 7  98226196.68044  23987784.797
  23987790.094          43.400          29.100
 107478338.908 8  83749472.61146  20452426.492
  20452430.371          48.100          41.700
 132134584.596 6 102962085.95343  25144374.828
  25144379.488          37.500          22.300
 114716256.813 7  89389309.54945  21829725.914
  21829730.578          46.400          33.900
 110914642.360 8  86427065.50246  21106341.039
  21106343.109          48.100          41.300
 11 11 22  1 44 30.0000000  0  8G09G12G14G15G18G19G21G22
 109207134.881 8  85096608.44246  20781424.234
  20781428.855          48.600          40.900
 128625290.011 7 100227546.46943  24476581.922
  24476589.078          42.400          22.800
 115565763.668 8  90051283.61345  21991423.664
  21991428.051          48.000          35.700
 126144410.411 7  98294488.16844  24004461.828
  24004467.973          43.200          28.700
 107488099.827 7  83757078.52046  20454284.109
  20454287.625          47.800          41.800
 132159462.174 6 102981471.14543  25149108.758
  25149113.059          39.000          22.600
 114801955.678 7  89456087.84945  21846033.563
  21846038.676          46.800          34.000
 110860381.896 8  86384784.63346  21096015.703
  21096017.457          48.500          41.500
 11 11 22  1 45  0.0000000  0  8G09G12G14G15G18G19G21G22
 109246155.565 8  85127014.17546  20788849.648
  20788854.035          49.900          41.300
 128544442.796 6 100164548.63943  24461198.227
  24461203.941          41.600          23.500
 115508975.324 7  90007032.99246  21980617.773
  21980622.281          47.500          36.500
 126232059.504 7  98362786.12144  24021141.258
  24021146.684          43.300          29.600
 107498215.581 8  83764960.92047  20456208.984
  20456212.684          48.800          42.000
 132184782.603 6 103001201.33343  25153927.555
  25153931.539          38.600          22.200
 114888021.859 7  89523152.36145  21862411.984
  21862416.344          46.100          33.600
 110806353.910 8  86342684.92346  21085734.445
  21085735.984          48.500          41.600
 11 11 22  1 45 30.0000000  0  8G09G12G14G15G18G19G21G22
 109285802.485 8  85157907.89346  20796393.977
  20796398.684          50.800          41.100
 128463721.327 6 100101648.79843  24445836.695
  24445843.988          40.800          22.800
 115452433.568 7  89962974.50045  21969857.688
  21969862.152          47.600          35.800
 126319715.694 7  98431089.60644  24037821.516
  24037826.957          43.900          27.400
 107508687.202 8  83773120.62446  20458201.969
  20458205.508          48.800          41.900
 132210544.706 6 103021275.76443  25158828.766
  25158833.508          38.600          22.300
 114974452.537 7  89590500.91945  21878859.195
  21878863.813          47.000          34.000
 110752559.772 8  86300767.43546  21075497.891
  21075499.824          49.000          40.900
 11 11 22  1 46  0.0000000  0  8G09G12G14G15G18G19G21G22
 109326073.679 8  85189288.04346  20804057.570
  20804062.301          51.100          41.200
 128383128.785 6 100038849.48444  24430501.023
  24430507.559          41.600          26.200
 115396138.461 8  89919108.20445  21959145.133
  21959149.293          48.300          35.300
 126407378.415 7  98499398.16644  24054503.641
  24054509.082          42.900          28.100
 107519515.689 8  83781558.40346  20460262.313
  20460265.723          49.600          41.200
 132236746.682 6 103041692.89843  25163815.469
  25163819.789          38.100          22.300
 115061245.019 7  89658131.38945  21895375.250
  21895379.426          46.700          33.700
 110699001.467 8  86259033.70746  21065306.148
  21065307.992          50.200          41.500
 11 11 22  1 46 30.0000000  0  8G09G12G14G15G18G19G21G22
 109366967.193 8  85221153.13646  20811838.875
  20811844.117          50.400          40.500
 128302668.296 6  99976153.07044  24415189.406
  24415195.824          40.200          26.200
 115340089.865 8  89875433.99345  21948479.422
  21948484.262          48.700          35.800
 126495047.045 7  98567711.35944  24071186.031
  24071191.102          42.900          27.100
 107530701.671 8  83790274.74746  20462390.836
  20462394.730          49.300          41.400
 132263386.829 6 103062451.46643  25168884.609
  25168889.023          39.300          22.600
 115148396.558 7  89726041.64445  21911960.000
  21911964.273          46.800          33.600
 110645680.231 8  86217484.71046  21055159.555
  21055161.121          50.100          41.400
 11 11 22  1 47  0.0000000  0  8G09G12G14G15G18G19G21G22
 109408481.051 8  85253501.60646  20819738.820
  20819743.762          50.900          40.700
 128222343.103 6  99913562.07944  24399904.313
  24399911.477          40.800          27.300
 115284287.580 8  89831951.73045  21937860.656
  21937865.109          48.100          34.700
 126582720.362 7  98636028.20044  24087869.875
  24087875.238          42.200          25.300
 107542245.719 8  83799270.10347  20464587.656
  20464591.367          49.100          42.000
 132290463.215 6 103083549.96143  25174037.203
  25174041.551          39.900          22.600
 115235904.450 7  89794229.58445  21928612.359
  21928616.258          46.400          33.600
 110592597.441 8  86176121.50646  21045058.008
  21045059.746          50.000          41.900
 11 11 22  1 47 30.0000000  0  8G09G12G14G15G18G19G21G22
 109450613.928 8  85286332.42146  20827756.453
  20827761.188          51.500          40.500
 128142156.648 6  99851079.24644  24384645.211
  24384652.066          39.600          27.200
 115228731.746 8  89788661.48945  21927288.594
  21927293.066          48.500          35.700
 126670397.891 7  98704348.30544  24104554.469
  24104559.035          43.000          24.800
 107554149.298 8  83808545.61746  20466852.914
  20466856.285          49.500          41.400
 132317974.288 6 103104987.17643  25179271.859
  25179276.215          40.000          22.600
 115323766.434 7  89862693.42845  21945331.664
  21945336.520          45.600          33.600
 110539755.160 8  86134945.72346  21035002.320
  21035004.332          50.500          41.400
 11 11 22  1 48  0.0000000  0  8G09G12G14G15G18G19G21G22
 109493363.399 8  85319643.70646  20835891.438
  20835896.395          51.400          40.900
 128062111.719 6  99788706.65744  24369412.578
  24369419.793          40.100          27.400
 115173422.101 8  89745563.08045  21916763.195
  21916768.117          48.100          35.100
 126758078.787 6  98772671.04144  24121239.469
  24121244.547          41.200          26.000
 107566412.410 8  83818101.28646  20469186.391
  20469190.188          49.200          41.700
 132345918.202 6 103126761.67743  25184589.836
  25184594.605          40.200          23.500
 115411979.201 7  89931430.60945  21962117.859
  21962122.395          46.100          33.000
 110487154.552 8  86093958.25046  21024992.867
  21024994.633          49.700          41.800
 11 11 22  1 48 30.0000000  0  8G09G12G14G15G18G19G21G22
 109536727.727 8  85353434.10246  20844143.133
  20844148.105          50.700          40.300
 127982211.645 6  99726446.96844  24354208.766
  24354215.402          40.700          26.900
 115118358.847 7  89702656.67145  21906285.492
  21906289.738          46.000          35.500
 126845762.503 6  98840995.93444  24137925.109
  24137929.914          40.900          25.900
 107579036.336 8  83827938.10447  20471588.805
  20471592.484          49.200          42.000
 132374293.210 6 103148872.10643  25189989.422
  25189994.184          38.700          21.800
 115500540.444 7  90000439.34145  21978970.773
  21978975.297          47.100          33.500
 110434797.274 8  86053160.38746  21015029.664
  21015031.719          49.100          41.600
 11 11 22  1 49  0.0000000  0  8G09G12G14G15G18G19G21G22
 109580704.942 8  85387702.07046  20852512.133
  20852516.715          50.700          40.600
 127902459.670 6  99664302.66144  24339032.547
  24339039.160          40.900          27.200
 115063541.675 7  89659942.01845  21895854.055
  21895858.316          46.000          34.900
 126933448.027 7  98909322.28344  24154611.586
  24154616.723          43.200          27.100
 107592021.886 8  83838056.70747  20474059.406
  20474063.406          50.300          42.100
 132403097.707 6 103171317.20843  25195471.281
  25195474.668          40.300          21.300
 115589447.611 7  90069717.63145  21995888.656
  21995893.559          46.600          32.400
 110382684.761 8  86012553.25047  21005113.000
  21005114.734          48.300          42.200
 11 11 22  1 49 30.0000000  0  8G09G12G14G15G18G19G21G22
 109625293.362 8  85422446.29446  20860996.969
  20861001.707          49.900          40.300
 127822859.183 7  99602276.37044  24323884.406
  24323890.969          42.200          26.400
 115008970.549 7  89617419.06646  21885469.148
  21885473.813          44.800          36.000
 127021134.727 7  98977649.52044  24171297.914
  24171303.383          42.200          26.900
 107605369.945 8  83848457.79646  20476600.031
  20476603.508          49.300          41.000
 132432329.882 6 103194095.52043  25201033.383
  25201038.082          39.800          22.000
 115678697.921 7  90139263.28545  22012872.828
  22012877.590          45.900          32.600
 110330818.834 8  85972138.25746  20995242.898
  20995244.988          48.100          41.300
 11 11 22  1 50  0.0000000  0  8G09G12G14G15G18G19G21G22
 109670490.872 8  85457665.13846  20869597.695
  20869602.715          50.600          40.400
 127743413.466 6  99540370.67843  24308765.469
  24308773.227          40.600          22.200
 114954645.346 8  89575087.76345  21875131.891
  21875136.082          49.000          35.900
 127108821.785 6  99045977.03844  24187984.547
  24187989.422          41.000          27.400
 107619081.488 8  83859142.11846  20479209.000
  20479212.867          49.000          41.400
 132461987.916 6 103217205.69243  25206677.414
  25206681.453          39.900          21.800
 115768288.578 7  90209074.15145  22029921.500
  22029925.852          46.500          33.000
 110279201.337 8  85931916.84446  20985420.508
  20985422.395          50.200          41.000
 11 11 22  1 50 30.0000000  0  8G09G12G14G15G18G19G21G22
 109716294.799 8  85493356.51046  20878313.875
  20878318.559          49.500          40.900
 127664125.343 6  99478587.78043  24293677.922
  24293684.762          39.400          22.800
 114900566.007 8  89532948.03246  21864841.055
  21864844.809          48.000          36.400
 127196508.757 7  99114304.49944  24204670.500
  24204675.762          43.000          27.600
 107633156.975 8  83870110.02147  20481887.547
  20481890.820          48.200          42.100
 132492069.532 7 103240645.95044  25212401.477
  25212406.047          42.200          25.500
 115858216.803 7  90279148.05145  22047034.125
  22047038.465          46.600          33.200
 110227833.248 8  85891889.77746  20975645.789
  20975647.426          49.800          41.700
 11 11 22  1 51  0.0000000  0  8G09G12G14G15G18G19G21G22
 109762704.011 8  85529519.53346  20887145.289
  20887149.957          50.500          40.600
 127584998.374 6  99416930.43343  24278621.297
  24278626.965          40.900          21.700
 114846732.586 8  89490999.91946  21854596.578
  21854601.145          48.500          36.100
 127284194.872 6  99182631.28844  24221356.016
  24221362.285          40.700          28.300
 107647597.780 8  83881362.59147  20484635.492
  20484639.242          48.800          42.000
 132522573.721 6 103264415.45743  25218206.531
  25218210.441          41.300          21.700
 115948479.978 7  90349482.96545  22064210.273
  22064215.504          44.600          32.300
 110176716.869 8  85852058.84247  20965918.656
  20965920.000          49.900          42.600
 11 11 22  1 51 30.0000000  0  9G09G12G14G15G18G19G21G22G25
 109809716.370 8  85566152.54346  20896091.117
  20896096.063          49.900          40.500
 127506035.606 6  99355401.03143  24263594.586
  24263600.656          41.100          22.600
 114793144.758 7  89449243.18646  21844399.367
  21844403.488          45.200          36.400
 127371879.122 7  99250956.61444  24238042.656
  24238047.590          43.600          29.000
 107662404.029 8  83892899.92446  20487453.328
  20487456.961          49.100          41.600
 132553498.218 6 103288512.53043  25224090.484
  25224095.207          40.200          21.100
 116039075.470 7  90420076.82045  22081450.719
  22081455.406          45.300          32.300
 110125853.372 8  85812424.96147  20956239.336
  20956241.445          48.200          42.200
 131880405.262 5                  25096019.070
                        34.200
 11 11 22  1 52  0.0000000  0  9G09G12G14G15G18G19G21G22G25
 109857329.748 8  85603253.88046  20905151.711
  20905156.406          50.900          40.000
 127427240.306 7  99294002.12744  24248600.992
  24248606.801          42.200          24.300
 114739802.211 8  89407677.58446  21834248.547
  21834252.770          49.500          36.600
 127459561.019 7  99319280.10944  24254727.961
  24254732.813          42.500          26.600
 107677576.625 8  83904722.71546  20490340.508
  20490344.289          49.800          41.800
 132584841.165 6 103312935.57843  25230055.516
  25230059.730          41.800          22.800
 116130000.475 7  90490927.44245  22098753.078
  22098757.391          46.600          32.100
 110075244.375 8  85772989.38847  20946608.883
  20946610.797          50.200          42.600
 131790130.826 6 102693699.96142  25078841.461
  25078851.133          36.800          16.900
 11 11 22  1 52 30.0000000  0  9G09G12G14G15G18G19G21G22G25
 109905541.733 8  85640821.66346  20914326.422
  20914331.152          50.000          40.200
 127348615.779 6  99232736.35544  24233638.672
  24233645.613          40.900          27.200
 114686705.023 8  89366303.15646  21824144.813
  21824148.629          48.400          36.400
 127547239.854 6  99387601.20244  24271412.383
  24271417.824          40.000          27.600
 107693116.356 8  83916831.59846  20493297.586
  20493301.039          49.800          41.300
 132616600.328 6 103337683.04943  25236099.102
  25236102.703          41.600          21.500
 116221252.173 7  90562032.62845  22116117.328
  22116121.863          45.800          31.900
 110024891.305 8  85733753.24146  20937026.961
  20937028.617          50.500          41.800
 131699769.756 6 102623288.84543  25061645.852
  25061656.668          39.200          21.800
 11 11 22  1 53  0.0000000  0  9G09G12G14G15G18G19G21G22G25
 109954350.020 8  85678854.09846  20923614.445
  20923618.902          49.900          40.400
 127270164.935 7  99171605.95644  24218710.117
  24218717.141          42.100          28.100
 114633853.121 7  89325119.86846  21814086.953
  21814091.512          47.100          36.700
 127634914.780 6  99455919.28943  24288095.742
  24288101.645          41.300          23.200
 107709023.614 8  83929226.85346  20496324.328
  20496327.926          48.900          41.300
 132648773.972 6 103362753.44144  25242221.664
  25242225.738          41.800          25.300
 116312827.655 7  90633390.12645  22133544.164
  22133548.703          45.000          31.500
 109974795.703 8  85694717.71546  20927494.203
  20927496.168          49.400          41.800
 131609324.754 6 102552812.29844  25044435.586
  25044445.637          41.800          26.300
 11 11 22  1 53 30.0000000  0  9G09G12G14G15G18G19G21G22G25
 110003752.651 8  85717349.65846  20933015.117
  20933020.012          49.900          40.100
 127191891.246 7  99110613.58844  24203815.430
  24203822.082          43.900          29.800
 114581246.423 8  89284127.65046  21804076.141
  21804080.395          48.300          36.600
 127722585.208 6  99524233.82943  24304779.492
  24304785.141          41.100          22.300
 107725299.627 8  83941909.45447  20499422.055
  20499425.461          48.000          42.100
 132681360.291 6 103388145.39343  25248422.320
  25248426.691          41.700          22.600
 116404724.344 7  90704997.89345  22151031.227
  22151035.633          45.100          31.900
 109924959.567 8  85655884.37547  20918010.336
  20918012.262          50.500          42.500
 131518798.758 6 102482272.64644  25027208.180
  25027218.688          41.400          26.500
 11 11 22  1 54  0.0000000  0  9G09G12G14G15G18G19G21G22G25
 110053748.006 8  85756307.08646  20942528.875
  20942533.480          50.500          39.700
 127113797.874 7  99049761.71044  24188954.516
  24188961.152          42.500          29.100
 114528885.115 8  89243326.64146  21794111.945
  21794116.777          49.000          36.900
 127810250.652 6  99592544.50943  24321461.859
  24321467.352          40.200          22.900
 107741945.265 8  83954880.07647  20502589.742
  20502593.191          49.700          42.000
 132714357.554 7 103413857.56743  25254701.859
  25254705.363          42.500          23.000
 116496939.614 7  90776853.92245  22168578.859
  22168583.379          45.600          32.400
 109875384.498 8  85617254.45947  20908576.563
  20908578.406          50.400          42.300
 131428194.751 6 102411672.20144  25009967.000
  25009977.434          41.800          27.900
 11 11 22  1 54 30.0000000  0  9G09G12G14G15G18G19G21G22G25
 110104333.531 8  85795724.37446  20952155.344
  20952160.020          50.200          40.000
 127035887.944 7  98989052.80044  24174128.258
  24174134.914          42.200          28.000
 114476768.624 8  89202716.41546  21784194.422
  21784199.184          48.000          36.400
 127897910.225 6  99660850.58844  24338142.977
  24338148.375          41.400          24.300
 107758961.120 8  83968139.18246  20505827.305
  20505830.977          49.100          41.700
 132747763.567 6 103439888.24443  25261058.688
  25261062.656          41.300          22.600
 116589470.209 7  90848955.64645  22186186.984
  22186191.809          45.400          31.500
 109826071.677 8  85578828.89447  20899192.648
  20899194.293          50.200          42.200
 131337515.230 7 102341012.91044  24992711.148
  24992721.617          43.600          27.900
 11 11 22  1 55  0.0000000  0  9G09G12G14G15G18G19G21G22G25
 110155507.116 8  85835599.89946  20961893.008
  20961898.289          49.300          40.000
 126958164.916 6  98928489.50144  24159338.055
  24159344.582          41.900          27.900
 114424896.725 8  89162296.75546  21774323.672
  21774327.793          49.100          36.800
 127985563.337 6  99729151.64544  24354823.320
  24354828.148          41.700          24.900
 107776347.645 8  83981687.10546  20509135.695
  20509140.086          49.000          41.400
 132781576.365 7 103466235.89744  25267492.977
  25267497.227          42.900          24.100
 116682313.562 7  90921301.08545  22203854.664
  22203859.715          45.700          31.100
 109777022.934 8  85540609.10547  20889858.844
  20889860.918          50.700          42.000
 131246763.052 7 102270296.99944  24975442.070
  24975452.383          44.500          27.500
 11 11 22  1 55 30.0000000  0  9G09G12G14G15G18G19G21G22G25
 110207266.567 8  85875931.94046  20971742.664
  20971747.512          49.800          39.900
 126880631.955 7  98868074.28644  24144584.000
  24144590.668          42.100          26.300
 114373269.590 7  89122067.83246  21764499.047
  21764503.891          46.100          36.200
 128073209.337 7  99797447.20144  24371501.164
  24371506.543          42.700          26.300
 107794105.457 8  83995524.36246  20512515.375
  20512518.906          50.400          41.700
 132815794.165 7 103492899.17744  25274004.313
  25274008.328          42.000          24.500
 116775467.008 7  90993888.14645  22221581.453
  22221586.156          46.000          31.500
 109728240.317 8  85502596.68447  20880575.734
  20880578.145          49.300          42.300
 131155941.154 6 102199526.71944  24958158.813
  24958169.527          40.900          25.800
 11 11 22  1 56  0.0000000  0  9G09G12G14G15G18G19G21G22G25
 110259609.567 8  85916718.68946  20981703.406
  20981707.953          50.300          39.700
 126803292.296 6  98807809.72644  24129866.117
  24129873.262          40.100          24.500
 114321887.262 7  89082029.67046  21754721.688
  21754726.270          46.600          36.200
 128160847.736 7  99865736.78744  24388178.672
  24388184.125          43.200          27.500
 107812236.016 8  84009652.06946  20515965.555
  20515969.164          50.000          41.600
 132850414.970 6 103519876.42243  25280591.656
  25280596.191          41.200          21.500
 116868927.906 7  91066714.77445  22239366.805
  22239371.246          46.100          32.000
 109679725.025 8  85464792.56947  20871343.938
  20871345.723          49.200          42.500
 131065052.155 5 102128704.30842  24940862.102
  24940873.578          31.900          17.800
 11 11 22  1 56 30.0000000  0  9G09G12G14G15G18G19G21G22G25
 110312533.912 8  85957958.44446  20991774.203
  20991779.273          50.400          40.200
 126726149.019 6  98747698.22143  24115185.625
  24115192.980          41.000          23.200
 114270749.235 7  89042181.86446  21744990.273
  21744994.848          47.400          36.000
 128248477.989 7  99934020.05344  24404853.547
  24404859.734          43.900          26.700
 107830739.796 8  84024070.58446  20519486.180
  20519490.156          49.800          41.700
 132885436.616 6 103547166.05043  25287257.414
  25287260.301          41.700          22.200
 116962693.088 7  91139778.53645  22257209.617
  22257213.957          45.800          31.100
 109631478.789 8  85427198.11047  20862162.961
  20862164.500          50.000          42.400
 130974098.910 6 102057831.68942  24923554.719
  24923566.234          37.800          12.600
 11 11 22  1 57  0.0000000  0  9G09G12G14G15G18G19G21G22G25
 110366037.495 8  85999649.54246  21001955.531
  21001960.680          50.500          40.100
 126649205.544 7  98687742.37544  24100544.492
  24100550.625          42.500          24.600
 114219855.253 8  89002524.22146  21735305.617
  21735309.922          48.900          36.200
 128336099.063 7 100002296.14544  24421527.344
  24421533.430          42.500          26.400
 107849617.137 8  84038780.19846  20523078.336
  20523082.281          50.600          41.600
 132920857.096 6 103574766.44743  25293996.398
  25294001.230          41.200          22.500
 117056760.228 7  91213077.56345  22275109.578
  22275114.223          45.900          30.800
 109583503.641 8  85389814.89147  20853033.664
  20853035.668          51.200          42.600
 130883084.349 6                  24906235.359
                        38.700
 11 11 22  1 57 30.0000000  0  9G09G12G14G15G18G19G21G22G25
 110420117.769 8  86041790.01246  21012247.000
  21012251.730          49.900          40.000
 126572464.588 7  98627944.27944  24085941.398
  24085947.082          44.100          25.300
 114169205.235 7  88963056.69146  21725667.852
  21725671.613          45.700          36.500
 128423710.264 7 100070564.57344  24438199.391
  24438205.578          42.500          26.500
 107868868.553 8  84053781.29346  20526741.563
  20526745.512          50.600          41.600
 132956674.495 6 103602676.10243  25300812.531
  25300816.262          41.400          22.000
 117151125.992 7  91286609.29245  22293066.570
  22293071.816          45.100          30.600
 109535800.307 8  85352643.47247  20843955.984
  20843957.723          49.100          42.500
 130792011.100 7 101915937.13044  24888905.359
  24888915.156          44.400          25.600
 11 11 22  1 58  0.0000000  0  9G09G12G14G15G18G19G21G22G25
 110474772.277 8  86084377.94546  21022647.148
  21022651.809          49.900          39.400
 126495929.884 7  98568306.89844  24071377.227
  24071382.648          43.100          25.300
 114118799.120 8  88923779.20546  21716075.078
  21716079.305          49.100          36.600
 128511311.187 6 100138824.95944  24454869.063
  24454875.652          40.800          26.200
 107888494.984 8  84069074.60146  20530476.945
  20530480.270          50.600          41.200
 132992886.491 6 103630893.25843  25307703.930
  25307708.086          41.200          21.700
 117245787.567 7  91360371.51545  22311080.648
  22311085.129          45.000          31.400
 109488370.498 8  85315685.18447  20834930.289
  20834931.883          50.600          42.200
 130700882.103 7 101844927.56444  24871564.250
  24871574.617          47.300          28.500
 11 11 22  1 58 30.0000000  0  9G09G12G14G15G18G19G21G22G25
 110529999.031 8  86127411.77946  21033157.117
  21033161.125          50.000          39.200
 126419604.321 7  98508832.50744  24056853.445
  24056858.801          45.400          28.300
 114068636.471 8  88884691.43546  21706529.961
  21706533.973          49.100          36.900
 128598901.452 6 100207077.04344  24471536.961
  24471543.453          39.400          24.900
 107908497.103 8  84084660.66846  20534282.906
  20534286.805          50.100          41.300
 133029491.148 7 103659416.37043  25314668.945
  25314673.559          42.000          21.800
 117340742.199 7  91434362.09745  22329149.406
  22329154.574          45.600          30.800
 109441216.184 8  85278941.57147  20825957.297
  20825959.242          51.100          42.900
 130609700.223 7 101773876.76345  24854212.516
  24854222.621          45.000          30.400
 11 11 22  1 59  0.0000000  0  9G09G12G14G15G18G19G21G22G25
 110585795.693 8  86170889.70246  21043774.508
  21043778.836          49.600          39.500
 126343491.346 7  98449523.76744  24042369.438
  24042375.023          44.200          28.000
 114018717.526 7  88845793.57246  21697030.516
  21697034.785          45.100          36.400
 128686480.247 6 100275320.17143  24488203.039
  24488208.672          38.900          22.900
 107928875.843 8  84100540.20746  20538161.219
  20538164.734          50.400          41.700
 133066486.457 6 103688243.89443  25321709.383
  25321713.105          40.200          21.500
 117435987.074 7  91508578.84444  22347274.164
  22347278.715          44.900          29.900
 109394338.961 8  85242413.87447  20817037.008
  20817038.301          48.700          42.600
 130518468.354 7 101702787.06345  24836852.273
  24836861.906          42.500          30.400
 11 11 22  1 59 30.0000000  0  9G09G12G14G15G18G19G21G22G25
 110642159.833 8  86214809.81246  21054500.055
  21054504.387          49.800          39.600
 126267594.219 7  98390383.24244  24027926.547
  24027932.508          44.500          28.900
 113969042.028 8  88807085.40146  21687577.664
  21687582.168          49.000          37.600
 128774046.939 6 100343553.89343  24504865.523
  24504872.492          39.400          22.600
 107949632.028 8  84116713.84346  20542110.805
  20542114.598          49.900          41.300
 133103870.275 6 103717374.17643  25328823.414
  25328827.402          41.100          21.800
 117531519.697 7  91583019.80345  22365453.688
  22365458.434          45.400          30.700
 109347740.607 8  85206103.47647  20808169.609
  20808171.371          51.300          42.800
 130427189.366 6 101631660.74244  24819481.461
  24819492.293          39.900          28.600
 11 11 22  2  0  0.0000000  4  1
other post-header comments skipped                          COMMENT
 11 11 22  2  0  0.0000000  0  9G09G12G14G15G18G19G21G22G25
 110699088.849 8  86259170.08946  21065333.828
  21065337.891          49.600          39.300
 126191916.125 7  98331413.35044  24013525.508
  24013531.195          43.400          28.800
 113919609.678 8  88768566.69946  21678170.586
  21678175.063          49.100          36.800
 128861600.901 6 100411777.67143  24521526.883
  24521533.289          39.900          23.600
 107970765.744 8  84133181.67846  20546132.578
  20546136.527          51.000          41.800
 133141640.387 6 103746805.47843  25336010.484
  25336014.406          38.300          19.600
 117627337.044 7  91657682.62444  22383686.719
  22383691.391          45.700          29.800
 109301422.603 8  85170011.53547  20799355.367
  20799357.434          50.900          43.200
 130335866.016 5 101560499.80543  24802103.125
  24802114.035          35.500          22.000
 11 11 22  2  0 30.0000000  0  9G09G12G14G15G18G19G21G22G25
 110756580.600 8  86303968.86146  21076273.961
  21076278.625          50.200          39.200
 126116460.215 7  98272616.64244  23999165.500
  23999172.586          42.700          27.200
 113870420.383 8  88730237.39446  21668810.406
  21668814.895          49.100          37.500
 128949141.621 6 100479991.14543  24538185.961
  24538191.801          40.600          22.900
 107992277.585 8  84149944.14746  20550226.219
  20550229.797          50.500          41.700
 133179795.006 6 103776536.35443  25343271.320
  25343274.578          39.300          20.900
 117723436.159 7  91732565.02045  22401974.344
  22401978.984          45.800          30.400
 109255386.611 8  85134139.34847  20790595.023
  20790597.066          51.000          42.600
 130244501.054 6 101489306.58543  24784716.477
  24784727.391          37.700          20.600
 11 11 22  2  1  0.0000000  0  9G09G12G14G15G18G19G21G22G25
 110814632.610 8  86349204.19446  21087320.672
  21087325.051          49.600          38.900
 126041229.295 6  98213995.22844  23984849.922
  23984856.289          41.700          26.600
 113821473.883 8  88692097.29346  21659496.086
  21659500.523          48.300          37.200
 129036668.573 6 100548193.91343  24554841.547
  24554847.965          41.300          22.500
 108014168.225 8  84167001.78046  20554391.563
  20554395.523          50.300          41.600
 133218331.546 6 103806564.84243  25350604.203
  25350608.016          38.900          20.900
 117819813.634 7  91807664.30445  22420314.500
  22420319.090          46.000          30.900
 109209634.302 8  85098488.20747  20781888.883
  20781890.734          51.700          43.300
 130153097.717 7 101418083.24043  24767323.625
  24767334.066          42.400          22.300
 11 11 22  2  1 30.0000000  0  9G09G12G14G15G18G19G21G22G25
 110873242.349 8  86394874.12146  21098473.602
  21098478.414          49.800          38.700
 125966226.975 7  98155551.95044  23970577.875
  23970583.578          42.400          26.000
 113772770.091 8  88654146.30346  21650227.719
  21650232.527          49.100          37.200
 129124181.228 6 100616385.56643  24571494.656
  24571500.586          41.700          22.000
 108036438.104 8  84184354.92646  20558629.398
  20558633.309          50.300          41.900
 133257247.922 6 103836889.27143  25358009.828
  25358014.266          38.400          18.600
 117916467.386 7  91882978.88545  22438706.656
  22438711.195          45.300          30.900
 109164166.870 8  85063059.04747  20773236.625
  20773238.387          51.200          43.100
 130061658.581 6 101346832.02443  24749922.961
  24749933.441          41.300          19.600
 11 11 22  2  2  0.0000000  0  9G09G12G14G15G18G19G21G22G25
 110932407.431 8  86440976.77346  21109732.672
  21109737.055          49.500          38.900
 125891456.301 7  98097289.20444  23956348.492
  23956355.742          42.100          26.300
 113724308.635 8  88616384.15346  21641006.047
  21641010.918          49.100          37.300
 129211678.828 7 100684565.43544  24588145.805
  24588151.480          43.200          25.300
 108059087.964 8  84202004.16346  20562939.820
  20562943.590          50.300          41.800
 133296542.013 6 103867508.12343  25365487.117
  25365491.332          39.400          19.300
 118013394.233 7  91958506.25444  22457151.195
  22457155.977          45.300          28.900
 109118986.228 8  85027853.35847  20764638.703
  20764640.520          51.400          42.600
 129970186.604 7 101275555.09343  24732516.633
  24732525.809          43.600          19.900
 11 11 22  2  2 30.0000000  0  9G09G12G14G15G18G19G21G22G25
 110992125.754 8  86487510.53046  21121096.781
  21121100.977          49.500          38.700
 125816920.863 7  98039209.71244  23942165.969
  23942171.293          43.900          25.600
 113676089.481 7  88578810.81646  21631830.242
  21631834.457          47.700          37.200
 129299161.047 6 100752733.35244  24604792.688
  24604798.191          40.500          24.700
 108082118.887 8  84219950.33046  20567322.297
  20567325.980          50.400          41.600
 133336211.961 6 103898419.78643  25373036.242
  25373040.449          39.400          21.800
 118110591.278 7  92034244.17144  22475647.047
  22475652.238          45.300          28.500
 109074094.403 8  84992872.72647  20756096.328
  20756098.242          50.100          43.100
 129878685.001 7 101204255.20244  24715104.375
  24715113.461          42.400          24.300
 11 11 22  2  3  0.0000000  0  9G09G12G14G15G18G19G21G22G25
 111052394.592 8  86534473.26246  21132564.570
  21132569.891          49.000          38.700
 125742623.536 7  97981315.72544  23928027.266
  23928032.730          44.300          27.000
 113628112.519 7  88541426.18746  21622700.469
  21622704.930          47.300          37.300
 129386627.288 6 100820888.82344  24621436.922
  24621442.055          40.900          24.200
 108105531.325 8  84238193.77846  20571777.664
  20571781.227          49.600          41.400
 133376255.468 6 103929622.53243  25380656.219
  25380660.707          37.500          18.300
 118208055.665 7  92110190.40744  22494194.281
  22494199.039          44.700          29.400
 109029492.764 8  84958118.20947  20747608.625
  20747610.203          49.300          43.100
 129787156.414 6 101132934.34944  24697686.914
  24697696.844          41.300          25.200
 11 11 22  2  3 30.0000000  0  9G09G12G14G15G18G19G21G22G25
 111113211.284 8  86581862.88946  21144138.109
  21144143.043          49.300          38.900
 125668567.149 7  97923609.50644  23913934.344
  23913940.613          44.400          25.000
 113580377.242 8  88504229.89046  21613616.469
  21613621.258          49.000          37.500
 129474077.031 6 100889031.39544  24638078.539
  24638084.168          41.300          26.300
 108129325.280 8  84256734.52146  20576305.320
  20576309.203          49.800          41.700
 133416670.023 6 103961114.43843  25388346.594
  25388350.719          38.900          20.100
 118305784.683 7  92186342.85045  22512791.922
  22512796.281          44.500          30.400
 108985183.029 8  84923591.15347  20739177.047
  20739178.727          50.800          43.000
 129695603.753 6 101061594.68144  24680265.195
  24680275.215          41.900          25.900
 11 11 22  2  4  0.0000000  0  9G09G12G14G15G18G19G21G22G25
 111174573.436 8  86629677.54146  21155815.195
  21155820.125          49.100          39.100
 125594755.544 7  97866093.98744  23899888.727
  23899894.016          45.000          24.700
 113532883.767 8  88467222.02646  21604579.125
  21604583.426          48.700          37.900
 129561509.533 6 100957160.51744  24654716.031
  24654722.531          40.100          25.600
 108153501.773 8  84275573.33946  20580905.953
  20580909.664          50.500          41.600
 133457453.523 6 103992893.78143  25396107.516
  25396112.234          38.100          18.600
 118403775.077 7  92262698.93744  22531438.828
  22531443.762          44.300          29.000
 108941166.541 8  84889292.59847  20730800.773
  20730802.418          50.600          42.700
 129604029.918 6 100990238.54743  24662838.039
  24662849.207          36.700          22.800
 11 11 22  2  4 30.0000000  0  9G09G12G14G15G18G19G21G22G25
 111236478.780 8  86677915.47046  21167595.195
  21167600.469          49.700          39.000
 125521191.706 7  97808771.56444  23885889.711
  23885896.254          43.500          26.000
 113485632.012 7  88430402.49646  21595587.508
  21595592.207          47.000          37.500
 129648924.072 6 101025275.67143  24671349.648
  24671357.184          38.300          23.200
 108178061.528 8  84294710.79946  20585579.617
  20585583.477          49.800          41.400
 133498604.081 6 104024959.24043  25403938.328
  25403942.996          38.400          18.600
 118502024.731 7  92339257.08544  22550135.133
  22550139.813          45.500          29.600
 108897445.325 8  84855224.13647  20722480.664
  20722482.383          50.300          42.900
 129512438.038 6 100918868.44043  24645409.063
  24645419.734          37.600          22.600
 11 11 22  2  5  0.0000000  0  9G09G12G14G15G18G19G21G22G25
 111298924.870 8  86726574.75046  21179478.344
  21179483.145          50.000          39.200
 125447878.990 7  97751644.81244  23871938.695
  23871945.281          42.200          26.600
 113438621.593 7  88393771.02146  21586641.281
  21586646.191          46.700          37.700
 129736320.829 6 101093376.90243  24687981.789
  24687988.020          36.400          22.000
 108203004.944 8  84314147.22046  20590326.508
  20590330.043          50.300          41.300
 133540119.498 6 104057308.86742  25411838.289
  25411842.617          37.100          16.900
 118600530.311 7  92416014.62345  22568880.234
  22568885.117          45.000          30.000
 108854020.958 8  84821386.96947  20714217.305
  20714219.137          49.400          43.000
 129420831.173 6 100847486.61844  24627977.547
  24627987.461          40.200          25.000
 11 11 22  2  5 30.0000000  0  9G09G12G14G15G18G19G21G22G25
 111361908.915 8  86775653.21646  21191463.555
  21191468.895          49.400          39.100
 125374820.346 7  97694716.09444  23858036.336
  23858042.609          42.500          27.500
 113391852.218 8  88357327.38146  21577741.445
  21577745.895          49.500          37.800
 129823699.085 6 101161463.74844  24704609.297
  24704615.152          38.000          24.300
 108228332.604 8  84333883.03946  20595146.188
  20595149.852          49.700          40.800
 133581997.266 6 104089940.93142  25419808.148
  25419811.215          36.700          17.400
 118699288.732 7  92492969.20444  22587673.414
  22587677.813          45.500          29.700
 108810894.799 8  84787782.18047  20706011.242
  20706012.855          51.100          42.400
 129329212.161 7 100776095.31145  24610542.992
  24610552.746          43.800          30.200
 11 11 22  2  6  0.0000000  0  9G09G12G14G15G18G19G21G22G25
 111425427.878 8  86825148.50646  21203551.453
  21203556.070          49.800          39.200
 125302018.686 6  97637987.63544  23844182.594
  23844189.555          41.600          28.500
 113345323.686 8  88321071.40246  21568887.570
  21568891.961          48.600          37.500
 129911058.159 6 101229535.65244  24721233.570
  24721239.137          38.400          25.400
 108254044.611 8  84353918.36146  20600038.836
  20600042.594          49.300          41.300
 133624234.722 5 104122853.27042  25427844.758
  25427849.262          35.400          16.900
 118798296.864 7  92570118.36244  22606513.813
  22606518.492          45.000          28.800
 108768068.221 8  84754410.82647  20697861.305
  20697863.117          50.200          42.600
 129237583.525 7 100704696.47544  24593106.648
  24593116.688          44.300          29.500
 11 11 22  2  6 30.0000000  0  9G09G12G14G15G18G19G21G22G25
 111489479.654 8  86875058.97646  21215739.961
  21215744.504          49.900          39.400
 125229477.697 7  97581462.27944  23830377.023
  23830384.586          42.900          28.800
 113299035.744 8  88285002.89946  21560078.953
  21560083.242          49.300          37.500
 129998397.534 6 101297592.23144  24737853.883
  24737859.184          40.600          25.200
 108280141.838 8  84374253.85246  20605004.969
  20605008.336          49.700          41.800
 133666829.946 6 104156044.37943  25435949.469
  25435954.512          36.600          19.300
 118897552.237 7  92647460.16244  22625400.984
  22625406.219          43.600          27.800
 108725543.693 8  84721274.83447  20689769.563
  20689770.879          51.200          42.900
 129145948.705 7 100633292.80343  24575669.063
  24575678.281          42.800          22.500
 11 11 22  2  7  0.0000000  0  9G09G12G14G15G18G19G21G22G25
 111554061.663 8  86925382.61846  21228029.320
  21228034.004          49.900          39.000
 125157200.119 7  97525142.16844  23816624.172
  23816631.082          44.200          29.900
 113252988.493 8  88249121.95146  21551316.922
  21551320.879          48.400          37.900
 130085716.602 6 101365633.00843  24754469.945
  24754475.254          40.000          22.600
 108306624.756 8  84394889.88346  20610044.367
  20610048.379          49.900          41.400
 133709780.525 6 104189512.39243  25444123.141
  25444128.422          37.200          19.000
 118997051.814 7  92724992.26144  22644335.617
  22644339.934          44.000          26.600
 108683322.566 8  84688375.25847  20681735.125
  20681736.293          50.600          43.000
 129054310.463 6 100561886.33943  24558231.039
  24558239.305          41.400          19.300
 11 11 22  2  7 30.0000000  0  9G09G12G14G15G18G19G21G22G25
 111619171.413 8  86976117.48646  21240419.172
  21240423.773          49.300          38.300
 125085189.589 7  97469030.16845  23802921.563
  23802927.805          45.000          30.600
 113207181.202 8  88213427.98846  21542599.859
  21542603.875          49.600          37.500
 130173015.131 6 101433657.75843  24771082.227
  24771087.730          40.700          22.200
 108333494.163 8  84415827.06046  20615157.273
  20615160.875          50.700          41.300
 133753084.544 6 104223255.78143  25452364.508
  25452368.207          37.400          18.600
 119096792.813 7  92802712.47644  22663316.094
  22663320.402          43.400          28.300
 108641406.470 8  84655713.37747  20673758.391
  20673760.078          50.700          42.500
 128962671.948 7 100490479.74843  24540792.313
  24540800.641          42.300          21.700
 11 11 22  2  8  0.0000000  0  9G09G12G14G15G18G19G21G22G25
 111684806.102 8  87027261.40846  21252909.234
  21252913.438          48.600          38.400
 125013449.094 7  97413128.52844  23789269.516
  23789275.156          44.600          29.400
 113161614.079 8  88177921.15546  21533928.766
  21533932.871          48.900          37.100
 130260292.209 7 101501665.79543  24787690.977
  24787696.379          42.500          23.600
 108360750.204 8  84437065.53246  20620344.039
  20620348.129          50.000          41.600
 133796739.224 6 104257272.41243  25460671.563
  25460675.531          38.100          18.300
 119196772.026 7  92880618.30244  22682340.672
  22682346.086          43.800          27.700
 108599797.117 8  84623290.51447  20665840.422
  20665841.996          50.800          43.200
 128871036.079 6 100419075.23144  24523354.438
  24523364.793          41.900          26.700
 11 11 22  2  8 30.0000000  0  9G09G12G14G15G18G19G21G22G25
 111750963.000 8  87078812.24046  21265498.078
  21265503.016          49.700          37.700
 124941981.222 7  97357439.33844  23775669.734
  23775675.641          45.300          29.300
 113116286.526 7  88142601.00946  21525303.289
  21525307.465          47.600          37.000
 130347547.861 6 101569657.13643  24804295.133
  24804300.645          41.800          23.600
 108388393.129 8  84458605.46246  20625604.336
  20625608.039          49.900          41.700
 133840742.476 5 104291560.66942  25469045.164
  25469049.723          35.700          16.900
 119296986.831 7  92958707.71544  22701411.906
  22701415.973          43.800          28.400
 108558495.558 8  84591107.49147  20657980.859
  20657982.570          50.000          43.500
 128779405.567 6 100347675.02144  24505917.180
  24505928.184          40.600          24.300
 11 11 22  2  9  0.0000000  0  9G09G12G14G15G18G19G21G22G25
 111817639.561 8  87130768.00546  21278186.727
  21278190.500          49.800          37.700
 124870789.287 7  97301965.14244  23762122.242
  23762127.523          44.900          28.700
 113071198.752 8  88107467.70246  21516723.320
  21516727.191          48.200          37.400
 130434781.503 6 101637631.32443  24820894.922
  24820900.527          41.300          22.800
 108416423.407 8  84480447.23646  20630938.484
  20630942.074          49.300          41.000
 133885091.890 5 104326118.60942  25477484.813
  25477488.668          34.200          16.300
 119397434.172 7  93036978.32644  22720526.023
  22720530.516          44.600          29.100
 108517503.766 8  84559165.84247  20650180.430
  20650182.070          50.000          43.200
 128687783.543 6 100276281.42243  24488481.477
  24488492.000          38.400          22.900
 11 11 22  2  9 30.0000000  0  9G09G12G14G15G18G19G21G22G25
 111884833.036 8  87183126.56746  21290972.891
  21290977.270          50.000          37.500
 124799877.126 7  97246708.95344  23748627.789
  23748632.578          44.600          25.500
 113026350.005 8  88072520.65246  21508189.031
  21508192.602          48.800          37.000
 130521992.452 6 101705587.81243  24837490.922
  24837496.594          40.500          22.800
 108444841.596 8  84502591.25546  20636346.055
  20636349.738          50.000          41.400
 133929784.999 5 104360944.44542  25485989.586
  25485993.871          31.800          15.600
 119498110.993 7  93115427.76444  22739684.078
  22739688.457          44.700          29.000
 108476823.289 8  84527466.76947  20642439.086
  20642440.590          50.200          42.700
 128596173.024 7 100204896.79044  24471049.375
  24471059.590          42.700          27.900
 11 11 22  2 10  0.0000000  0  9G09G12G14G15G18G19G21G22G25
 111952541.009 8  87235886.03046  21303857.023
  21303861.762          49.100          37.400
 124729247.645 7  97191673.01744  23735187.383
  23735192.773          43.400          26.500
 112981740.656 8  88037760.14446  21499699.859
  21499704.070          48.600          38.100
 130609180.666 6 101773526.56643  24854081.688
  24854088.102          39.200          23.000
 108473648.945 8  84525038.53146  20641828.078
  20641831.605          50.000          41.100
 133974820.211 4                  25494560.164
                        29.100
 119599014.469 7  93194053.81844  22758885.594
  22758890.270          43.800          28.100
 108436456.216 8  84496011.91447  20634757.711
  20634759.059          50.000          42.600
 128504577.352 7 100133523.59244  24453619.500
  24453629.473          43.700          26.400
 11 11 22  2 10 30.0000000  0  8G09G12G14G15G18G21G22G25
 112020760.705 8  87289044.23046  21316839.328
  21316843.516          49.300          38.100
 124658903.707 7  97136859.61444  23721801.492
  23721806.871          43.400          26.900
 112937370.057 8  88003185.67846  21491256.414
  21491260.211          49.400          37.100
 130696345.533 6 101841447.11843  24870669.234
  24870675.043          38.900          21.500
 108502845.072 8  84547788.74446  20647384.070
  20647387.602          49.700          41.500
 119700141.771 7  93272854.27544  22778129.578
  22778134.410          44.000          28.700
 108396403.748 8  84464802.20947  20627136.313
  20627137.594          51.000          42.900
 128412999.296 7 100062164.19644  24436192.438
  24436201.949          43.000          28.300
 11 11 22  2 11  0.0000000  0  8G09G12G14G15G18G21G22G25
 112089489.637 8  87342599.24946  21329917.805
  21329922.516          48.800          37.900
 124588848.623 7  97082271.30144  23708470.586
  23708475.988          42.000          27.200
 112893238.429 8  87968797.40046  21482858.352
  21482862.594          49.400          37.500
 130783486.472 6 101909349.05043  24887251.906
  24887257.277          37.500          21.500
 108532430.843 8  84570842.58146  20653013.805
  20653017.727          48.600          41.100
 119801490.271 7  93351827.07844  22797415.695
  22797420.207          42.600          27.200
 108356667.783 8  84433839.12547  20619574.688
  20619576.320          51.000          42.800
 128321441.865 7  99990820.86044  24418769.336
  24418779.180          43.400          27.800
 11 11 22  2 11 30.0000000  0  8G09G12G14G15G18G21G22G25
 112158725.190 8  87396549.01846  21343092.961
  21343097.855          50.200          38.100
 124519085.386 7  97027910.41844  23695194.664
  23695200.723          43.400          27.300
 112849345.121 8  87934594.85546  21474505.492
  21474510.141          49.900          38.100
 130870602.699 6 101977231.68243  24903828.703
  24903835.672          38.700          23.000
 108562406.364 8  84594200.11946  20658718.008
  20658721.945          49.200          41.000
 119903056.796 7  93430969.77644  22816742.438
  22816747.754          42.600          26.300
 108317250.128 8  84403124.07747  20612073.523
  20612075.133          50.900          43.000
 128229908.310 7  99919496.09644  24401351.570
  24401360.879          44.800          28.200
 11 11 22  2 12  0.0000000  0  8G09G12G14G15G18G21G22G25
 112228464.053 8  87450890.98846  21356363.867
  21356368.344          49.600          37.800
 124449617.275 7  96973779.52344  23681974.992
  23681981.391          43.900          28.900
 112805689.657 8  87900577.63346  21466198.242
  21466202.438          50.000          37.400
 130957694.348 6 102045095.17243  24920401.906
  24920409.039          40.200          23.900
 108592771.610 8  84617861.33646  20664496.352
  20664500.105          50.200          40.900
 120004837.706 7  93510279.52744  22836110.891
  22836116.047          42.900          26.200
 108278152.028 8  84372658.02947  20604633.664
  20604634.801          51.300          42.800
 128138401.244 7  99848191.97244  24383938.336
  24383947.887          42.500          25.300
 11 11 22  2 12 30.0000000  0  8G09G12G14G15G18G21G22G25
 112298703.554 8  87505623.07446  21369729.648
  21369734.398          49.800          38.500
 124380447.484 7  96919881.04944  23668813.516
  23668818.871          43.700          29.800
 112762271.956 8  87866745.66846  21457936.313
  21457940.637          49.500          38.200
 131044760.859 6 102112939.05844  24936971.109
  24936976.840          41.100          24.900
 108623527.702 8  84641827.10046  20670349.086
  20670352.875          49.900          41.100
 120106830.806 7  93589754.64044  22855520.008
  22855524.520          42.800          27.200
 108239375.578 8  84342442.61847  20597254.555
  20597255.906          50.600          43.100
 128046923.796 6  99776910.91843  24366529.977
  24366539.121          41.600          22.900
 11 11 22  2 13  0.0000000  0  8G09G12G14G15G18G21G22G25
 112369441.121 8  87560743.25346  21383190.797
  21383195.590          50.200          38.000
 124311578.955 7  96866217.34045  23655707.766
  23655713.730          44.500          30.700
 112719091.966 8  87833098.93746  21449719.195
  21449723.848          50.300          38.700
 131131801.730 6 102180762.97544  24953534.219
  24953540.867          40.200          26.800
 108654674.850 8  84666097.59346  20676275.930
  20676279.637          49.100          41.100
 120209033.241 7  93669392.86144  22874968.664
  22874973.566          43.400          27.200
 108200921.774 8  84312478.61347  20589936.844
  20589938.543          51.200          43.300
 127955479.078 6  99705655.42343  24349128.836
  24349137.949          41.900          22.800
 11 11 22  2 13 30.0000000  0  8G09G12G14G15G18G21G22G25
 112440673.837 8  87616249.25946  21396746.141
  21396751.066          49.800          38.700
 124243014.385 7  96812790.48345  23642660.305
  23642666.473          44.100          30.700
 112676149.286 8  87799637.13146  21441547.422
  21441551.805          49.200          38.600
 131218816.302 6 102248566.36844  24970093.055
  24970099.047          40.100          24.400
 108686212.778 8  84690672.57946  20682277.258
  20682281.559          49.700          40.900
 120311441.507 7  93749191.48144  22894456.219
  22894461.023          43.700          26.900
 108162792.109 8  84282767.19247  20582681.164
  20582682.500          50.100          43.100
 127864069.907 6  99634427.57943  24331733.789
  24331743.230          41.400          22.300
 11 11 22  2 14  0.0000000  0  8G09G12G14G15G18G21G22G25
 112512399.138 8  87672139.10846  21410395.141
  21410399.996          49.800          38.800
 124174757.480 7  96759603.34645  23629670.938
  23629677.668          45.100          30.400
 112633443.915 8  87766360.22246  21433420.820
  21433425.258          50.100          38.700
 131305804.429 6 102316349.17643  24986645.609
  24986652.707          41.600          22.600
 108718142.585 8  84715552.94846  20688353.664
  20688357.301          50.000          41.200
 120414052.704 7  93829148.22244  22913982.508
  22913987.391          43.800          26.900
 108124989.008 8  84253310.23547  20575487.617
  20575489.293          50.700          42.900
 127772699.565 6  99563230.00244  24314346.063
  24314356.375          41.900          26.000
 11 11 22  2 14 30.0000000  0  8G09G12G14G15G18G21G22G25
 112584614.286 8  87728410.65446  21424136.859
  21424141.836          49.900          37.900
 124106811.286 7  96706658.32645  23616741.047
  23616747.797          44.600          30.000
 112590975.380 8  87733267.87446  21425339.250
  21425344.105          49.700          39.100
 131392765.662 6 102384111.06944  25003194.688
  25003201.148          41.800          24.300
 108750464.559 8  84740738.88946  20694504.273
  20694508.012          49.000          41.100
 120516864.122 7  93909260.95444  22933546.875
  22933552.086          42.900          27.500
 108087513.554 8  84224108.58447  20568355.945
  20568357.973          50.300          43.400
 127681371.335 7  99492065.27044  24296967.797
  24296977.613          43.900          28.500
 11 11 22  2 15  0.0000000  0  8G09G12G14G15G18G21G22G25
 112657316.412 8  87785061.65546  21437971.773
  21437976.578          49.700          36.900
 124039178.311 7  96653957.35144  23603871.391
  23603877.051          44.700          28.600
 112548743.260 8  87700359.74746  21417303.352
  21417307.484          49.700          39.000
 131479699.799 7 102451851.88643  25019737.758
  25019743.527          42.100          22.000
 108783178.663 8  84766230.38746  20700729.500
  20700733.617          50.200          41.100
 120619872.781 7  93989527.40444  22953148.867
  22953153.258          43.700          25.900
 108050367.470 8  84195163.58747  20561287.227
  20561288.500          50.000          42.900
 127590087.983 7  99420935.54245  24279596.992
  24279606.520          44.300          30.600
 11 11 22  2 15 30.0000000  0  8G09G12G14G15G18G21G22G25
 112730502.732 8  87842089.95646  21451898.266
  21451903.148          49.100          37.500
 123971861.992 7  96601503.11844  23591061.422
  23591067.117          43.200          26.500
 112506747.787 8  87667636.00946  21409311.539
  21409316.164          49.800          38.300
 131566606.489 6 102519571.32043  25036275.648
  25036281.496          40.300          20.100
 108816285.665 8  84792028.03046  20707029.953
  20707033.355          50.200          40.400
 120723075.851 7  94069945.31144  22972786.625
  22972792.648          42.400          26.200
 108013552.588 8  84166476.67347  20554281.859
  20554283.121          50.100          43.400
 127498852.549 7  99349843.05545  24262235.039
  24262245.172          43.900          30.400
 11 11 22  2 16  0.0000000  0  8G09G12G14G15G18G21G22G25
 112804170.893 8  87899493.72246  21465916.953
  21465921.426          49.700          36.700
 123904865.221 7  96549297.83744  23578312.273
  23578317.637          42.800          26.000
 112464988.616 8  87635096.42246  21401365.273
  21401369.512          50.100          39.400
 131653485.064 6 102587268.84243  25052807.914
  25052813.711          39.200          21.500
 108849785.955 8  84818132.13646  20713404.742
  20713408.535          49.800          41.000
 120826470.045 7  94150512.15044  22992463.117
  22992467.477          42.400          26.300
 107977070.561 8  84138049.12547  20547339.352
  20547341.266          50.300          43.000
 127407668.346 7  99278790.52644  24244883.086
  24244893.777          43.300          28.600
 11 11 22  2 16 30.0000000  0  9G09G12G14G15G18G21G22G25G31
 112878317.754 8  87957270.50346  21480026.359
  21480031.391          49.500          36.000
 123838191.284 7  96497344.10844  23565624.453
  23565629.523          43.000          24.600
 112423465.116 8  87602740.45446  21393463.211
  21393467.313          50.500          38.700
 131740335.025 5 102654944.00443  25069334.680
  25069341.258          33.900          18.600
 108883679.232 8  84844542.45646  20719854.195
  20719858.160          50.200          41.300
 120930052.616 7  94231225.79944  23012174.328
  23012179.016          42.300          25.800
 107940922.637 8  84109881.91847  20540460.773
  20540462.387          50.700          43.100
 127316538.225 7  99207780.13544  24227541.719
  24227552.066          43.200          27.500
 131064746.210 6 102128394.77042  24940792.672
  24940798.066          38.600          16.900
 11 11 22  2 17  0.0000000  0 10G09G11G12G14G15G18G21G22G25G31
 112952940.619 8  88015418.19446  21494227.063
  21494231.348          49.600          36.600
 132853903.503 6                  25281253.500
                        36.000
 123771843.677 7  96445644.67144  23552999.148
  23553003.723          44.200          25.600
 112382177.550 8  87570568.33146  21385607.000
  21385611.289          49.900          38.500
 131827156.563 5 102722596.95443  25085856.023
  25085862.773          34.800          19.600
 108917966.454 8  84871259.75646  20726378.727
  20726382.762          49.300          40.800
 121033820.788 7  94312084.04344  23031921.109
  23031925.633          42.700          25.600
 107905110.820 8  84081976.61047  20533646.188
  20533647.336          50.700          43.400
 127225465.566 6  99136814.53544  24210211.258
  24210220.563          40.900          26.200
 130950388.166 6 102039284.72343  24919030.891
  24919036.219          39.200          18.300
 11 11 22  2 17 30.0000000  0 10G09G11G12G14G15G18G21G22G25G31
 113028036.174 8  88073934.21846  21508517.242
  21508521.719          48.800          36.400
 132788031.595 6                  25268717.633
                        38.300
 123705824.799 7  96394201.41844  23540436.195
  23540441.309          45.000          27.400
 112341125.240 8  87538579.53746  21377795.023
  21377798.855          49.500          38.400
 131913948.872 6 102790227.19043  25102373.391
  25102378.977          36.200          23.500
 108952647.478 8  84898283.91446  20732978.461
  20732983.008          50.200          40.500
 121137771.503 7  94393084.59244  23051701.469
  23051705.934          43.000          25.600
 107869636.361 8  84054334.18047  20526895.258
  20526897.023          50.000          43.300
 127134453.014 7  99065895.81444  24192891.383
  24192901.375          42.000          24.400
 130836096.153 6 101950226.14543  24897282.063
  24897286.961          41.600          22.600
 11 11 22  2 18  0.0000000  0 10G09G11G12G14G15G18G21G22G25G31
 113103601.826 8  88132816.55846  21522896.930
  21522901.488          49.100          37.100
 132722562.342 6 103420182.33342  25256259.859
  25256265.219          39.700          17.400
 123640137.736 7  96343016.71844  23527936.375
  23527941.609          45.500          29.700
 112300307.859 8  87506773.78946  21370027.336
  21370031.547          49.000          38.400
 132000711.475 6 102857834.24643  25118883.016
  25118890.492          40.500          22.600
 108987722.571 8  84925615.14946  20739653.336
  20739656.895          50.100          40.600
 121241902.030 7  94474225.19644  23071517.805
  23071521.883          43.000          26.700
 107834500.975 8  84026955.96247  20520209.023
  20520210.910          50.200          43.400
 127043503.956 7  98995026.47544  24175584.648
  24175594.305          43.600          25.400
 130721872.607 6 101861220.85944  24875546.016
  24875551.645          41.100          24.300
 11 11 22  2 18 30.0000000  0 10G09G11G12G14G15G18G21G22G25G31
 113179634.697 8  88192062.94046  21537365.625
  21537370.598          48.000          37.500
 132657497.043 6 103369482.21443  25243877.477
  25243883.719          40.000          18.300
 123574785.554 7  96292092.97144  23515500.203
  23515505.926          44.900          29.800
 112259725.280 8  87475151.01646  21362304.742
  21362308.559          48.300          38.300
 132087444.214 6 102925418.13344  25135388.164
  25135394.406          40.500          25.000
 109023192.026 8  84953253.66446  20746402.820
  20746406.754          50.200          40.500
 121346208.950 7  94555503.27544  23091366.063
  23091370.574          43.500          27.100
 107799706.275 8  83999843.21747  20513587.898
  20513589.707          50.000          43.800
 126952621.368 7  98924208.93444  24158290.367
  24158299.023          42.900          25.800
 130607719.452 6 101772270.46443  24853823.125
  24853828.680          40.900          23.900
 11 11 22  2 19  0.0000000  0 10G09G11G12G14G15G18G21G22G25G31
 113256131.989 7  88251671.21946  21551922.281
  21551927.500          47.500          37.300
 132592837.885 6 103319098.47843  25231574.688
  25231579.410          39.600          19.000
 123509771.164 7  96241432.45545  23503127.945
  23503133.828          44.300          30.400
 112219377.175 8  87443710.94246  21354626.789
  21354630.902          48.900          38.200
 132174146.546 6 102992978.28443  25151887.242
  25151892.965          39.700          22.600
 109059055.849 8  84981199.48546  20753227.641
  20753231.598          49.900          40.500
 121450689.439 7  94636916.58744  23111248.086
  23111252.855          42.700          25.000
 107765254.495 8  83972997.67347  20507031.984
  20507034.043          50.300          43.900
 126861808.373 7  98853445.70844  24141009.813
  24141017.895          44.700          27.700
 130493638.881 7 101683376.56343  24832114.633
  24832119.648          42.100          23.200
 11 11 22  2 19 30.0000000  0 10G09G11G12G14G15G18G21G22G25G31
 113333090.999 8  88311639.27446  21566566.906
  21566572.344          48.200          37.200
 132528586.795 6 103269032.71342  25219346.938
  25219352.715          40.000          17.400
 123445097.816 7  96191037.71645  23490821.250
  23490827.219          44.500          30.800
 112179263.282 8  87412453.37646  21346993.086
  21346997.410          48.400          38.400
 132260818.433 6 103060514.71443  25168380.328
  25168386.348          40.800          22.000
 109095314.721 8  85009453.12946  20760127.133
  20760130.914          50.900          40.600
 121555340.516 7  94718462.84344  23131162.578
  23131167.793          43.100          26.300
 107731146.342 8  83946419.89947  20500541.641
  20500543.352          49.400          43.200
 126771068.011 7  98782739.01344  24123742.469
  24123750.805          45.200          28.900
 130379633.504 6 101594541.30344  24810420.039
  24810425.059          41.400          24.200
 11 11 22  2 20  0.0000000  0 10G09G11G12G14G15G18G21G22G25G31
 113410508.674 8  88371964.73546  21581299.148
  21581304.238          48.500          37.000
 132464745.182 6 103219286.07043  25207198.680
  25207203.598          39.300          18.300
 123380768.746 7  96140911.25445  23478580.234
  23478585.484          44.200          31.300
 112139383.421 8  87381378.16946  21339404.594
  21339408.805          48.400          38.000
 132347459.242 6 103128026.98243  25184866.867
  25184873.305          38.200          19.900
 109131968.710 8  85038014.65946  20767102.531
  20767106.129          51.400          41.100
 121660159.027 6  94800139.54044  23151108.805
  23151113.727          41.600          24.100
 107697383.234 8  83920110.98747  20494116.805
  20494118.410          49.300          43.400
 126680403.389 7  98712091.33244  24106489.547
  24106497.605          44.100          29.000
 130265705.203 6 101505766.02343  24788739.008
  24788745.762          41.000          22.500
 11 11 22  2 20 30.0000000  0 10G09G11G12G14G15G18G21G22G25G31
 113488382.018 8  88432645.25946  21596118.609
  21596123.328          48.100          37.200
 132401315.499 6 103169860.45442  25195128.602
  25195133.211          37.900          17.800
 123316786.551 7  96091055.09545  23466403.914
  23466410.711          44.300          31.600
 112099737.301 8  87350485.08946  21331859.859
  21331863.910          48.700          38.000
 132434068.793 5 103195514.86843  25201347.367
  25201354.980          35.400          18.300
 109169017.945 8  85066884.17546  20774152.500
  20774156.461          50.800          40.500
 121765142.396 6  94881944.69044  23171087.422
  23171092.102          41.600          26.000
 107663967.478 8  83894072.73747  20487757.789
  20487759.520          50.000          44.100
 126589817.607 7  98641505.07444  24089250.828
  24089260.242          42.600          29.300
 130151856.302 6 101417052.66344  24767074.938
  24767080.324          41.000          24.300
 11 11 22  2 21  0.0000000  0 10G09G11G12G14G15G18G21G22G25G31
 113566708.266 8  88493678.69945  21611023.000
  21611028.043          48.200          35.600
 132338299.400 6 103120757.07643  25183137.430
  25183141.953          40.800          18.600
 123253154.317 7  96041471.56545  23454295.094
  23454301.879          43.700          31.500
 112060324.523 8  87319773.85246  21324359.891
  21324364.078          48.800          37.900
 132520646.782 6 103262977.99043  25217824.938
  25217831.305          36.300          20.600
 109206462.857 8  85096062.00046  20781278.500
  20781282.324          50.800          40.400
 121870287.545 6  94963875.91144  23191094.906
  23191100.105          41.400          24.900
 107630900.691 8  83868306.41547  20481465.656
  20481467.414          49.900          43.600
 126499313.959 7  98570982.89544  24072028.000
  24072037.590          42.300          28.300
 130038089.185 6 101328402.92444  24745425.648
  24745431.227          41.300          25.700
 11 11 22  2 21 30.0000000  0 10G09G11G12G14G15G18G21G22G25G31
 113645484.926 7  88555063.09146  21626014.031
  21626018.910          47.800          36.200
 132275698.706 6 103071977.38643  25171224.109
  25171229.477          39.700          19.600
 123189875.271 7  95992163.29845  23442253.586
  23442259.902          43.500          30.700
 112021145.210 8  87289244.52046  21316904.000
  21316908.531          49.400          38.100
 132607192.790 6 103330416.39744  25234293.414
  25234299.738          40.400          24.200
 109244303.827 8  85125548.45746  20788478.898
  20788482.941          50.900          40.700
 121975591.535 7  95045930.91644  23211134.109
  23211138.805          42.900          25.800
 107598184.636 8  83842813.38347  20475239.984
  20475241.414          50.400          44.100
 126408895.684 6  98500527.16544  24054822.180
  24054832.492          39.600          26.200
 129924405.963 6 101239818.57244  24723792.742
  24723798.137          41.300          24.900
 11 11 22  2 22  0.0000000  0 10G09G11G12G14G15G18G21G22G25G31
 113724708.727 7  88616795.91845  21641089.547
  21641094.516          47.700          35.400
 132213515.158 6 103023522.71243  25159391.125
  25159395.621          38.700          18.600
 123126951.887 7  95943132.15745  23430279.414
  23430285.727          43.700          30.800
 111982198.853 8  87258896.71446  21309492.914
  21309497.273          48.700          37.900
 132693706.828 6 103397829.85344  25250756.594
  25250763.484          39.200          25.000
 109282540.454 8  85155343.21946  20795755.297
  20795758.871          50.700          40.000
 122081051.393 7  95128107.39044  23231202.672
  23231207.398          42.900          25.400
 107565820.422 8  83817594.52047  20469081.047
  20469082.449          50.200          44.000
 126318565.473 6  98430140.11544  24037632.500
  24037642.758          39.900          26.900
 129810808.832 6 101151301.30544  24702175.719
  24702181.633          40.600          24.000
 11 11 22  2 22 30.0000000  0 10G09G11G12G14G15G18G21G22G25G31
 113804376.528 7  88678874.72545  21656250.195
  21656254.773          47.800          35.900
 132151750.225 6 102975394.24043  25147637.508
  25147642.469          39.700          20.100
 123064387.182 7  95894380.48745  23418373.891
  23418380.129          44.400          30.800
 111943485.027 8  87228730.10546  21302125.844
  21302130.156          48.200          38.100
 132780188.152 6 103465217.81844  25267213.648
  25267220.531          40.100          26.200
 109321172.919 8  85185446.41146  20803106.750
  20803110.344          50.200          40.800
 122186664.272 7  95210403.07244  23251299.813
  23251304.797          43.400          24.700
 107533809.502 8  83792650.94847  20462989.297
  20462991.426          50.000          43.700
 126228326.755 7  98359824.31344  24020461.336
  24020470.480          42.600          28.900
 129697299.948 6 101062852.79344  24680576.063
  24680581.074          40.400          26.200
 11 11 22  2 23  0.0000000  0 10G09G11G12G14G15G18G21G22G25G31
 113884485.720 8  88741297.47146  21671494.828
  21671498.918          48.700          36.100
 132090405.853 6 102927593.49043  25135963.273
  25135968.684          40.300          20.100
 123002184.441 7  95845910.89344  23406536.867
  23406543.117          42.600          29.900
 111905003.642 8  87198744.61546  21294803.063
  21294807.598          49.500          38.300
 132866636.752 6 103532580.28344  25283664.648
  25283671.203          38.600          24.200
 109360201.812 8  85215858.51646  20810533.695
  20810537.559          50.800          40.800
 122292427.078 7  95292815.61043  23271426.063
  23271430.547          43.000          22.900
 107502153.891 8  83767984.24847  20456965.852
  20456967.633          49.300          43.800
 126138182.674 7  98289582.27344  24003307.508
  24003316.305          43.400          27.900
 129583881.633 7 100974474.84544  24658992.820
  24658998.590          42.300          26.500
 11 11 22  2 23 30.0000000  0 10G09G11G12G14G15G18G21G22G25G31
 113965033.536 8  88804062.00645  21686822.031
  21686826.207          48.300          35.500
 132029483.749 6 102880121.76443  25124370.523
  25124375.227          37.900          19.600
 122940346.590 7  95797725.62645  23394769.477
  23394775.496          43.100          30.400
 111866754.305 8  87168939.93546  21287524.547
  21287528.902          49.500          37.900
 132953052.241 6 103599916.96643  25300108.453
  25300115.359          38.600          23.300
 109399627.152 8  85246579.53946  20818036.578
  20818040.047          50.800          40.400
 122398336.945 7  95375342.70743  23291580.141
  23291585.039          43.100          23.400
 107470854.921 8  83743595.43547  20451009.828
  20451011.508          50.400          43.900
 126048136.405 7  98219416.41244  23986171.734
  23986180.809          45.100          28.100
 129470556.290 6 100886169.39644  24637428.406
  24637433.598          41.200          25.500
 11 11 22  2 24  0.0000000  0 10G09G11G12G14G15G18G21G22G25G31
 114046016.934 8  88867165.95145  21702232.461
  21702236.906          48.500          35.600
 131968985.837 6 102832980.55143  25112858.430
  25112863.316          40.300          20.600
 122878876.206 7  95749826.72045  23383072.648
  23383077.773          44.300          30.500
 111828736.688 8  87139315.82846  21280290.039
  21280294.352          49.900          38.700
 133039434.074 5 103667227.36743  25316546.000
  25316553.625          34.800          18.300
 109439448.774 8  85277609.36446  20825614.109
  20825617.504          50.300          40.600
 122504390.686 7  95457981.97143  23311760.516
  23311766.598          42.200          23.500
 107439914.151 8  83719485.74547  20445122.344
  20445123.785          50.300          43.700
 125958190.785 7  98149328.89844  23969056.195
  23969064.574          45.800          28.300
 129357325.665 6 100797937.76043  24615880.945
  24615886.348          40.700          22.800
 11 11 22  2 24 30.0000000  0 10G09G11G12G14G15G18G21G22G25G31
 114127432.946 8  88930606.99445  21717725.883
  21717730.059          48.300          35.100
 131908913.581 6 102786171.05943  25101426.484
  25101432.207          38.400          19.900
 122817776.516 7  95702216.64445  23371445.195
  23371451.109          44.300          30.200
 111790950.887 8  87109872.35446  21273100.125
  21273104.055          49.700          38.500
 133125782.045 5 103734511.47442  25332977.602
  25332985.250          33.300          16.300
 109479667.143 8  85308948.32646  20833267.086
  20833271.086          51.000          40.300
 122610585.667 6  95540731.25243  23331968.859
  23331974.551          41.100          21.800
 107409333.300 8  83695656.51347  20439302.617
  20439304.320          50.000          43.700
 125868349.231 7  98079322.53544  23951960.078
  23951968.699          44.600          28.000
 129244192.287 6 100709781.90044  24594352.266
  24594357.676          41.400          24.700
 11 11 22  2 25  0.0000000  0 10G09G11G12G14G15G18G21G22G25G31
 114209278.839 8  88994383.01745  21733300.234
  21733304.664          48.600          35.400
 131849269.220 6 102739694.96943  25090077.758
  25090081.305          37.600          19.300
 122757050.638 7  95654897.85344  23359889.406
  23359895.031          45.100          29.700
 111753396.400 8  87080609.12146  21265953.477
  21265957.754          49.900          38.600
 133212096.451 5 103801769.40142  25349402.492
  25349410.418          34.100          15.600
 109520282.288 8  85340596.47346  20840996.227
  20841000.066          51.300          40.600
 122716918.759 6  95623588.11444  23352204.750
  23352209.406          41.800          24.300
 107379114.027 8  83672109.02947  20433552.133
  20433553.684          50.300          44.100
 125778614.911 7  98009399.78444  23934884.102
  23934892.574          44.500          27.300
 129131158.582 6 100621703.70944  24572842.922
  24572848.590          41.600          25.800
 11 11 22  2 25 30.0000000  0 10G09G11G12G14G15G18G21G22G25G31
 114291551.631 8  89058491.68645  21748955.813
  21748960.730          48.900          35.800
 131790054.457 6 102693553.61743  25078809.516
  25078814.043          36.200          19.900
 122696700.776 7  95607872.06944  23348405.320
  23348411.223          43.900          29.400
 111716073.035 8  87051525.99246  21258851.063
  21258855.273          50.200          39.000
 133298376.474 6 103869000.56242  25365822.273
  25365828.117          36.700          17.400
 109561294.462 8  85372553.99946  20848800.305
  20848804.141          51.100          40.200
 122823386.960 6  95706550.27144  23372463.992
  23372469.324          41.800          24.900
 107349257.797 8  83648844.42847  20427870.688
  20427872.328          51.200          44.700
 125688990.784 7  97939562.83344  23917828.672
  23917838.379          44.000          28.300
 129018226.587 6 100533704.73344  24551352.906
  24551357.949          41.200          24.600
 11 11 22  2 26  0.0000000  0 10G09G11G12G14G15G18G21G22G25G31
 114374248.306 8  89122930.64045  21764693.414
  21764698.012          49.400          35.000
 131731270.824 6 102647748.27443  25067621.930
  25067627.629          37.900          19.600
 122636730.721 7  95561142.22644  23336993.594
  23336998.813          45.000          29.800
 111678980.499 8  87022622.72046  21251792.711
  21251796.684          49.900          38.800
 133384621.889 6 103936204.79242  25382233.164
  25382239.793          38.900          17.400
 109602703.793 8  85404820.99746  20856680.484
  20856684.172          51.200          40.000
 122929987.944 7  95789615.92044  23392750.367
  23392755.102          42.800          24.200
 107319766.366 8  83625864.09547  20422258.555
  20422260.316          50.900          44.300
 125599480.372 7  97869814.53745  23900795.648
  23900805.102          43.500          30.900
 128905398.864 7 100445787.10144  24529881.906
  24529887.930          42.000          25.400
 11 11 22  2 26 30.0000000  0 10G09G11G12G14G15G18G21G22G25G31
 114457365.322 8  89187697.14145  21780509.945
  21780514.727          48.800          35.600
 131672919.450 5 102602279.78542  25056517.039
  25056523.715          33.600          17.400
 122577142.703 7  95514710.08045  23325654.703
  23325659.480          45.300          30.300
 111642118.132 8  86993898.80746  21244777.570
  21244782.266          50.200          39.200
 133470832.111 7 104003381.56143  25398639.891
  25398645.449          42.500          22.200
 109644509.600 8  85437396.92846  20864635.859
  20864639.707          50.900          39.800
 123036717.983 7  95872782.13044  23413060.367
  23413065.141          42.600          24.700
 107290640.576 8  83603168.67247  20416716.266
  20416717.793          50.500          43.800
 125510086.225 7  97800156.87145  23883783.750
  23883793.598          43.700          30.000
 128792676.860 6 100357951.91543  24508431.516
  24508438.355          41.300          23.600
 11 11 22  2 27  0.0000000  0 10G09G11G12G14G15G18G21G22G25G31
 114540900.841 8  89252789.74745  21796405.789
  21796410.855          48.700          35.700
 131615003.216 5 102557150.27643  25045497.250
  25045502.477          33.400          18.300
 122517939.907 7  95468578.08545  23314388.063
  23314393.270          45.200          30.300
 111605486.656 8  86965354.80646  21237807.289
  21237811.180          49.400          39.000
 133557008.089 7 104070531.61244  25415038.680
  25415044.500          42.800          24.100
 109686713.268 8  85470282.88246  20872666.688
  20872670.660          51.300          39.800
 123143574.872 7  95956047.19344  23433394.188
  23433399.543          42.200          25.000
 107261883.263 8  83580760.37047  20411243.953
  20411245.316          50.200          44.100
 125420812.542 7  97730593.04945  23866795.742
  23866805.340          45.300          31.500
 128680063.887 7 100270201.65643  24487001.977
  24487007.578          42.000          23.200
 11 11 22  2 27 30.0000000  0 10G09G11G12G14G15G18G21G22G25G31
 114624851.195 8  89318205.58545  21812381.180
  21812385.898          48.600          35.800
 131557522.722 5 102512360.33842  25034558.609
  25034564.066          34.100          16.300
 122459124.934 7  95422748.30445  23303195.961
  23303200.938          44.700          30.200
 111569084.581 8  86936989.56246  21230879.984
  21230884.539          48.700          39.400
 133643148.368 6 104137653.82744  25431429.969
  25431437.098          41.000          26.100
 109729313.557 8  85503477.89146  20880773.531
  20880777.320          51.600          39.800
 123250554.535 7  96039407.89943  23453752.422
  23453757.160          42.700          23.300
 107233494.811 8  83558639.50347  20405841.797
  20405843.266          50.300          43.900
 125331661.553 7  97661124.82945  23849831.289
  23849840.063          44.900          31.200
 128567561.083 7 100182537.21143  24465593.969
  24465599.090          42.600          22.600
 11 11 22  2 28  0.0000000  0 10G09G11G12G14G15G18G21G22G25G31
 114709213.556 7  89383942.48045  21828434.891
  21828439.633          47.800          35.400
 131500479.580 6 102467911.27342  25023703.664
  25023709.223          37.600          17.400
 122400700.473 7  95377222.81545  23292078.406
  23292083.375          45.600          30.400
 111532912.057 8  86908803.18746  21223996.414
  21224000.672          49.100          39.500
 133729252.770 7 104204748.12244  25447815.273
  25447822.000          42.200          27.900
 109772310.943 8  85536982.32146  20888955.586
  20888959.777          50.900          39.900
 123357654.902 6  96122862.68743  23474132.484
  23474137.340          41.000          22.600
 107205477.062 8  83536807.49147  20400509.953
  20400511.730          49.700          43.900
 125242636.697 7  97591754.95344  23832890.070
  23832899.805          43.900          29.700
 128455170.967 7 100094960.59344  24444206.516
  24444211.969          43.100          24.200
 11 11 22  2 28 30.0000000  0 10G09G11G12G14G15G18G21G22G25G31
 114793984.841 7  89449998.02145  21844566.344
  21844570.969          47.500          35.200
 131443875.559 5 102423804.29043  25012933.023
  25012937.699          33.400          19.000
 122342669.701 7  95332004.11745  23281035.867
  23281040.316          45.500          30.500
 111496968.425 8  86880795.16946  21217157.016
  21217161.148          49.500          40.000
 133815321.055 6 104271814.29744  25464193.336
  25464199.992          40.800          24.800
 109815705.220 8  85570796.03146  20897213.133
  20897217.004          51.200          40.300
 123464872.439 6  96206408.72843  23494535.391
  23494540.406          40.800          22.600
 107177831.259 8  83515265.30547  20395249.406
  20395250.855          50.600          44.300
 125153740.749 7  97522485.44244  23815974.078
  23815982.512          44.500          27.800
 128342895.354 7 100007473.22044  24422840.828
  24422846.293          43.200          24.700
 11 11 22  2 29  0.0000000  0 10G09G11G12G14G15G18G21G22G25G31
 114879162.284 8  89516370.04945  21860774.563
  21860779.520          48.500          35.400
 131387712.428 6 102380040.87943  25002245.875
  25002250.547          38.600          19.600
 122285035.270 7  95287094.23745  23270068.055
  23270072.535          45.600          30.400
 111461254.065 8  86852965.80446  21210360.711
  21210364.914          49.500          40.100
 133901353.239 6 104338852.27843  25480563.875
  25480571.633          37.600          23.000
 109859496.750 8  85604919.28546  20905546.352
  20905550.449          51.200          40.000
 123572204.667 6  96290044.16043  23514959.734
  23514965.930          39.700          22.900
 107150559.619 8  83494014.67447  20390059.680
  20390061.824          50.500          44.300
 125064977.218 6  97453319.09544  23799082.695
  23799090.656          41.700          26.400
 128230737.040 7  99920077.24144  24401497.734
  24401502.707          42.300          26.100
 11 11 22  2 29 30.0000000  0 10G09G11G12G14G15G18G21G22G25G31
 114964742.593 8  89583055.98745  21877060.344
  21877064.977          48.100          35.200
 131331991.614 6 102336622.16943  24991641.578
  24991646.945          36.600          19.900
 122227799.685 7  95242495.17445  23259176.258
  23259181.563          45.500          30.800
 111425768.561 8  86825314.77046  21203607.820
  21203612.160          48.900          39.500
 133987349.093 5 104405861.98343  25496928.891
  25496936.094          33.200          18.300
 109903685.281 8  85639351.89146  20913955.547
  20913959.215          51.600          40.300
 123679648.692 6  96373766.70943  23535405.047
  23535411.609          39.300          21.800
 107123663.037 8  83473056.29547  20384941.383
  20384942.969          49.900          44.400
 124976349.160 7  97384258.30744  23782217.078
  23782225.855          42.200          27.800
 128118697.944 7  99832774.15943  24380177.648
  24380182.164          43.500          23.500
 11 11 22  2 30  0.0000000  0 10G09G11G12G14G15G18G21G22G25G31
 115050723.146 7  89650053.81145  21893422.320
  21893426.934          46.700          33.900
 131276714.906 6 102293549.49543  24981123.094
  24981128.094          37.900          19.900
 122170966.453 7  95198209.60345  23248360.945
  23248365.773          45.100          30.400
 111390511.614 8  86797841.83046  21196898.930
  21196902.984          49.800          39.600
 134073308.415 5 104472843.15042  25513283.484
  25513293.832          31.300          16.300
 109948271.133 8  85674094.11746  20922439.727
  20922443.746          51.400          39.700
 123787201.512 6  96457574.06243  23555872.219
  23555877.313          41.500          22.200
 107097143.334 8  83452391.59447  20379894.984
  20379896.648          50.200          44.200
 124887859.964 7  97315305.76244  23765378.328
  23765386.781          43.000          28.700
 128006780.260 7  99745565.72944  24358880.055
  24358884.840          42.100          24.200
 11 11 22  2 30 30.0000000  0 10G09G11G12G14G15G18G21G22G25G31
 115137100.826 7  89717361.09945  21909859.086
  21909863.699          47.300          34.500
 131221883.616 6 102250823.83343  24970688.805
  24970694.227          38.700          19.900
 122114537.896 7  95154239.37845  23237622.945
  23237628.309          44.100          31.800
 111355482.580 8  86770546.48746  21190232.938
  21190237.133          49.800          39.300
 134159230.666 6 104539795.45643  25529636.383
  25529644.340          36.000          18.300
 109993253.759 8  85709145.48746  20930999.797
  20931003.727          52.000          40.400
 123894859.747 6  96541463.52143  23576359.344
  23576364.754          40.100          22.300
 107071002.026 8  83432021.74447  20374920.258
  20374921.879          50.000          44.500
 124799512.628 7  97246463.75745  23748565.906
  23748574.938          42.400          30.700
 127894986.248 7  99658453.63544  24337605.813
  24337610.996          42.000          24.500
 11 11 22  2 31  0.0000000  0 10G09G11G12G14G15G18G21G22G25G31
 115223872.931 7  89784975.72145  21926371.094
  21926375.336          47.000          34.000
 131167499.305 6 102208446.51943  24960338.898
  24960345.270          39.700          19.600
 122058516.552 7  95110586.46145  23226962.344
  23226967.609          44.600          32.100
 111320681.530 8  86743428.79746  21183610.750
  21183614.551          48.100          39.400
 134245116.029 5 104606718.98642  25545978.789
  25545988.023          31.300          16.900
 110038633.566 8  85744506.35346  20939635.438
  20939639.285          51.100          40.400
 124002621.122 6  96625433.33943  23596865.906
  23596870.789          39.700          21.500
 107045240.684 8  83411947.97147  20370017.938
  20370019.602          50.700          44.600
 124711310.409 7  97177734.81945  23731782.070
  23731790.723          44.000          32.100
 127783318.154 7  99571439.67444  24316355.922
  24316361.246          42.100          24.700
 11 11 22  2 31 30.0000000  0 10G09G11G12G14G15G18G21G22G25G31
 115311035.967 7  89852894.96945  21942957.617
  21942962.305          47.800          34.400
 131113563.710 6 102166418.81243  24950077.102
  24950081.500          38.400          19.300
 122002905.353 7  95067253.10245  23216379.492
  23216385.203          44.300          31.300
 111286108.047 8  86716488.42446  21177031.367
  21177035.684          48.300          39.400
 134330963.948 6 104673613.45343  25562317.367
  25562323.777          39.600          18.300
 110084410.192 8  85780176.43546  20948346.180
  20948350.488          51.700          40.200
 124110482.213 6  96709480.88143  23617391.391
  23617396.574          39.800          22.600
 107019860.479 8  83392171.18747  20365188.555
  20365190.262          50.200          44.800
 124623256.342 7  97109121.35445  23715025.766
  23715034.801          44.400          33.700
 127671777.846 7  99484525.27544  24295130.719
  24295135.918          42.000          27.000
 11 11 22  2 32  0.0000000  0 10G09G11G12G14G15G18G21G22G25G31
 115398587.146 7  89921116.66045  21959618.484
  21959622.805          47.000          34.600
 131060078.181 6 102124741.85943  24939898.078
  24939903.371          39.700          19.300
 121947707.237 7  95024241.64445  23205875.977
  23205881.539          44.600          32.000
 111251761.811 8  86689725.12746  21170495.922
  21170499.395          48.500          39.800
 134416773.858 5 104740478.27142  25578645.617
  25578653.262          35.800          16.900
 110130583.524 8  85816155.64046  20957132.688
  20957136.594          51.600          40.000
 124218439.997 6  96793603.74543  23637934.984
  23637940.605          41.500          22.600
 106994862.891 8  83372692.54847  20360431.555
  20360433.242          50.900          44.700
 124535353.610 7  97040625.79145  23698298.109
  23698307.559          44.900          32.100
 127560367.642 7  99397712.25944  24273930.367
  24273935.566          42.100          26.700
 11 11 22  2 32 30.0000000  0 10G09G11G12G14G15G18G21G22G25G31
 115486523.524 7  89989638.51245  21976351.766
  21976356.488          46.600          33.900
 131007044.512 6 102083416.92143  24929806.383
  24929811.660          41.800          19.000
 121892924.942 7  94981554.17345  23195450.789
  23195456.711          45.100          32.300
 111217642.751 8  86663138.85546  21164002.867
  21164007.246          48.900          38.900
 134502546.333 4                  25594967.648
                        29.100
 110177153.860 8  85852444.20146  20965994.672
  20965998.691          51.000          39.700
 124326491.930 6  96877799.98343  23658496.688
  23658502.129          40.700          22.800
 106970250.129 8  83353513.77347  20355748.016
  20355749.609          50.900          44.900
 124447605.771 7  96972250.92745  23681600.586
  23681609.270          43.700          31.400
 127449090.029 6  99311002.53244  24252755.227
  24252759.422          41.700          26.500
 11 11 22  2 33  0.0000000  0  9G09G11G12G14G18G21G22G25G31
 115574842.170 7  90058458.22345  21993158.531
  21993163.098          46.400          34.300
 130954464.053 6 102042445.10442  24919800.453
  24919805.715          40.000          17.400
 121838561.167 7  94939192.84945  23185106.313
  23185111.297          44.900          31.900
 111183750.633 8  86636729.42346  21157553.281
  21157557.281          48.000          39.300
 110224121.098 8  85889042.02346  20974932.359
  20974936.367          51.700          39.400
 124434635.336 6  96962067.48343  23679075.797
  23679080.898          40.500          21.500
 106946023.581 8  83334635.94347  20351138.031
  20351139.066          50.700          44.300
 124360015.872 7  96903999.15144  23664932.398
  23664940.895          42.800          29.600
 127337947.149 6  99224397.78144  24231604.664
  24231610.211          41.700          27.900
 11 11 22  2 33 30.0000000  0  9G09G11G12G14G18G21G22G25G31
 115663540.144 7  90127573.52245  22010037.430
  22010041.664          47.500          34.600
 130902338.314 6 102001827.68943  24909881.242
  24909886.121          41.800          19.300
 121784618.772 7  94897159.87745  23174841.281
  23174846.520          44.400          32.400
 111150085.140 8  86610496.57146  21151146.992
  21151151.512          48.600          39.200
 110271485.043 8  85925948.95246  20983945.477
  20983949.852          51.700          39.200
 124542867.156 6  97046403.88543  23699670.992
  23699677.051          40.400          20.100
 106922184.245 8  83316059.84047  20346601.352
  20346602.949          50.900          44.300
 124272587.060 7  96835872.84644  23648294.203
  23648303.246          43.000          27.400
 127226941.172 6  99137899.68844  24210480.859
  24210486.223          40.100          26.800
 11 11 22  2 34  0.0000000  0  9G09G11G12G14G18G21G22G25G31
 115752614.638 7  90196982.20545  22026987.461
  22026992.152          45.400          34.400
 130850668.638 6 101961565.60043  24900048.992
  24900053.449          40.400          18.600
 121731100.261 7  94855457.21445  23164656.555
  23164662.418          44.500          32.700
 111116645.898 8  86584440.02946  21144783.500
  21144787.891          48.200          39.600
 110319245.717 8  85963165.05046  20993033.789
  20993038.070          50.800          39.700
 124651184.376 6  97130806.84543  23720282.961
  23720288.883          39.300          21.300
 106898733.945 8  83297786.87447  20342138.508
  20342140.719          50.900          44.800
 124185322.464 7  96767874.51744  23631689.391
  23631696.805          42.400          26.800
 127116074.016 6  99051509.80144  24189383.648
  24189388.961          41.400          27.000
 11 11 22  2 34 30.0000000  0  9G09G11G12G14G18G21G22G25G31
 115842062.362 7  90266681.72645  22044008.828
  22044013.555          47.000          34.600
 130799456.235 6 101921659.80343  24890303.883
  24890307.703          40.100          18.600
 121678007.649 7  94814086.40745  23154553.586
  23154558.805          44.400          31.800
 111083432.340 8  86558559.34446  21138463.430
  21138467.660          49.600          39.000
 110367402.391 8  86000689.70046  21002197.969
  21002202.055          51.000          39.400
 124759584.005 6  97215273.99443  23740911.313
  23740916.262          40.400          21.100
 106875673.387 8  83279817.61147  20337750.320
  20337751.980          51.100          44.800
 124098225.096 7  96700006.48244  23615115.297
  23615123.160          44.500          28.000
 127005347.714 6  98965229.63144  24168313.227
  24168318.316          40.400          27.300
 11 11 22  2 35  0.0000000  0  9G09G11G12G14G18G21G22G25G31
 115931880.221 7  90336669.65145  22061100.531
  22061105.410          46.200          34.000
 130748702.612 6 101882111.54442  24880644.336
  24880650.855          40.500          17.800
 121625344.655 7  94773050.36445  23144531.836
  23144537.578          45.500          31.900
 111050444.483 8  86532854.53046  21132186.055
  21132190.145          48.500          40.100
 110415955.464 8  86038523.24446  21011437.422
  21011441.363          50.500          38.900
 124868063.160 6  97299803.10643  23761554.984
  23761559.703          41.300          21.500
 106853004.771 8  83262153.75147  20333436.742
  20333438.609          51.000          44.800
 124011298.319 7  96632271.34545  23598573.805
  23598581.863          44.200          30.200
 126894764.840 7  98879061.19044  24147269.672
  24147274.613          42.200          24.900
 11 11 22  2 35 30.0000000  0  9G09G11G12G14G18G21G22G25G31
 116022065.344 7  90406943.76245  22078262.453
  22078266.797          46.100          34.400
 130698409.336 6 101842921.98643  24871075.500
  24871079.352          41.400          19.600
 121573113.545 7  94732350.84045  23134592.906
  23134598.344          45.600          32.000
 111017682.019 8  86507325.34446  21125951.602
  21125955.816          48.800          39.400
 110464904.481 8  86076665.31646  21020752.125
  21020756.113          51.200          39.200
 124976618.476 6  97384391.58643  23782211.852
  23782217.105          41.900          21.800
 106830729.460 8  83244796.37147  20329197.891
  20329199.344          50.600          44.600
 123924545.392 7  96564671.72545  23582064.578
  23582073.648          46.000          32.200
 126784327.416 6  98793006.09644  24126254.188
  24126258.781          40.900          24.800
 11 11 22  2 36  0.0000000  0  9G09G11G12G14G18G21G22G25G31
 116112614.733 7  90477501.71345  22095493.813
  22095497.980          45.800          34.100
 130648577.654 6 101804092.10843  24861592.789
  24861596.961          39.200          20.100
 121521316.779 7  94691989.78145  23124736.125
  23124741.609          46.000          32.400
 110985144.526 8  86481971.45746  21119760.055
  21119763.551          49.100          39.100
 110514249.460 8  86115115.91146  21030141.906
  21030146.211          50.800          39.500
 125085247.360 6  97469037.43843  23802883.445
  23802888.465          41.600          22.000
 106808848.979 8  83227746.64647  20325034.125
  20325035.867          51.200          45.000
 123837969.393 7  96497209.98945  23565590.656
  23565598.852          46.300          32.900
 126674037.514 7  98707065.93144  24105266.594
  24105271.160          42.300          26.000
 11 11 22  2 36 30.0000000  0  9G09G11G12G14G18G21G22G25G31
 116203525.087 7  90548340.94945  22112793.039
  22112797.676          45.700          33.900
 130599208.995 6 101765623.04943  24852197.383
  24852202.383          37.600          19.300
 121469956.774 7  94651969.07545  23114962.477
  23114968.492          45.300          33.000
 110952831.710 8  86456792.65646  21113610.930
  21113615.047          48.900          39.500
 110563990.191 8  86153874.90346  21039607.383
  21039611.352          50.800          38.500
 125193946.971 6  97553738.32543  23823568.711
  23823573.711          41.400          21.100
 106787364.232 8  83211005.27647  20320945.516
  20320947.195          50.500          44.700
 123751573.444 7  96429888.56345  23549149.859
  23549158.469          45.800          33.000
 126563897.409 7  98621242.49544  24084308.203
  24084312.359          42.800          27.600
 11 11 22  2 37  0.0000000  0  9G09G11G12G14G18G21G22G25G31
 116294793.551 7  90619459.21745  22130161.055
  22130165.555          46.600          33.600
 130550304.311 6 101727515.53742  24842891.023
  24842896.137          37.100          17.800
 121419036.413 7  94612290.91245  23105272.805
  23105277.879          45.600          32.800
 110920743.360 8  86431788.75146  21107505.180
  21107508.977          48.700          39.800
 110614126.167 8  86192941.86746  21049148.359
  21049151.883          50.900          38.500
 125302714.587 6  97638492.25443  23844265.750
  23844271.211          38.900          19.000
 106766276.553 8  83194573.32247  20316932.961
  20316934.563          50.900          44.200
 123665360.645 7  96362709.84045  23532744.086
  23532752.438          45.800          32.200
 126453908.788 7  98535537.08944  24063377.688
  24063381.965          43.600          28.000
 11 11 22  2 37 30.0000000  0  9G09G11G12G14G18G21G22G25G31
 116386417.242 7  90690854.28945  22147595.969
  22147600.688          46.400          33.700
 130501865.484 5 101689771.07642  24833674.469
  24833678.836          35.000          17.800
 121368558.263 7  94572957.33345  23095667.172
  23095672.055          47.000          32.200
 110888879.638 8  86406959.88646  21101441.359
  21101445.016          48.600          39.000
 110664657.385 8  86232316.81546  21058763.969
  21058768.285          51.200          38.900
 125411547.196 6  97723296.82643  23864976.227
  23864981.355          37.400          20.600
 106745588.044 8  83178452.39847  20312996.305
  20312997.797          51.800          45.100
 123579334.335 7  96295676.42445  23516372.570
  23516381.988          44.700          32.500
 126344074.330 7  98449951.83644  24042476.359
  24042481.590          43.100          27.000
 11 11 22  2 38  0.0000000  0  9G09G11G12G14G18G21G22G25G31
 116478393.355 7  90762523.98945  22165098.586
  22165103.477          46.300          32.400
 130453893.674 6 101652390.50043  24824543.875
  24824550.230          37.200          19.000
 121318524.672 7  94533970.14745  23086146.352
  23086151.113          46.900          32.700
 110857239.843 8  86382305.50346  21095420.625
  21095424.598          49.900          39.600
 110715583.802 8  86271999.72046  21068454.945
  21068459.113          50.900          38.700
 125520441.554 6  97808149.49943  23885698.914
  23885703.797          39.000          19.600
 106725300.233 8  83162643.71447  20309135.234
  20309137.188          51.000          44.500
 123493497.843 7  96228790.92845  23500038.672
  23500048.020          44.300          31.900
 126234396.084 7  98364488.30544  24021605.477
  24021610.570          42.900          26.600
 11 11 22  2 38 30.0000000  0  9G09G11G12G14G18G21G22G25G31
 116570718.735 7  90834465.83045  22182667.414
  22182672.070          45.800          32.200
 130406390.226 5 101615374.92042  24815504.875
  24815510.121          34.500          16.900
 121268938.805 7  94495331.84645  23076710.359
  23076715.105          47.300          33.000
 110825823.512 8  86357825.25946  21089442.125
  21089445.926          50.000          39.400
 110766905.208 8  86311990.39846  21078221.141
  21078225.152          51.400          39.400
 125629395.489 6  97893048.54843  23906431.961
  23906437.133          39.200          20.400
 106705414.285 8  83147148.17847  20305351.305
  20305353.297          51.200          44.300
 123407854.293 7  96162055.76845  23483740.805
  23483749.758          45.300          30.400
 126124876.252 7  98279148.22444  24000764.789
  24000769.438          43.600          26.400
