     2.11           OBSERVATION DATA    G (GPS)             RINEX VERSION / TYPE
teqc  2019Feb25     root                20210522 15:05:49UTCPGM / RUN BY / DATE
Linux 2.4.21-27.ELsmp|Opteron|gcc|Linux 64|=+               COMMENT
teqc  2019Feb25     root                20210522 15:05:39UTCCOMMENT
     2.11           OBSERVATION DATA    M (MIXED)           COMMENT
teqc  2019Feb25     NOAA/NOS/NGS/CORS   20210511 00:39:56UTCCOMMENT
+39.764739464 (latitude)                                    COMMENT
-084.18064853 (longitude)                                   COMMENT
+196.575      (elevation)                                   COMMENT
+.000000      (antenna height)                              COMMENT
BIT 2 OF LLI FLAGS DATA COLLECTED UNDER A/S CONDITION       COMMENT
 SNR is mapped to RINEX snr flag value [0-9]                COMMENT
  L1 & L2: min(max(int(snr_dBHz/6), 0), 9)                  COMMENT
teqc.e edited: all SBAS satellites excluded                 COMMENT
teqc.e edited: all QZSS satellites excluded                 COMMENT
OHDT                                                        MARKER NAME
48                                                          MARKER NUMBER
David Beiter        OHDT                                    OBSERVER / AGENCY
4852K33878          TRIMBLE NETR8       48.01               REC # / TYPE / VERS
31177266            TRM57971.00     NONE                    ANT # / TYPE
   497796.5080 -4884306.6100  4058066.6380                  APPROX POSITION XYZ
        0.0000        0.0000        0.0000                  ANTENNA: DELTA H/E/N
     1     1                                                WAVELENGTH FACT L1/2
     8    L1    L2    C1    C2    P1    P2    S1    S2      # / TYPES OF OBSERV
    30.0000                                                 INTERVAL
teqc.w windowed: start @ 2021 May 10 00:00:00.000           COMMENT
teqc.w windowed:  end  @ 2021 May 11 00:00:00.000           COMMENT
teqc.w edited: all GLONASS satellites excluded              COMMENT
Forced Modulo Decimation to 30 seconds                      COMMENT
  2021     5    10     0     0    0.0000000     GPS         TIME OF FIRST OBS
                                                            END OF HEADER
 21  5 10  0  0  0.0000000  0 10G02G05G06G12G13G15G18G20G25G29
 116023891.561 8  90408274.92846  22078601.617
  22078603.031          48.400          37.500
 105487547.883 8  82198128.610 8  20073601.508    20073605.449
  20073605.629          49.600          53.300
 128858746.872 5 100409442.727 6  24520998.938    24521007.809
  24521007.332          35.700          38.600
 126355404.705 7  98458780.364 6  24044636.273    24044641.293
  24044640.715          42.500          37.300
 120654207.730 6  94016307.05944  22959725.391
  22959730.465          40.300          27.800
 127139757.346 7  99070008.828 6  24193897.883    24193903.133
  24193902.918          43.200          38.800
 131985530.782 6 102845882.819 7  25116010.070    25116016.086
  25116017.262          40.100          42.600
 114057659.145 7  88876130.28246  21704443.914
  21704447.555          47.500          37.100
 121624609.233 7  94772535.134 7  23144393.930    23144401.410
  23144400.633          44.300          42.800
 113887040.560 8  88743176.695 7  21671981.633    21671985.242
  21671985.297          49.200          46.600
 21  5 10  0  0 30.0000000  0 10G02G05G06G12G13G15G18G20G25G29
 116063609.879 8  90439224.24146  22086159.633
  22086161.934          48.200          38.000
 105481473.665 8  82193395.444 8  20072446.039    20072449.414
  20072449.512          49.400          52.800
 128938420.458 6 100471525.993 6  24536160.391    24536169.641
  24536168.984          36.400          41.700
 126457780.520 6  98538553.679 6  24064116.477    24064123.039
  24064122.453          40.200          38.100
 120556605.092 7  93940253.07344  22941153.219
  22941157.418          43.700          28.400
 127022243.478 7  98978439.692 6  24171535.898    24171541.082
  24171540.488          42.300          36.900
 131900191.715 6 102779384.911 6  25099771.484    25099777.168
  25099777.520          38.800          41.600
 113989262.917 7  88822834.53246  21691428.313
  21691431.523          47.100          36.700
 121694201.924 7  94826763.144 7  23157636.352    23157644.125
  23157644.305          44.600          43.300
 113814902.204 8  88686965.011 7  21658253.688    21658257.480
  21658257.582          49.600          47.000
 21  5 10  0  1  0.0000000  0 10G02G05G06G12G13G15G18G20G25G29
 116103504.261 8  90470310.75646  22093751.344
  22093753.367          48.000          37.600
 105475880.651 8  82189037.265 8  20071381.359    20071384.926
  20071384.832          49.300          52.700
 129018166.872 6 100533666.002 7  24551336.711    24551344.797
  24551344.586          38.600          42.000
 126560208.510 6  98618367.590 6  24083608.266    24083613.840
  24083613.539          38.600          39.700
 120459215.677 7  93864365.30644  22922620.250
  22922624.422          43.800          29.300
 126904749.788 6  98886886.190 5  24149176.805    24149181.551
  24149180.301          39.700          34.200
 131814839.414 6 102712876.676 6  25083529.305    25083535.023
  25083534.574          38.400          40.800
 113921158.993 7  88769766.54346  21678468.516
  21678472.035          46.500          37.500
 121764137.497 7  94881258.370 7  23170944.719    23170952.777
  23170952.191          45.000          43.600
 113743134.863 8  88631042.424 7  21644596.883    21644600.723
  21644601.027          49.000          47.200
 21  5 10  0  1 30.0000000  0 10G02G05G06G12G13G15G18G20G25G29
 116143574.337 8  90501534.16646  22101375.703
  22101377.719          48.700          37.700
 105470767.145 8  82185052.694 8  20070408.703    20070412.188
  20070412.094          49.600          52.700
 129097985.230 6 100595862.060 7  24566525.047    24566533.898
  24566533.801          38.700          42.900
 126662684.977 7  98698219.197 6  24103109.172    24103115.074
  24103114.676          42.000          40.300
 120362042.355 7  93788645.91945  22904128.672
  22904132.859          44.900          30.200
 126787278.706 6  98795350.329 6  24126822.141    24126828.270
  24126827.664          37.600          38.000
 131729473.249 6 102646357.641 6  25067284.430    25067289.633
  25067290.133          37.600          40.800
 113853347.118 7  88716926.14146  21665564.398
  21665567.758          46.900          37.900
 121834412.285 7  94936017.887 7  23184318.648    23184325.820
  23184325.926          42.300          44.100
 113671740.190 8  88575410.200 7  21631010.734    21631014.492
  21631014.457          48.100          46.100
 21  5 10  0  2  0.0000000  0 10G02G05G06G12G13G15G18G20G25G29
 116183821.205 7  90532895.34146  22109035.164
  22109037.820          47.700          37.600
 105466132.994 8  82181441.676 8  20069526.383    20069529.660
  20069529.949          49.900          52.700
 129177876.110 6 100658114.655 6  24581727.664    24581736.781
  24581735.699          37.800          41.300
 126765207.160 7  98778106.546 7  24122619.609    24122625.270
  24122624.973          43.200          42.400
 120265089.160 7  93713098.00244  22885678.914
  22885682.391          43.900          27.800
 126669833.642 6  98703834.785 6  24104473.438    24104479.301
  24104479.098          40.400          38.600
 131644094.342 6 102579828.679 6  25051036.797    25051042.453
  25051041.727          38.100          39.000
 113785828.499 8  88664314.23646  21652716.125
  21652719.773          48.400          37.600
 121905024.101 7  94991040.071 7  23197754.781    23197762.492
  23197763.004          43.100          44.400
 113600721.799 8  88520071.198 7  21617496.469    21617500.066
  21617500.141          49.200          46.900
 21  5 10  0  2 30.0000000  0 10G02G05G06G12G13G15G18G20G25G29
 116224244.786 7  90564394.22346  22116727.555
  22116729.578          47.400          37.100
 105461977.206 8  82178203.387 8  20068736.063    20068739.098
  20068739.074          48.300          52.900
 129257839.400 6 100720423.672 7  24596943.797    24596953.410
  24596952.988          38.800          43.500
 126867771.981 7  98858027.052 7  24142136.406    24142142.234
  24142142.348          43.000          42.200
 120168358.835 7  93637723.76744  22867271.086
  22867275.469          43.600          27.800
 126552416.991 6  98612341.351 6  24082129.875    24082135.730
  24082135.473          41.600          41.400
 131558702.641 6 102513289.688 6  25034787.469    25034793.422
  25034793.039          39.500          40.400
 113718603.712 7  88611931.30446  21639923.195
  21639926.914          47.500          37.400
 121975969.635 7  95046322.232 7  23211255.234    23211263.195
  23211263.031          42.300          42.900
 113530081.735 7  88465026.972 7  21604054.031    21604058.539
  21604058.465          47.500          47.100
 21  5 10  0  3  0.0000000  0 10G02G05G06G12G13G15G18G20G25G29
 116264845.581 8  90596031.17446  22124454.000
  22124455.988          48.700          38.300
 105458298.909 8  82175337.179 8  20068036.172    20068039.734
  20068039.449          49.200          52.200
 129337874.936 6 100782788.971 6  24612173.398    24612183.484
  24612183.012          38.900          41.100
 126970376.491 7  98937978.533 6  24161661.859    24161667.551
  24161667.457          42.500          39.400
 120071854.569 6  93562525.67644  22848907.172
  22848911.832          41.700          28.600
 126435031.440 7  98520872.211 6  24059792.500    24059799.258
  24059798.191          42.600          40.000
 131473298.183 6 102446740.818 7  25018534.492    25018541.195
  25018541.309          38.700          42.100
 113651673.062 7  88559777.58646  21627186.172
  21627190.656          47.800          37.100
 122047245.792 7  95101862.051 7  23224818.461    23224826.203
  23224826.223          42.700          43.100
 113459822.365 8  88410279.418 7  21590684.297    21590688.496
  21590688.977          49.800          47.600
 21  5 10  0  3 30.0000000  0 10G02G05G06G12G13G15G18G20G25G29
 116305623.977 7  90627806.53246  22132213.820
  22132215.949          47.800          38.400
 105455097.129 8  82172842.271 8  20067426.766    20067429.957
  20067430.051          48.900          52.800
 129417982.403 6 100845210.408 6  24627417.586    24627426.441
  24627425.906          37.000          40.900
 127073017.654 7  99017958.655 6  24181193.547    24181198.215
  24181197.691          43.900          37.600
 119975579.872 7  93487506.48044  22830586.492
  22830591.633          43.000          28.900
 126317680.254 6  98429429.783 6  24037461.086    24037466.730
  24037466.379          41.400          38.800
 131387881.341 6 102380182.251 7  25002281.742    25002287.930
  25002287.305          41.400          42.100
 113585037.268 8  88507853.61346  21614506.422
  21614510.156          48.600          37.900
 122118849.617 7  95157657.235 7  23238444.648    23238451.645
  23238451.719          42.800          42.300
 113389946.391 8  88355830.636 7  21577387.164    21577390.852
  21577391.289          48.500          47.500
 21  5 10  0  4  0.0000000  0 10G02G05G06G12G13G15G18G20G25G29
 116346579.840 8  90659720.18446  22140007.633
  22140008.879          49.100          38.600
 105452370.727 8  82170717.809 8  20066908.023    20066911.379
  20066911.066          50.500          52.100
 129498161.874 6 100907687.845 6  24642675.078    24642684.727
  24642684.133          40.100          40.800
 127175692.264 6  99097964.841 6  24200731.352    24200736.742
  24200735.922          39.300          37.300
 119879537.886 7  93412668.62244  22812310.867
  22812315.223          43.200          28.600
 126200365.607 7  98338015.877 6  24015136.938    24015142.348
  24015141.891          43.300          38.800
 131302452.224 6 102313614.184 6  24986023.367    24986029.891
  24986030.629          37.700          40.200
 113518696.596 7  88456159.59446  21601882.523
  21601886.297          46.900          37.700
 122190778.027 7  95213705.300 7  23252132.320    23252139.781
  23252140.082          43.700          44.500
 113320456.284 8  88301682.472 8  21564164.125    21564167.961
  21564168.203          49.000          48.200
 21  5 10  0  4 30.0000000  0 10G02G05G06G12G13G15G18G20G25G29
 116387714.417 8  90691773.05346  22147835.234
  22147836.816          49.200          38.100
 105450119.462 8  82168963.575 8  20066479.727    20066482.813
  20066482.742          49.900          53.700
 129578413.399 6 100970221.505 6  24657947.258    24657956.840
  24657955.324          38.100          38.600
 127278397.462 6  99177994.709 6  24220275.609    24220281.629
  24220280.352          36.500          38.900
 119783732.208 7  93338014.91444  22794079.047
  22794084.180          44.700          29.400
 126083090.604 6  98246632.862 6  23992819.078    23992825.254
  23992825.133          40.400          38.800
 131217011.505 6 102247036.995 6  24969766.031    24969771.746
  24969771.906          38.100          39.300
 113452651.871 7  88404696.21146  21589314.000
  21589318.148          47.300          37.400
 122263028.181 7  95270004.078 7  23265881.516    23265888.938
  23265888.633          43.900          42.500
 113251354.928 7  88247837.257 7  21551014.133    21551017.863
  21551017.781          47.300          47.000
 21  5 10  0  5  0.0000000  0 10G02G05G06G12G13G15G18G20G25G29
 116429027.524 8  90723965.08946  22155696.977
  22155698.016          48.700          38.500
 105448342.085 8  82167578.628 8  20066141.094    20066144.832
  20066144.988          49.000          53.100
 129658736.642 6 101032811.052 6  24673231.969    24673241.281
  24673239.926          39.000          41.400
 127381129.858 6  99258045.727 6  24239827.164    24239831.668
  24239831.016          41.200          41.700
 119688165.619 7  93263547.48344  22775893.594
  22775898.055          44.100          28.700
 125965858.002 6  98155282.831 6  23970510.789    23970516.887
  23970516.137          39.900          36.100
 131131558.982 6 102180450.751 6  24953504.516    24953510.719
  24953510.863          37.000          40.800
 113386903.120 8  88353463.44046  21576802.797
  21576806.750          48.800          37.700
 122335596.854 7  95326551.066 7  23279690.109    23279697.723
  23279698.266          42.500          44.500
 113182644.432 8  88194296.625 7  21537938.813    21537943.086
  21537942.805          49.000          46.400
 21  5 10  0  5 30.0000000  0 10G02G05G06G12G13G15G18G20G25G29
 116470519.735 8  90756296.63246  22163592.742
  22163593.785          48.500          38.200
 105447037.673 8  82166562.204 8  20065892.945    20065896.148
  20065896.410          49.000          52.800
 129739131.513 5 101095456.368 6  24688531.820    24688540.070
  24688539.055          34.800          39.200
 127483886.693 7  99338115.900 7  24259380.961    24259385.813
  24259385.223          44.700          43.700
 119592841.334 7  93189268.89344  22757753.961
  22757758.887          43.500          29.700
 125848670.560 7  98063967.982 6  23948211.359    23948215.762
  23948215.770          42.100          39.000
 131046095.004 5 102113855.561 6  24937240.242    24937246.926
  24937247.219          33.100          39.700
 113321450.830 7  88302461.68346  21564347.594
  21564351.191          47.000          37.700
 122408480.920 7  95383343.813 7  23293560.117    23293567.676
  23293567.238          42.300          43.300
 113114327.340 7  88141062.517 7  21524938.211    21524942.152
  21524941.348          44.300          45.800
 21  5 10  0  6  0.0000000  0 10G02G05G06G12G13G15G18G20G25G29
 116512191.075 8  90788767.80146  22171522.164
  22171523.664          48.900          37.700
 105446205.519 8  82165913.771 8  20065735.047    20065737.938
  20065738.125          50.500          53.200
 129819598.073 6 101158157.612 6  24703843.203    24703851.652
  24703851.531          38.200          38.700
 127586664.982 7  99418202.841 6  24278938.875    24278944.352
  24278943.516          43.700          40.600
 119497762.832 7  93115181.80244  22739661.461
  22739665.328          45.000          28.600
 125731531.437 6  97972690.778 6  23925920.547    23925926.344
  23925926.430          41.800          41.000
 130960619.942 5 102047251.681 6  24920974.117    24920981.027
  24920981.844          33.700          38.000
 113256295.878 8  88251691.60846  21551949.445
  21551953.348          48.500          36.900
 122481677.553 7  95440380.092 7  23307487.875    23307496.578
  23307496.277          42.600          43.800
 113046406.411 8  88088137.116 7  21512013.586    21512017.906
  21512017.430          48.700          46.200
 21  5 10  0  6 30.0000000  0 10G02G05G06G12G13G15G18G20G25G29
 116554042.268 8  90821379.10146  22179486.320
  22179487.066          49.200          37.400
 105445844.016 8  82165632.083 8  20065666.000    20065669.391
  20065669.438          49.900          52.900
 129900136.002 6 101220914.471 6  24719167.945    24719177.328
  24719175.152          37.000          38.400
 127689461.777 6  99498304.166 6  24298498.789    24298505.078
  24298505.465          40.700          41.200
 119402933.015 7  93041288.50444  22721616.258
  22721619.492          43.700          27.300
 125614443.010 7  97881453.130 6  23903638.648    23903644.828
  23903644.453          42.600          41.600
 130875133.816 6 101980639.102 6  24904708.203    24904712.996
  24904713.723          39.100          37.500
 113191438.416 8  88201153.37446  21539606.938
  21539610.531          48.100          37.300
 122555183.493 7  95497657.437 7  23321476.211    23321484.207
  23321484.211          42.300          43.400
 112978883.779 8  88035522.086 7  21499164.297    21499168.242
  21499167.398          48.100          45.600
 21  5 10  0  7  0.0000000  0 10G02G05G06G12G13G15G18G20G25G29
 116596073.812 8  90854130.91946  22187484.773
  22187485.813          48.000          37.400
 105445953.165 8  82165717.137 8  20065686.648    20065690.258
  20065690.266          50.000          52.900
 129980745.714 6 101283727.228 6  24734509.117    24734518.520
  24734516.551          37.200          39.100
 127792273.894 6  99578417.378 6  24318063.891    24318069.223
  24318069.547          39.600          39.900
 119308355.807 7  92967592.03544  22703617.555
  22703621.914          44.100          28.800
 125497408.477 6  97790257.460 6  23881368.102    23881374.535
  23881374.500          41.500          41.600
 130789637.443 6 101914018.618 6  24888439.359    24888444.668
  24888443.488          36.900          36.400
 113126879.481 8  88150847.71946  21527321.828
  21527325.418          48.600          38.000
 122628996.099 7  95555173.682 7  23335522.289    23335530.727
  23335530.172          43.600          43.700
 112911762.513 8  87983219.784 7  21486391.711    21486395.316
  21486395.082          48.100          46.000
 21  5 10  0  7 30.0000000  0 10G02G05G06G12G13G15G18G20G25G29
 116638285.707 8  90887023.29546  22195516.641
  22195518.484          49.200          37.100
 105446531.256 8  82166167.622 8  20065796.813    20065800.180
  20065800.266          50.000          53.000
 130061426.677 6 101346595.502 6  24749861.164    24749870.141
  24749870.020          38.300          39.300
 127895098.437 6  99658540.336 6  24337630.781    24337636.316
  24337636.441          39.100          40.900
 119214034.274 7  92894094.78244  22685669.656
  22685673.168          45.000          29.300
 125380430.447 6  97699105.865 6  23859107.305    23859113.297
  23859113.410          40.200          40.400
 130704130.720 6 101847390.077 6  24872166.844    24872173.871
  24872172.629          37.100          36.200
 113062619.115 7  88100774.74746  21515093.352
  21515097.031          47.100          37.500
 122703111.966 6  95612926.263 7  23349626.773    23349634.527
  23349634.176          41.800          43.700
 112845044.871 7  87931232.026 7  21473695.422    21473699.445
  21473698.797          47.500          45.200
 21  5 10  0  8  0.0000000  0 10G02G05G06G12G13G15G18G20G25G29
 116680678.586 8  90920056.66446  22203584.125
  22203585.754          48.000          37.500
 105447577.516 8  82166982.885 8  20065995.891    20065999.445
  20065999.207          50.700          52.900
 130142179.005 5 101409519.297 6  24765228.078    24765235.984
  24765235.563          35.800          38.600
 127997932.290 7  99738670.475 7  24357199.852    24357205.418
  24357205.414          42.300          42.500
 119119971.518 7  92820799.19844  22667769.586
  22667773.332          44.100          29.300
 125263511.804 6  97608000.536 6  23836858.078    23836864.508
  23836863.625          38.800          40.200
 130618613.996 5 101780753.762 6  24855894.047    24855900.902
  24855900.344          33.200          37.100
 112998657.913 8  88050934.86746  21502922.117
  21502925.738          48.500          37.300
 122777528.145 6  95670912.831 7  23363787.672    23363795.195
  23363795.047          41.300          44.900
 112778733.298 8  87879560.657 7  21461077.039    21461081.320
  21461081.445          49.100          47.100
 21  5 10  0  8 30.0000000  0 10G02G05G06G12G13G15G18G20G25G29
 116723252.678 8  90953231.26446  22211685.625
  22211687.656          48.900          37.800
 105449091.141 8  82168162.345 8  20066283.195    20066286.984
  20066286.746          48.800          52.300
 130223002.342 6 101472498.577 6  24780608.063    24780617.078
  24780616.051          37.400          40.000
 128100772.471 7  99818805.586 6  24376769.828    24376774.852
  24376775.055          42.300          39.900
 119026170.492 7  92747707.54145  22649920.102
  22649923.898          44.900          30.900
 125146655.360 6  97516943.635 6  23814621.563    23814627.023
  23814626.387          40.900          38.600
 130533087.519 6 101714109.862 6  24839618.781    24839625.313
  24839623.887          36.200          39.900
 112934996.173 7  88001328.37946  21490807.141
  21490810.750          45.200          37.300
 122852241.534 6  95729130.990 7  23378004.758    23378012.520
  23378012.289          40.300          42.800
 112712830.170 7  87828207.574 7  21448536.164    21448540.055
  21448540.254          45.500          47.300
 21  5 10  0  9  0.0000000  0 10G02G05G06G12G13G15G18G20G25G29
 116766008.331 7  90986547.32546  22219821.813
  22219823.141          47.600          36.500
 105451070.766 8  82169704.923 8  20066660.367    20066663.613
  20066663.352          49.300          52.800
 130303896.690 6 101535533.027 6  24796001.109    24796011.395
  24796010.316          38.600          40.200
 128203616.170 6  99898943.461 6  24396339.359    24396346.223
  24396345.438          41.100          38.800
 118932634.601 7  92674822.50345  22632121.211
  22632124.719          44.800          30.200
 125029863.857 6  97425937.327 6  23792396.898    23792401.988
  23792401.871          41.300          40.000
 130447551.289 6 101647458.296 7  24823341.898    24823348.469
  24823348.734          38.100          42.600
 112871634.420 7  87951955.58446  21478750.258
  21478753.621          47.200          38.900
 122927248.805 7  95787578.178 7  23392278.141    23392286.949
  23392285.703          42.200          42.800
 112647338.067 7  87777174.778 7  21436073.406    21436077.332
  21436077.633          47.300          47.000
 21  5 10  0  9 30.0000000  0 10G02G05G06G12G13G15G18G20G25G29
 116808945.862 8  91020005.11746  22227992.773
  22227995.238          49.300          38.100
 105453515.551 8  82171609.966 8  20067125.391    20067128.969
  20067128.742          51.100          52.700
 130384861.931 6 101598622.787 6  24811408.117    24811417.953
  24811417.770          36.300          39.300
 128306460.338 7  99979081.707 6  24415910.742    24415916.145
  24415915.840          42.000          38.200
 118839367.324 7  92602146.88545  22614372.242
  22614376.730          44.900          30.400
 124913140.107 7  97334983.793 6  23770184.906    23770191.000
  23770190.793          42.600          40.700
 130362006.011 5 101580799.608 6  24807063.102    24807068.953
  24807068.988          35.300          38.800
 112808572.810 8  87902816.68346  21466750.281
  21466753.992          49.100          38.500
 123002547.184 7  95846252.160 7  23406607.180    23406615.309
  23406615.047          43.200          43.800
 112582259.233 7  87726464.027 8  21423689.320    21423693.332
  21423693.539          47.200          48.400
 21  5 10  0 10  0.0000000  0 10G02G05G06G12G13G15G18G20G25G29
 116852065.781 8  91053605.04746  22236197.688
  22236199.777          48.200          36.900
 105456424.369 8  82173876.579 8  20067679.023    20067682.781
  20067682.773          50.000          53.000
 130465898.135 6 101661767.878 6  24826830.852    24826839.395
  24826838.086          39.600          38.700
 128409302.214 7 100059218.133 6  24435480.672    24435487.094
  24435487.223          42.500          40.900
 118746371.405 7  92529682.58745  22596675.617
  22596680.035          44.200          30.400
 124796487.149 6  97244085.407 6  23747987.188    23747993.051
  23747992.449          41.700          41.600
 130276451.775 6 101514133.994 6  24790782.953    24790788.039
  24790787.789          37.000          39.600
 112745812.180 8  87853912.32646  21454806.781
  21454810.602          48.700          38.600
 123078133.524 7  95905150.554 7  23420991.125    23420999.000
  23420998.023          44.100          42.000
 112517596.602 7  87676077.586 7  21411384.188    21411388.656
  21411388.590          47.900          47.500
 21  5 10  0 10 30.0000000  0 10G02G05G06G12G13G15G18G20G25G29
 116895368.181 8  91087347.13846  22244437.961
  22244440.883          48.300          37.500
 105459796.040 8  82176503.864 8  20068320.336    20068324.258
  20068324.027          49.600          52.200
 130547004.972 6 101724967.943 6  24842263.141    24842273.680
  24842272.332          37.500          40.400
 128512138.091 7 100139349.892 7  24455049.977    24455056.699
  24455056.594          42.300          42.000
 118653650.280 7  92457432.42545  22579031.117
  22579035.828          43.600          30.700
 124679907.626 6  97153244.355 6  23725802.289    23725807.656
  23725807.914          40.400          40.700
 130190888.933 6 101447461.688 6  24774501.523    24774506.672
  24774506.711          38.700          39.200
 112683352.562 8  87805242.50946  21442921.711
  21442924.570          48.300          38.600
 123154004.473 7  95964270.753 7  23435428.102    23435436.605
  23435435.246          42.100          42.300
 112453352.314 8  87626017.120 8  21399159.016    21399163.133
  21399163.574          48.400          48.500
 21  5 10  0 11  0.0000000  0 10G02G05G06G12G13G15G18G20G25G29
 116938853.569 7  91121231.83546  22252713.430
  22252715.871          47.800          37.500
 105463629.933 8  82179491.310 8  20069050.508    20069053.805
  20069053.863          50.200          53.000
 130628182.268 6 101788222.970 6  24857711.945    24857720.199
  24857719.914          40.000          40.000
 128614965.443 7 100219474.977 6  24474617.422    24474623.758
  24474623.625          42.200          41.800
 118561207.264 7  92385398.94644  22561439.594
  22561443.516          44.300          29.100
 124563404.508 6  97062462.805 6  23703632.086    23703637.801
  23703638.148          41.600          41.800
 130105317.695 6 101380782.798 6  24758217.781    24758222.352
  24758222.695          38.800          38.900
 112621194.575 8  87756807.74946  21431093.227
  21431097.090          48.200          38.700
 123230157.232 6  96023610.518 6  23449920.133    23449926.820
  23449926.488          41.700          41.600
 112389529.089 7  87576284.721 8  21387014.109    21387018.652
  21387018.613          47.500          48.000
 21  5 10  0 11 30.0000000  0 10G02G05G06G12G13G15G18G20G25G29
 116982522.363 8  91155259.42946  22261023.672
  22261025.059          48.000          37.100
 105467924.872 8  82182838.022 8  20069867.805    20069870.746
  20069871.012          49.900          52.600
 130709430.300 6 101851533.188 6  24873172.516    24873181.352
  24873181.023          38.600          39.200
 128717781.688 6 100299591.366 6  24494183.008    24494189.266
  24494188.625          41.400          39.700
 118469045.618 7  92313584.67445  22543902.234
  22543906.262          44.500          30.000
 124446980.896 7  96971743.192 6  23681477.969    23681483.465
  23681483.699          42.700          41.300
 130019738.587 6 101314097.879 6  24741931.969    24741937.691
  24741936.656          38.700          37.700
 112559338.877 8  87708608.51646  21419322.133
  21419325.773          48.300          37.900
 123306588.638 7  96083167.433 6  23464464.758    23464472.473
  23464471.203          43.200          41.100
 112326129.148 7  87526882.178 7  21374949.047    21374953.590
  21374953.652          47.000          47.200
 21  5 10  0 12  0.0000000  0 10G02G05G06G12G13G15G18G20G25G29
 117026375.171 7  91189430.43846  22269368.492
  22269370.754          47.200          37.900
 105472679.383 8  82186542.849 8  20070772.141    20070775.043
  20070775.430          50.200          52.700
 130790748.598 6 101914898.026 6  24888646.891    24888656.930
  24888654.617          40.100          38.100
 128820583.535 6 100379696.575 6  24513745.984    24513751.238
  24513750.934          40.500          39.900
 118377168.545 7  92241992.18344  22526417.977
  22526422.512          42.600          29.200
 124330639.511 7  96881087.626 6  23659338.906    23659343.859
  23659343.922          42.600          40.200
 129934151.730 6 101247406.892 6  24725645.656    24725650.867
  24725650.957          38.900          40.100
 112497785.394 7  87660644.79046  21407608.945
  21407613.129          47.300          37.800
 123383295.455 7  96142938.933 7  23479060.984    23479069.332
  23479068.543          42.200          43.300
 112263154.686 7  87477811.204 7  21362965.539    21362969.227
  21362969.480          47.500          47.900
 21  5 10  0 12 30.0000000  0 10G02G05G06G12G13G15G18G20G25G29
 117070411.879 8  91223744.73846  22277748.445
  22277750.449          48.000          37.600
 105477892.725 7  82190605.186 8  20071764.188    20071767.988
  20071768.070          47.900          53.200
 130872137.197 6 101978317.667 6  24904135.289    24904144.027
  24904142.828          39.600          38.200
 128923368.306 7 100459788.487 6  24533304.734    24533310.914
  24533310.824          44.800          36.200
 118285579.205 7  92170623.91645  22508989.781
  22508993.527          44.100          30.400
 124214383.262 7  96790498.404 6  23637215.828    23637220.922
  23637221.035          43.900          40.900
 129848557.551 6 101180710.145 6  24709356.656    24709362.211
  24709362.555          39.300          40.100
 112436534.502 8  87612916.86646  21395952.930
  21395956.195          48.700          37.600
 123460274.736 6  96202922.677 7  23493709.203    23493718.199
  23493718.129          39.200          43.900
 112200608.520 8  87429073.930 8  21351063.789    21351067.914
  21351067.898          48.400          48.200
 21  5 10  0 13  0.0000000  0 10G02G05G06G12G13G15G18G20G25G29
 117114633.166 7  91258202.85046  22286163.133
  22286164.996          47.100          37.400
 105483563.799 8  82195024.190 8  20072843.844    20072847.129
  20072846.754          49.200          52.800
 130953596.065 6 102041792.093 5  24919635.320    24919644.223
  24919643.223          40.100          35.500
 129026132.687 7 100539864.596 5  24552860.781    24552865.199
  24552865.184          44.600          34.200
 118194280.813 7  92099482.31845  22491616.500
  22491620.074          45.900          31.400
 124098215.073 7  96699977.761 6  23615109.867    23615114.660
  23615114.598          42.600          39.500
 129762956.430 6 101114008.002 6  24693067.797    24693073.348
  24693073.656          38.300          41.700
 112375587.007 8  87565425.32446  21384355.508
  21384359.250          49.700          38.000
 123537523.362 6  96263116.374 7  23508409.523    23508418.492
  23508417.957          40.600          44.000
 112138493.195 7  87380672.394 7  21339243.555    21339247.352
  21339247.438          47.200          47.600
 21  5 10  0 13 30.0000000  0 10G02G05G06G12G13G15G18G20G25G29
 117159039.395 7  91292805.09046  22294614.023
  22294615.598          47.800          37.800
 105489691.783 8  82199799.276 8  20074009.727    20074012.867
  20074012.832          49.500          52.100
 131035124.944 6 102105321.070 6  24935150.703    24935159.730
  24935159.480          38.400          38.800
 129128873.856 7 100619922.768 6  24572412.195    24572418.113
  24572417.055          44.100          36.700
 118103276.640 7  92028570.00045  22474298.992
  22474302.832          45.300          31.100
 123982137.652 6  96609527.875 6  23593020.648    23593026.355
  23593026.082          40.500          39.800
 129677348.604 6 101047300.646 7  24676777.047    24676782.754
  24676783.258          38.900          43.300
 112314943.279 8  87518170.47046  21372815.797
  21372819.074          49.200          38.700
 123615038.152 7  96323517.431 7  23523160.805    23523168.918
  23523168.688          42.100          44.000
 112076811.120 8  87332608.440 7  21327505.539    21327509.422
  21327509.262          48.100          46.800
 21  5 10  0 14  0.0000000  0 10G02G05G06G12G13G15G18G20G25G29
 117203630.880 8  91327551.68546  22303099.141
  22303100.957          48.600          37.900
 105496275.156 8  82204929.174 8  20075262.281    20075266.227
  20075266.145          48.600          52.500
 131116723.920 6 102168904.607 6  24950678.188    24950687.254
  24950686.488          36.200          37.800
 129231589.025 6 100699960.379 6  24591957.813    24591964.090
  24591964.145          39.600          40.600
 118012570.117 7  91957889.66445  22457038.063
  22457042.035          45.700          31.900
 123866154.192 6  96519151.236 6  23570949.023    23570955.820
  23570954.977          40.200          40.500
 129591734.471 6 100980588.441 7  24660483.711    24660491.512
  24660491.590          38.000          43.000
 112254603.606 8  87471152.57446  21361332.852
  21361336.738          48.300          38.500
 123692816.058 7  96384123.584 7  23537961.836    23537969.637
  23537969.738          43.500          43.600
 112015564.571 7  87284883.860 7  21315850.867    21315854.625
  21315854.094          47.500          46.800
 21  5 10  0 14 30.0000000  0 10G02G05G06G12G13G15G18G20G25G29
 117248407.860 7  91362442.82246  22311620.180
  22311621.234          47.200          37.100
 105503311.921 8  82210412.360 8  20076601.570    20076604.941
  20076605.047          49.500          53.100
 131198392.392 6 102232542.393 6  24966219.242    24966228.277
  24966226.980          36.700          37.900
 129334275.358 6 100779975.493 6  24611496.453    24611505.301
  24611504.715          39.400          40.900
 117922163.834 7  91887443.26245  22439833.250
  22439838.449          46.700          31.700
 123750267.024 6  96428849.610 7  23548896.625    23548902.922
  23548902.781          41.800          42.200
 129506114.044 6 100913871.208 7  24644191.484    24644197.574
  24644197.871          38.900          43.200
 112194567.768 8  87424371.41146  21349909.148
  21349911.512          49.100          38.300
 123770853.536 7  96444931.975 7  23552811.711    23552819.418
  23552819.664          45.300          43.800
 111954755.626 8  87237500.260 8  21304279.641    21304283.516
  21304283.660          48.900          48.200
 21  5 10  0 15  0.0000000  0 10G02G05G06G12G13G15G18G20G25G29
 117293370.547 8  91397478.67246  22320176.297
  22320178.336          48.800          38.100
 105510801.809 8  82216248.647 8  20078026.930    20078029.977
  20078029.625          49.100          52.800
 131280130.640 5 102296234.515 5  24981772.594    24981783.492
  24981781.867          34.100          35.800
 129436930.092 7 100859966.033 6  24631032.906    24631039.992
  24631039.371          42.400          39.400
 117832061.301 7  91817233.52445  22422688.680
  22422692.027          46.500          30.900
 123634479.390 7  96338625.564 7  23526863.375    23526869.098
  23526868.922          42.500          42.300
 129420487.898 6 100847149.619 6  24627898.133    24627903.531
  24627903.848          37.200          41.000
 112134836.496 7  87377827.58346  21338542.563
  21338545.656          47.800          37.800
 123849147.810 7  96505940.442 7  23567710.672    23567718.781
  23567718.492          44.300          43.000
 111894387.039 8  87190459.816 8  21292791.547    21292796.207
  21292796.016          48.500          49.000
 21  5 10  0 15 30.0000000  0 10G02G05G06G12G13G15G18G20G25G29
 117338519.425 8  91432659.60946  22328767.563
  22328769.578          48.000          37.100
 105518743.768 8  82222437.179 8  20079538.180    20079541.512
  20079541.375          50.200          52.500
 131361938.488 6 102359980.882 6  24997340.578    24997349.832
  24997350.391          37.300          40.400
 129539549.359 7 100939928.963 5  24650561.328    24650567.328
  24650566.316          42.600          35.800
 117742265.703 7  91747262.96545  22405600.320
  22405603.762          46.400          30.500
 123518794.152 7  96248481.270 6  23504848.836    23504854.941
  23504854.398          43.000          41.700
 129334856.429 6 100780423.810 6  24611602.602    24611608.617
  24611608.020          37.000          40.600
 112075410.326 8  87331521.51446  21327233.898
  21327237.352          48.800          38.400
 123927695.735 7  96567146.561 7  23582657.648    23582665.473
  23582665.488          42.300          42.800
 111834461.003 8  87143764.210 7  21281387.922    21281392.020
  21281391.652          48.700          47.500
 21  5 10  0 16  0.0000000  0 10G02G05G06G12G13G15G18G20G25G29
 117383855.088 8  91467986.05946  22337394.977
  22337396.297          48.100          37.300
 105527136.774 8  82228977.181 8  20081135.477    20081139.070
  20081139.176          49.300          53.200
 131443815.741 5 102423781.279 6  25012921.938    25012931.121
  25012931.406          35.800          38.400
 129642130.997 7 101019862.662 5  24670082.352    24670086.410
  24670086.605          44.600          30.400
 117652780.072 7  91677533.89245  22388572.750
  22388575.313          47.100          31.500
 123403214.156 7  96158418.995 6  23482855.266    23482860.199
  23482860.543          42.300          41.000
 129249219.892 6 100713694.119 6  24595305.336    24595312.133
  24595311.602          37.600          38.900
 112016289.343 8  87285453.25246  21315983.359
  21315987.094          48.000          37.900
 124006494.223 6  96628547.923 6  23597651.852    23597660.207
  23597660.121          41.500          40.400
 111774980.262 8  87097415.594 7  21270069.445    21270072.699
  21270072.848          49.300          47.600
 21  5 10  0 16 30.0000000  0 10G02G05G06G12G13G15G18G20G25G29
 117429377.696 8  91503458.23746  22346057.273
  22346059.492          48.000          37.900
 105535979.146 8  82235867.341 8  20082817.547    20082820.953
  20082820.828          49.000          51.900
 131525762.520 6 102487635.916 6  25028514.969    25028524.742
  25028524.844          37.100          38.100
 129744672.327 7 101099765.130 5  24689594.594    24689600.395
  24689599.250          42.500          32.100
 117563607.708 7  91608048.96945  22371602.648
  22371606.379          45.600          31.200
 123287742.357 6  96068441.030 6  23460880.867    23460886.695
  23460886.188          41.000          40.900
 129163578.802 6 100646960.876 6  24579008.266    24579014.840
  24579014.992          38.600          39.200
 111957474.134 8  87239623.25646  21304791.289
  21304795.105          48.300          39.200
 124085540.033 6  96690142.027 7  23612694.414    23612701.625
  23612702.344          41.300          42.100
 111715947.103 8  87051415.718 8  21258835.523    21258839.141
  21258838.926          48.800          48.300
 21  5 10  0 17  0.0000000  0 10G02G05G06G12G13G15G18G20G25G29
 117475087.817 7  91539076.50446  22354755.883
  22354757.324          47.300          36.500
 105545269.873 8  82243106.881 8  20084585.805    20084589.328
  20084589.168          50.000          51.800
 131607778.660 5 102551544.543 6  25044123.633    25044132.156
  25044132.582          34.700          38.600
 129847170.545 5 101179633.835 6  24709098.352    24709105.832
  24709105.453          35.200          36.500
 117474752.057 7  91538810.81945  22354694.102
  22354697.859          44.900          30.600
 123172381.750 6  95978549.743 6  23438929.328    23438934.078
  23438933.977          40.400          41.600
 129077933.645 5 100580224.403 6  24562711.570    24562717.219
  24562718.086          35.900          40.100
 111898965.022 8  87194031.74346  21293657.867
  21293659.996          48.500          38.400
 124164830.312 7  96751926.615 7  23627782.805    23627791.293
  23627790.762          43.200          42.500
 111657363.992 8  87005766.526 7  21247686.844    21247691.684
  21247691.242          48.600          47.500
 21  5 10  0 17 30.0000000  0 10G02G05G06G12G13G15G18G20G25G29
 117520985.800 8  91574841.11446  22363489.664
  22363492.406          48.200          38.100
 105555007.957 8  82250694.988 8  20086439.305    20086442.648
  20086442.926          50.000          52.900
 131689863.921 6 102615507.051 6  25059743.141    25059753.254
  25059753.344          37.100          40.300
 129949623.027 5 101259466.693 6  24728594.633    24728601.719
  24728600.895          32.900          37.200
 117386216.384 7  91469822.01145  22337846.797
  22337850.781          46.100          31.400
 123057135.001 6  95888747.161 7  23416997.461    23417003.406
  23417003.520          40.400          42.100
 128992284.560 6 100513484.955 6  24546412.531    24546418.508
  24546418.766          36.900          40.100
 111840762.382 8  87148679.05346  21282582.141
  21282584.254          48.900          38.400
 124244361.718 7  96813899.092 7  23642917.719    23642925.031
  23642925.258          43.300          43.700
 111599232.988 7  86960469.664 8  21236625.469    21236630.176
  21236630.191          47.200          48.300
 21  5 10  0 18  0.0000000  0 10G02G05G06G12G13G15G18G20G25G29
 117567071.472 7  91610752.03946  22372259.641
  22372261.465          47.900          36.900
 105565191.458 8  82258630.177 8  20088376.594    20088379.848
  20088379.613          50.000          52.500
 131772017.896 6 102679523.145 6  25075376.711    25075385.879
  25075385.043          38.400          38.900
 130052025.985 6 101339261.066 6  24748082.430    24748088.902
  24748088.297          39.100          40.500
 117298003.105 7  91401084.45845  22321059.922
  22321064.293          43.400          31.000
 122942005.083 6  95799035.575 6  23395089.227    23395095.117
  23395095.582          41.500          41.700
 128906631.741 6 100446742.440 6  24530114.750    24530119.898
  24530120.164          36.500          40.900
 111782865.899 8  87103564.92746  21271564.641
  21271567.730          48.300          39.100
 124324130.799 7  96876056.800 6  23658097.227    23658105.484
  23658104.824          43.900          41.900
 111541556.602 8  86915527.037 8  21225650.477    21225654.121
  21225654.652          48.200          49.000
 21  5 10  0 18 30.0000000  0 10G02G05G06G12G13G15G18G20G25G29
 117613345.683 8  91646809.82346  22381065.164
  22381067.391          48.100          37.300
 105575820.109 8  82266912.252 8  20090399.609    20090402.559
  20090402.352          49.900          51.900
 131854240.952 6 102743593.029 6  25091023.906    25091032.129
  25091032.281          37.700          39.500
 130154376.676 6 101419014.780 6  24767559.633    24767566.023
  24767565.863          41.100          41.300
 117210116.183 7  91332601.14845  22304335.688
  22304339.754          45.600          31.900
 122826995.489 7  95709417.773 7  23373204.328    23373209.844
  23373209.688          42.700          43.000
 128820975.879 6 100379997.580 6  24513815.563    24513819.121
  24513820.066          39.700          40.700
 111725276.434 8  87058690.04046  21260605.516
  21260608.574          49.200          39.400
 124404134.846 7  96938397.525 7  23673321.406    23673328.668
  23673328.391          43.200          42.400
 111484337.213 8  86870940.509 7  21214762.188    21214765.234
  21214765.512          48.600          47.900
 21  5 10  0 19  0.0000000  0 10G02G05G06G12G13G15G18G20G25G29
 117659808.358 7  91683014.51546  22389906.828
  22389908.484          46.900          36.200
 105586892.061 8  82275539.752 8  20092506.078    20092509.730
  20092509.773          49.200          53.000
 131936532.329 6 102807716.153 6  25106683.148    25106692.887
  25106691.758          41.100          36.600
 130256672.655 7 101498725.827 6  24787026.055    24787031.633
  24787032.145          42.000          39.400
 117122558.149 7  91264374.16145  22287673.922
  22287677.824          45.800          32.800
 122712108.366 6  95619895.445 6  23351341.422    23351347.242
  23351347.336          41.000          41.800
 128735316.932 6 100313250.378 6  24497513.555    24497519.133
  24497520.039          38.000          40.800
 111667993.957 7  87014054.36646  21249705.172
  21249708.781          47.600          39.800
 124484370.238 7  97000918.585 7  23688588.688    23688597.410
  23688597.496          42.800          43.700
 111427576.857 8  86826711.646 8  21203960.352    21203964.465
  21203964.227          48.500          48.700
 21  5 10  0 19 30.0000000  0 10G02G05G06G12G13G15G18G20G25G29
 117706460.400 8  91719366.70546  22398784.391
  22398786.328          49.400          37.000
 105598406.677 8  82284512.143 8  20094697.586    20094700.844
  20094700.961          49.300          52.600
 132018892.693 6 102871892.992 6  25122355.469    25122365.508
  25122365.230          39.000          41.000
 130358911.248 6 101578392.147 6  24806481.398    24806486.883
  24806487.391          39.700          36.600
 117035332.699 7  91196406.27745  22271076.000
  22271079.480          46.200          32.300
 122597347.248 6  95530471.233 6  23329502.930    23329508.703
  23329509.020          41.400          41.000
 128649656.010 6 100246501.703 6  24481212.656    24481219.027
  24481218.137          37.400          39.900
 111611019.249 7  86969658.51746  21238862.625
  21238865.684          47.400          38.900
 124564834.428 7  97063617.895 7  23703901.141    23703908.965
  23703908.652          42.200          42.300
 111371278.317 7  86782842.672 8  21193247.500    21193251.609
  21193251.855          47.800          48.600
 21  5 10  0 20  0.0000000  0 10G02G05G06G12G13G15G18G20G25G29
 117753301.461 8  91755866.24346  22407697.844
  22407700.762          48.100          37.100
 105610361.580 8  82293827.653 8  20096972.445    20096975.215
  20096975.246          49.800          51.700
 132101321.130 6 102936122.951 6  25138041.906    25138049.742
  25138048.602          40.300          37.100
 130461089.098 6 101658011.239 6  24825924.461    24825931.266
  24825930.863          36.300          36.200
 116948442.256 7  91128699.47145  22254541.031
  22254544.156          45.800          33.000
 122482714.579 7  95441147.159 6  23307689.102    23307694.949
  23307694.469          42.700          41.100
 128563992.799 6 100179751.151 6  24464912.039    24464917.066
  24464918.219          37.700          41.100
 111554351.815 8  86925502.07146  21228079.414
  21228082.773          48.800          39.600
 124645523.669 6  97126492.532 7  23719255.945    23719264.203
  23719263.867          41.200          42.400
 111315443.477 8  86739335.009 8  21182622.523    21182626.680
  21182626.938          49.500          49.100
 21  5 10  0 20 30.0000000  0 10G02G05G06G12G13G15G18G20G25G29
 117800332.749 7  91792513.95046  22416647.867
  22416649.586          47.300          36.600
 105622756.747 8  82303486.235 8  20099330.766    20099334.363
  20099334.184          49.500          51.700
 132183818.197 6 103000406.394 7  25153740.086    25153749.230
  25153749.645          39.300          42.200
 130563204.037 6 101737581.116 6  24845356.789    24845361.930
  24845363.121          36.500          36.100
 116861890.804 7  91061256.80445  22238070.602
  22238073.844          45.900          32.400
 122368213.567 6  95351925.622 6  23285900.781    23285905.246
  23285905.316          41.500          40.200
 128478328.352 6 100112999.697 6  24448610.445    24448616.234
  24448616.137          38.700          40.600
 111497992.822 8  86881586.03246  21217354.352
  21217358.293          48.100          39.500
 124726435.365 6  97189540.544 6  23734653.008    23734662.020
  23734661.477          41.400          41.900
 111260075.215 8  86696190.915 8  21172085.758    21172090.047
  21172089.855          48.900          48.700
 21  5 10  0 21  0.0000000  0 10G02G05G06G12G13G15G18G20G25G29
 117847553.911 8  91829309.64846  22425633.453
  22425636.180          48.000          36.500
 105635589.993 8  82313486.163 8  20101773.523    20101776.648
  20101776.727          49.300          52.800
 132266383.348 6 103064742.815 6  25169451.117    25169460.930
  25169459.520          38.700          38.700
 130665252.641 6 101817099.460 5  24864776.422    24864781.254
  24864781.398          38.700          34.800
 116775680.944 7  90994080.31745  22221665.508
  22221668.625          46.300          31.400
 122253846.790 7  95262808.737 6  23264136.680    23264142.031
  23264142.402          42.600          41.100
 128392662.516 6 100046247.127 7  24432307.570    24432314.070
  24432314.355          37.700          42.500
 111441942.010 8  86837910.09246  21206688.195
  21206691.621          49.100          39.400
 124807565.930 7  97252759.090 7  23750091.258    23750100.426
  23750100.375          42.300          42.900
 111205175.158 8  86653411.677 7  21161638.625    21161642.266
  21161642.090          49.300          47.600
 21  5 10  0 21 30.0000000  0 10G02G05G06G12G13G15G18G20G25G29
 117894965.595 8  91866253.81146  22434655.906
  22434657.344          48.300          37.100
 105648860.789 8  82323827.014 8  20104298.555    20104302.191
  20104302.234          50.000          53.000
 132349016.468 6 103129132.300 6  25185176.148    25185185.145
  25185183.594          39.200          39.600
 130767232.591 6 101896564.297 6  24884182.977    24884188.207
  24884188.242          38.700          36.400
 116689815.757 7  90927172.38345  22205325.875
  22205329.922          46.200          32.300
 122139617.570 7  95173799.008 7  23242399.875    23242405.324
  23242405.445          42.200          42.400
 128306995.944 6  99979494.016 7  24416007.641    24416012.977
  24416013.184          39.000          43.200
 111386199.935 8  86794474.73646  21196081.719
  21196085.059          48.100          39.800
 124888912.401 7  97316145.920 6  23765571.219    23765580.055
  23765578.914          42.500          40.800
 111150746.060 8  86610999.373 8  21151281.633    21151285.422
  21151285.281          48.400          48.000
 21  5 10  0 22  0.0000000  0 10G02G05G06G12G13G15G18G20G25G29
 117942568.367 7  91903346.85346  22443714.891
  22443717.129          46.800          36.900
 105662567.222 8  82334507.343 8  20106906.664    20106910.344
  20106909.945          49.500          52.300
 132431717.687 6 103193574.856 6  25200914.102    25200922.832
  25200923.059          38.800          39.900
 130869140.755 6 101975973.169 6  24903574.859    24903581.445
  24903581.379          37.900          40.300
 116604298.894 7  90860535.90545  22189052.250
  22189056.867          45.400          32.700
 122025528.762 7  95084898.689 6  23220689.820    23220695.180
  23220695.355          43.800          41.200
 128221329.262 6  99912740.792 7  24399704.992    24399710.285
  24399710.789          40.700          42.000
 111330766.734 8  86751280.05946  21185532.766
  21185535.145          48.400          40.000
 124970471.770 6  97379698.673 6  23781092.219    23781099.980
  23781099.258          41.800          40.300
 111096790.274 8  86568955.907 8  21141014.125    21141018.246
  21141018.082          48.300          48.100
 21  5 10  0 22 30.0000000  0 10G02G05G06G12G13G15G18G20G25G29
 117990362.178 7  91940588.74146  22452809.484
  22452811.336          47.300          36.500
 105676708.144 8  82345526.239 8  20109597.703    20109600.977
  20109600.918          49.200          51.700
 132514486.622 6 103258070.093 6  25216663.773    25216672.340
  25216673.563          39.200          40.800
 130970974.556 6 102055324.099 6  24922953.156    24922959.648
  24922959.848          39.400          40.500
 116519133.123 7  90794172.98045  22172845.820
  22172850.379          45.100          33.100
 121911583.243 7  94996110.029 7  23199006.281    23199012.605
  23199012.738          42.800          43.200
 128135662.559 6  99845987.572 6  24383403.000    24383408.375
  24383409.035          39.300          41.200
 111275642.695 8  86708326.28146  21175042.680
  21175045.980          48.500          39.900
 125052240.751 7  97443414.659 6  23796651.484    23796660.008
  23796659.680          43.200          41.700
 111043309.813 8  86527282.843 8  21130837.109    21130840.453
  21130840.637          48.600          48.200
 21  5 10  0 23  0.0000000  0 10G02G05G06G12G13G15G18G20G25G29
 118038347.394 7  91977979.81446  22461940.641
  22461942.301          47.900          37.300
 105691282.373 8  82356882.788 8  20112370.820    20112374.965
  20112374.871          49.600          52.100
 132597323.021 6 103322618.019 6  25232427.102    25232435.902
  25232435.695          39.000          39.500
 131072731.245 6 102134614.875 6  24942316.039    24942323.988
  24942323.852          37.100          39.500
 116434321.425 7  90728085.96545  22156706.805
  22156710.242          45.900          33.000
 121797783.859 7  94907435.264 7  23177350.094    23177356.531
  23177356.590          43.700          43.200
 128049996.327 6  99779234.764 7  24367101.023    24367106.832
  24367106.875          37.700          42.600
 111220827.794 8  86665613.39046  21164611.969
  21164614.949          49.400          39.600
 125134215.981 7  97507291.426 6  23812251.984    23812259.137
  23812258.930          42.700          40.500
 110990306.959 8  86485981.904 8  21120750.742    21120754.168
  21120754.457          48.500          48.200
 21  5 10  0 23 30.0000000  0 10G02G05G06G12G13G15G18G20G25G29
 118086524.567 8  92015520.43846  22471109.039
  22471110.613          48.000          38.000
 105706288.703 8  82368576.018 8  20115226.523    20115230.883
  20115230.852          49.100          52.700
 132680227.061 6 103387218.493 6  25248202.484    25248212.648
  25248211.566          39.200          40.900
 131174407.992 5 102213843.389 6  24961664.930    24961671.699
  24961671.648          34.400          38.700
 116349867.066 7  90662277.40445  22140635.719
  22140639.496          44.700          32.800
 121684133.676 7  94818876.757 6  23155723.320    23155729.566
  23155729.832          42.100          41.300
 127964331.111 6  99712482.721 7  24350800.102    24350805.125
  24350805.945          38.700          42.700
 111166321.947 8  86623141.33246  21154239.914
  21154242.895          49.100          39.500
 125216394.567 7  97571326.632 6  23827889.305    23827897.664
  23827896.863          42.000          41.400
 110937784.077 8  86445054.976 8  21110756.172    21110759.672
  21110759.727          49.300          48.000
 21  5 10  0 24  0.0000000  0 10G02G05G06G12G13G15G18G20G25G29
 118134893.921 8  92053210.81046  22480312.844
  22480313.938          48.000          36.700
 105721725.696 8  82380604.832 8  20118164.156    20118167.359
  20118167.738          48.900          52.600
 132763198.299 6 103451871.481 6  25263991.180    25264000.711
  25264000.629          40.900          39.700
 131276001.847 5 102293007.339 5  24980998.852    24981004.730
  24981004.723          35.400          35.300
 116265773.096 7  90596749.67545  22124632.773
  22124636.488          46.700          32.300
 121570635.710 6  94730436.855 7  23134125.539    23134131.625
  23134131.715          41.700          42.800
 127878667.327 5  99645731.777 6  24334498.234    24334503.574
  24334503.332          35.800          41.600
 111112126.067 8  86580910.78546  21143926.563
  21143929.668          49.400          40.000
 125298773.196 7  97635517.720 7  23843565.070    23843573.637
  23843573.551          43.000          43.000
 110885743.691 8  86404504.025 8  21100853.563    21100857.277
  21100857.672          48.200          49.000
 21  5 10  0 24 30.0000000  0  9G02G05G12G13G15G18G20G25G29
 118183456.022 7  92091051.37746  22489554.227
  22489556.313          47.000          37.000
 105737592.284 7  82392968.397 8  20121183.109    20121186.824
  20121186.934          47.800          52.300
 131377510.662 6 102372105.019 6  25000314.414    25000320.664
  25000320.816          38.700          36.400
 116182042.896 7  90531505.39545  22108699.508
  22108702.566          45.500          31.500
 121457293.301 7  94642118.154 7  23112557.648    23112562.699
  23112563.281          43.500          42.100
 127793005.658 6  99578982.533 7  24318196.586    24318203.273
  24318203.215          39.300          42.400
 111058240.757 7  86538922.28046  21133672.219
  21133675.703          47.500          40.000
 125381349.158 7  97699862.570 7  23859279.641    23859287.043
  23859286.793          42.500          42.400
 110834187.777 7  86364330.592 8  21091042.422    21091045.996
  21091046.398          46.600          49.200
 21  5 10  0 25  0.0000000  0  9G02G05G12G13G15G18G20G25G29
 118232210.814 7  92129042.09746  22498831.914
  22498833.367          47.300          37.100
 105753886.722 8  82405665.345 8  20124284.328    20124287.625
  20124287.781          48.000          52.500
 131478931.332 6 102451134.091 5  25019614.883    25019619.465
  25019620.008          40.300          33.200
 116098679.421 7  90466546.86445  22092835.883
  22092838.770          45.800          31.900
 121344108.757 7  94553922.424 6  23091020.031    23091024.797
  23091025.500          44.500          41.800
 127707346.319 6  99512235.005 7  24301897.820    24301902.867
  24301902.809          40.900          43.100
 111004665.680 7  86497175.47546  21123477.430
  21123480.746          46.800          40.200
 125464118.911 6  97764358.408 7  23875029.578    23875038.402
  23875038.117          40.800          43.700
 110783118.437 7  86324536.320 8  21081324.016    21081328.277
  21081328.191          45.400          48.500
 21  5 10  0 25 30.0000000  0  9G02G05G12G13G15G18G20G25G29
 118281158.855 7  92167183.42646  22508146.781
  22508148.234          46.900          36.500
 105770607.902 8  82418694.830 8  20127466.750    20127469.516
  20127469.633          49.600          52.100
 131580261.060 6 102530092.393 6  25038898.063    25038902.641
  25038902.000          40.900          38.300
 116015685.345 7  90401876.17945  22077042.438
  22077045.684          45.200          31.000
 121231085.188 7  94465852.154 7  23069512.000    23069516.707
  23069517.051          44.900          43.100
 127621689.802 6  99445489.711 6  24285596.664    24285602.414
  24285602.672          38.100          40.400
 110951400.931 8  86455670.49246  21113341.906
  21113344.879          49.200          40.400
 125547079.387 6  97829002.840 7  23890816.969    23890825.238
  23890824.957          39.900          43.400
 110732537.911 8  86285122.928 8  21071699.234    21071702.973
  21071702.883          48.000          48.400
 21  5 10  0 26  0.0000000  0  9G02G05G12G13G15G18G20G25G29
 118330300.145 7  92205475.30346  22517497.516
  22517499.727          47.900          37.000
 105787754.008 8  82432055.447 8  20130729.039    20130732.531
  20130732.805          48.100          52.300
 131681497.015 6 102608977.421 6  25058161.328    25058167.770
  25058167.684          39.600          37.600
 115933064.028 7  90337495.96045  22061320.063
  22061324.313          45.000          31.800
 121118225.729 7  94377909.739 6  23048035.813    23048040.301
  23048040.008          44.300          41.600
 127536036.316 6  99378746.776 7  24269297.555    24269303.227
  24269303.355          40.200          42.400
 110898446.620 8  86414407.43846  21103264.234
  21103267.859          49.600          39.900
 125630227.142 6  97893793.252 7  23906639.016    23906647.711
  23906647.371          41.400          42.400
 110682448.214 8  86246091.990 8  21062167.070    21062171.445
  21062171.441          48.000          48.800
 21  5 10  0 26 30.0000000  0  9G02G05G12G13G15G18G20G25G29
 118379635.285 8  92243918.22846  22526885.883
  22526887.715          48.600          36.500
 105805323.964 8  82445746.296 8  20134072.477    20134075.742
  20134075.988          48.200          52.800
 131782636.688 6 102687787.446 6  25077407.391    25077414.301
  25077414.520          38.000          40.300
 115850818.405 7  90273408.47545  22045669.422
  22045673.215          46.000          32.800
 121005533.218 7  94290097.489 6  23026589.695    23026595.336
  23026595.527          44.700          41.300
 127450386.491 6  99312006.714 6  24252999.086    24253004.883
  24253005.379          38.800          40.400
 110845802.978 8  86373386.41646  21093246.727
  21093250.535          50.300          40.400
 125713559.131 7  97958727.228 7  23922497.000    23922505.172
  23922505.430          42.600          43.100
 110632851.764 8  86207445.427 8  21052728.930    21052732.977
  21052732.867          48.000          48.000
 21  5 10  0 27  0.0000000  0  9G02G05G12G13G15G18G20G25G29
 118429164.431 8  92282512.36546  22536310.992
  22536312.289          48.000          36.600
 105823316.237 8  82459766.237 8  20137496.469    20137499.645
  20137499.754          49.700          52.500
 131883677.347 5 102766520.268 6  25096633.102    25096642.344
  25096642.258          35.100          39.400
 115768951.550 7  90209616.10345  22030090.984
  22030094.578          46.000          33.200
 120893010.339 7  94202417.375 7  23005177.969    23005183.691
  23005183.805          44.800          43.000
 127364740.764 6  99245269.865 6  24236701.227    24236706.699
  24236706.168          40.100          41.300
 110793470.164 8  86332607.62346  21083288.250
  21083291.852          49.100          40.500
 125797072.289 6  98023802.409 6  23938389.000    23938397.477
  23938397.289          41.600          40.900
 110583750.430 8  86169184.659 8  21043385.633    21043389.527
  21043389.555          48.100          48.300
 21  5 10  0 27 30.0000000  0  9G02G05G12G13G15G18G20G25G29
 118478888.367 7  92321258.23046  22545772.891
  22545774.777          47.000          36.600
 105841730.048 8  82474114.662 8  20141000.492    20141004.012
  20141003.734          50.000          52.300
 131984615.978 6 102845173.570 6  25115843.258    25115849.660
  25115849.863          37.600          40.600
 115687466.581 7  90146121.32945  22014585.219
  22014588.809          46.100          33.600
 120780660.127 7  94114871.802 7  22983798.875    22983803.809
  22983804.102          43.400          43.000
 127279099.799 6  99178536.721 6  24220404.180    24220409.699
  24220410.023          41.300          41.700
 110741448.708 7  86292071.43646  21073389.109
  21073392.746          47.300          40.100
 125880763.565 7  98089016.345 6  23954315.781    23954323.816
  23954323.086          42.000          41.100
 110535146.802 7  86131311.686 7  21034136.250    21034140.441
  21034140.539          46.800          47.900
 21  5 10  0 28  0.0000000  0  9G02G05G12G13G15G18G20G25G29
 118528806.936 7  92360155.80846  22555271.813
  22555274.691          47.500          36.700
 105860563.093 8  82488789.769 8  20144584.188    20144587.688
  20144587.652          50.000          51.900
 132085449.969 6 102923745.439 6  25135030.688    25135037.500
  25135037.387          40.300          38.300
 115606366.363 7  90082926.35845  21999151.922
  21999155.582          47.500          33.100
 120668485.906 7  94027463.444 7  22962452.531    22962457.383
  22962457.145          43.300          42.900
 127193463.879 6  99111807.429 6  24204108.328    24204113.676
  24204113.238          39.800          41.900
 110689738.388 8  86251777.72146  21063548.633
  21063551.895          48.200          39.800
 125964629.488 7  98154366.350 6  23970274.250    23970282.684
  23970282.855          42.600          41.000
 110487042.846 7  86093828.072 8  21024982.633    21024987.055
  21024987.086          47.900          48.700
 21  5 10  0 28 30.0000000  0  9G02G05G12G13G15G18G20G25G29
 118578920.408 8  92399205.18746  22564808.234
  22564810.648          48.600          37.100
 105879814.367 8  82503790.748 8  20148247.500    20148251.094
  20148251.066          49.000          52.300
 132186176.880 6 103002233.893 6  25154199.359    25154205.195
  25154204.762          37.700          38.300
 115525653.975 7  90020033.58145  21983793.125
  21983796.668          45.800          32.900
 120556490.382 7  93940194.251 6  22941140.922    22941145.641
  22941145.484          46.400          41.300
 127107833.526 6  99045082.490 7  24187813.813    24187818.574
  24187818.727          40.800          42.800
 110638339.701 8  86211726.81746  21053767.867
  21053771.363          48.200          40.000
 126048667.133 6  98219850.201 6  23986266.172    23986274.891
  23986274.063          40.900          40.900
 110439440.467 8  86056735.319 8  21015924.461    21015928.629
  21015928.672          48.700          48.900
 21  5 10  0 29  0.0000000  0  9G02G05G12G13G15G18G20G25G29
 118629229.184 7  92438406.82846  22574381.609
  22574384.438          47.000          36.100
 105899482.484 8  82519116.552 8  20151990.320    20151993.621
  20151993.227          49.700          52.500
 132286793.743 6 103080636.539 5  25173345.898    25173352.020
  25173351.641          39.600          34.800
 115445332.304 7  89957445.27045  21968507.523
  21968511.953          45.800          33.600
 120444676.487 7  93853066.552 7  22919862.805    22919867.570
  22919868.008          44.900          43.700
 127022209.224 6  98978362.337 7  24171519.133    24171524.957
  24171524.887          41.600          43.300
 110587252.406 8  86171918.55446  21044046.422
  21044049.590          48.400          39.200
 126132873.199 6  98285465.257 6  24002290.359    24002298.000
  24002297.652          40.600          39.800
 110392341.779 8  86020035.037 8  21006962.000    21006965.664
  21006965.953          49.600          49.800
 21  5 10  0 29 30.0000000  0  9G02G05G12G13G15G18G20G25G29
 118679733.799 7  92477761.03245  22583992.672
  22583994.711          45.800          35.700
 105919566.183 8  82534766.185 8  20155812.203    20155815.410
  20155815.238          50.300          52.400
 132387298.165 6 103158951.657 6  25192471.742    25192477.320
  25192477.313          41.700          37.100
 115365404.581 7  89895163.95845  21953298.602
  21953302.492          45.900          34.200
 120333047.402 7  93766082.912 7  22898620.461    22898625.828
  22898625.555          43.000          42.000
 126936591.599 6  98911647.358 7  24155226.500    24155232.555
  24155232.711          40.800          42.600
 110536477.246 8  86132353.51746  21034384.336
  21034387.797          48.700          40.000
 126217244.702 6  98351209.215 6  24018344.305    24018353.250
  24018352.414          40.900          41.300
 110345749.262 8  85983729.193 8  20998095.633    20998099.832
  20998100.035          48.700          49.400
 21  5 10  0 30  0.0000000  0  9G02G05G12G13G15G18G20G25G29
 118730434.272 7  92517267.87046  22593640.281
  22593643.141          47.800          36.400
 105940063.858 8  82550738.410 8  20159712.883    20159715.949
  20159716.070          49.900          52.200
 132487687.686 6 103237177.213 5  25211575.164    25211581.594
  25211580.469          41.500          35.600
 115285873.842 7  89833192.00245  21938164.211
  21938168.121          47.200          34.600
 120221605.755 7  93679245.342 7  22877413.961    22877418.980
  22877419.234          43.700          43.500
 126850981.178 6  98844937.950 7  24138936.250    24138941.594
  24138941.996          40.900          43.200
 110486013.855 8  86093031.42746  21024781.195
  21024784.531          49.500          39.700
 126301778.442 6  98417079.623 7  24034431.773    24034440.168
  24034439.977          39.500          42.600
 110299664.836 8  85947819.269 8  20989326.008    20989329.793
  20989329.957          48.300          49.100
 21  5 10  0 30 30.0000000  0  9G02G05G12G13G15G18G20G25G29
 118781330.868 7  92556927.48245  22603325.734
  22603329.266          44.700          35.500
 105960974.049 8  82567032.067 8  20163691.578    20163695.281
  20163695.324          49.900          51.800
 132587959.255 6 103315310.827 6  25230655.594    25230662.719
  25230661.980          40.100          39.200
 115206742.910 7  89771531.56245  21923106.461
  21923110.363          47.900          34.600
 120110354.818 7  93592556.340 7  22856243.930    22856248.660
  22856248.930          45.800          44.100
 126765378.278 6  98778234.455 6  24122646.469    24122650.898
  24122650.898          40.900          41.600
 110435862.296 8  86053952.32446  21015237.211
  21015240.777          49.300          40.000
 126386471.078 6  98483073.858 7  24050548.711    24050556.488
  24050556.602          40.400          42.100
 110254090.568 8  85912306.841 8  20980653.703    20980657.699
  20980657.730          48.900          49.100
 21  5 10  0 31  0.0000000  0  9G02G05G12G13G15G18G20G25G29
 118832423.641 7  92596740.03046  22613048.461
  22613050.539          47.600          36.300
 105982294.772 8  82583645.633 8  20167748.750    20167752.305
  20167752.543          49.400          52.300
 132688110.134 6 103393350.344 6  25249714.164    25249721.063
  25249720.871          37.900          38.400
 115128014.302 7  89710184.63045  21908124.203
  21908127.938          47.700          34.600
 119999296.701 7  93506017.653 7  22835109.500    22835115.016
  22835114.984          44.200          44.600
 126679782.888 7  98711536.757 7  24106358.414    24106363.254
  24106363.113          42.000          42.300
 110386022.503 8  86015116.12046  21005753.320
  21005757.211          48.600          40.300
 126471319.007 6  98549189.035 7  24066694.016    24066702.543
  24066702.758          38.100          42.800
 110209027.764 8  85877192.979 8  20972078.242    20972081.867
  20972081.875          48.700          49.100
 21  5 10  0 31 30.0000000  0  9G02G05G12G13G15G18G20G25G29
 118883713.370 7  92636706.00446  22622808.656
  22622811.746          47.100          36.100
 106004025.282 8  82600578.502 8  20171883.820    20171887.723
  20171887.586          49.500          53.000
 132788138.037 6 103471294.131 6  25268749.445    25268755.875
  25268755.949          38.500          39.100
 115049691.294 7  89649153.74145  21893220.242
  21893224.207          47.200          34.400
 119888435.179 7  93419632.100 7  22814013.500    22814018.473
  22814018.680          45.700          44.100
 126594196.370 6  98644845.984 6  24090071.211    24090076.605
  24090076.559          41.300          41.300
 110336495.434 8  85976523.64846  20996328.859
  20996331.785          48.300          39.900
 126556319.767 6  98615423.307 6  24082869.289    24082878.602
  24082878.605          39.600          41.700
 110164479.245 7  85842479.852 7  20963600.914    20963604.813
  20963604.379          47.800          47.700
 21  5 10  0 32  0.0000000  0  9G02G05G12G13G15G18G20G25G29
 118935200.340 7  92676825.71445  22632606.609
  22632608.930          47.300          35.500
 106026164.118 8  82617829.551 8  20176096.766    20176100.633
  20176100.508          48.500          51.900
 132888039.721 6 103549139.471 6  25287758.969    25287766.734
  25287766.398          36.800          38.400
 114971776.934 7  89588441.27745  21878393.563
  21878396.703          46.000          33.500
 119777773.208 7  93333402.012 7  22792955.633    22792960.285
  22792960.141          44.100          43.400
 126508619.158 6  98578162.436 6  24073786.352    24073791.570
  24073792.355          38.800          40.200
 110287280.544 8  85938174.39246  20986963.148
  20986966.695          48.200          39.600
 126641470.244 6  98681774.307 7  24099073.367    24099081.777
  24099082.066          40.200          42.400
 110120447.138 8  85808169.110 7  20955222.258    20955225.066
  20955225.281          49.900          47.600
 21  5 10  0 32 30.0000000  0  9G02G05G12G13G15G18G20G25G29
 118986885.321 7  92717099.69446  22642441.867
  22642444.715          47.700          36.200
 106048710.769 8  82635398.369 8  20180387.430    20180390.992
  20180391.242          48.300          52.700
 132987813.689 6 103626885.366 6  25306745.500    25306752.434
  25306752.641          38.000          40.200
 114894274.956 7  89528050.12645  21863645.547
  21863649.223          46.400          33.600
 119667314.387 7  93247330.287 6  22771935.500    22771940.207
  22771940.047          45.300          41.600
 126423052.351 6  98511487.017 6  24057503.555    24057508.125
  24057508.344          39.400          40.600
 110238378.671 8  85900069.06646  20977657.766
  20977660.648          48.600          39.800
 126726767.706 6  98748239.786 6  24115304.563    24115312.980
  24115313.016          40.200          41.300
 110076934.169 8  85774262.887 8  20946941.898    20946945.449
  20946945.707          49.900          48.700
 21  5 10  0 33  0.0000000  0  9G02G05G12G13G15G18G20G25G29
 119038767.618 7  92757527.44345  22652315.078
  22652315.684          45.800          35.300
 106071662.020 8  82653282.445 8  20184754.867    20184758.570
  20184758.625          48.700          52.900
 133087456.583 6 103704529.096 6  25325707.156    25325714.281
  25325713.438          40.500          37.400
 114817186.821 7  89467981.49245  21848975.156
  21848979.570          46.700          34.000
 119557060.466 7  93161418.157 7  22750955.234    22750959.859
  22750959.305          46.000          42.200
 126337495.229 6  98444819.156 7  24041222.461    24041228.289
  24041228.949          41.100          43.800
 110189789.001 8  85862207.00746  20968411.055
  20968414.535          48.400          40.100
 126812207.839 6  98814816.461 6  24131562.797    24131571.535
  24131571.609          39.000          40.800
 110033940.884 8  85740761.637 8  20938760.742    20938764.172
  20938764.547          49.900          49.200
 21  5 10  0 33 30.0000000  0  9G02G05G12G13G15G18G20G25G29
 119090847.753 7  92798109.34345  22662225.469
  22662226.789          47.300          35.500
 106095017.343 7  82671481.399 8  20189198.961    20189203.020
  20189202.980          46.600          51.900
 133186965.508 6 103782068.458 6  25344642.875    25344650.180
  25344650.414          40.700          38.700
 114740516.204 7  89408238.18745  21834385.211
  21834390.109          46.000          34.200
 119447015.058 7  93075668.620 7  22730013.680    22730018.465
  22730018.766          44.600          44.000
 126251948.846 7  98378159.705 7  24024943.328    24024949.059
  24024949.680          42.300          43.400
 110141512.058 7  85824588.63646  20959223.852
  20959227.371          47.200          39.300
 126897788.087 6  98881502.336 6  24147848.242    24147856.801
  24147856.566          39.000          38.900
 109991469.601 8  85707667.138 8  20930678.844    20930682.602
  20930682.645          50.600          48.700
 21  5 10  0 34  0.0000000  0  9G02G05G12G13G15G18G20G25G29
 119143126.154 7  92838845.77845  22672173.930
  22672174.648          46.000          34.900
 106118774.845 7  82689993.739 8  20193719.938    20193723.762
  20193723.641          47.800          51.700
 133286338.630 6 103859501.969 6  25363553.750    25363560.289
  25363560.102          40.600          37.900
 114664266.025 7  89348822.45845  21819875.750
  21819880.063          47.300          34.900
 119337180.824 7  92990083.604 7  22709113.477    22709118.172
  22709118.039          45.500          42.600
 126166414.070 7  98311509.248 7  24008667.195    24008672.465
  24008672.941          42.100          43.200
 110093548.483 8  85787214.43546  20950097.453
  20950100.883          48.700          40.500
 126983505.371 5  98948294.927 6  24164161.031    24164167.879
  24164167.980          35.700          39.500
 109949522.580 8  85674981.146 8  20922696.414    20922700.078
  20922699.883          49.700          48.900
 21  5 10  0 34 30.0000000  0  9G02G05G12G13G15G18G20G25G29
 119195603.239 7  92879736.99545  22682159.320
  22682160.402          46.600          34.500
 106142932.856 7  82708818.156 8  20198317.195    20198320.961
  20198320.840          47.400          51.600
 133385572.996 6 103936827.519 6  25382437.953    25382444.426
  25382444.359          41.400          38.400
 114588439.145 7  89289736.61345  21805446.336
  21805450.125          46.300          34.900
 119227560.777 7  92904665.417 7  22688253.539    22688257.891
  22688258.227          45.000          44.700
 126080891.191 6  98244868.098 7  23992392.477    23992398.801
  23992398.176          41.600          43.800
 110045897.473 7  85750083.78846  20941029.805
  20941031.953          47.600          39.600
 127069356.494 6  99015191.848 6  24180498.156    24180505.082
  24180505.063          39.400          40.300
 109908101.606 8  85642705.082 8  20914813.813    20914817.594
  20914817.629          49.100          48.800
 21  5 10  0 35  0.0000000  0  9G02G05G12G13G15G18G20G25G29
 119248279.302 7  92920783.29045  22692183.180
  22692184.480          46.300          34.700
 106167490.317 8  82727953.845 8  20202990.953    20202994.383
  20202994.332          49.200          51.900
 133484666.245 6 104014043.024 5  25401293.734    25401301.473
  25401301.113          39.800          32.300
 114513038.404 7  89230982.83545  21791098.227
  21791102.051          47.000          35.100
 119118158.288 7  92819416.844 7  22667434.602    22667439.031
  22667439.305          45.300          43.200
 125995380.971 7  98178236.762 7  23976120.656    23976125.785
  23976126.457          42.600          45.200
 109998559.471 7  85713197.07646  20932021.719
  20932024.957          47.800          39.900
 127155338.299 6  99082190.621 6  24196859.125    24196868.027
  24196867.578          38.300          40.000
 109867209.087 8  85610840.789 8  20907032.570    20907036.297
  20907036.441          49.200          49.100
 21  5 10  0 35 30.0000000  0  9G02G05G12G13G15G18G20G25G29
 119301154.647 8  92961984.84145  22702245.141
  22702247.254          48.500          35.200
 106192445.902 8  82747399.773 8  20207739.609    20207743.160
  20207743.086          49.500          52.500
 133583615.746 6 104091146.548 6  25420123.320    25420129.699
  25420130.281          36.600          36.600
 114438067.034 7  89172563.61645  21776831.523
  21776835.699          47.800          34.300
 119008976.069 7  92734339.877 7  22646657.625    22646662.453
  22646662.266          46.200          42.600
 125909884.041 7  98111615.872 7  23959850.867    23959857.023
  23959856.824          42.500          44.000
 109951534.857 8  85676554.52546  20923072.563
  20923076.305          48.000          39.800
 127241447.887 6  99149288.942 6  24213244.531    24213254.586
  24213254.273          39.000          41.600
 109826846.656 7  85579389.569 8  20899351.609    20899355.723
  20899355.797          47.800          48.500
 21  5 10  0 36  0.0000000  0  8G02G05G13G15G18G20G25G29
 119354229.750 7  93003342.10145  22712345.031
  22712347.336          44.100          34.700
 106217798.554 8  82767155.087 8  20212563.359    20212567.320
  20212567.289          49.300          52.400
 114363527.804 8  89114481.10845  21762647.336
  21762650.488          48.200          34.200
 118900017.521 7  92649437.171 7  22625923.469    22625928.309
  22625928.602          45.800          44.000
 125824401.445 6  98045006.098 7  23943583.930    23943590.043
  23943589.707          40.500          43.000
 109904823.672 8  85640156.25646  20914184.000
  20914187.309          48.900          40.700
 127327682.419 6  99216484.638 6  24229654.727    24229664.172
  24229663.801          38.100          41.500
 109787016.790 8  85548353.324 8  20891772.055    20891775.512
  20891775.563          49.200          48.400
 21  5 10  0 36 30.0000000  0  8G02G05G13G15G18G20G25G29
 119407504.637 7  93044854.93246  22722483.133
  22722485.820          45.800          36.100
 106243546.057 7  82787218.058 8  20217463.563    20217466.496
  20217466.523          47.200          52.700
 114289423.247 7  89056737.35945  21748545.648
  21748549.363          45.500          34.400
 118791285.078 7  92564710.733 7  22605231.922    22605236.832
  22605237.172          45.300          44.100
 125738933.058 6  97978407.427 7  23927318.602    23927324.691
  23927325.070          38.900          42.000
 109858425.777 7  85604002.03846  20905354.477
  20905358.387          47.600          40.000
 127414038.366 6  99283774.909 6  24246087.289    24246097.367
  24246097.063          38.800          41.800
 109747720.647 8  85517732.940 8  20884294.695    20884298.348
  20884298.117          49.100          48.800
 21  5 10  0 37  0.0000000  0  8G02G05G13G15G18G20G25G29
 119460979.469 7  93086523.69945  22732659.336
  22732661.699          44.600          35.400
 106269686.941 8  82807587.584 8  20222438.078    20222441.230
  20222441.113          48.200          51.500
 114215756.568 7  88999334.76745  21734527.195
  21734530.195          47.100          34.600
 118682782.294 7  92480163.215 7  22584584.461    22584589.141
  22584589.215          44.700          42.000
 125653479.909 6  97911820.564 6  23911058.016    23911063.348
  23911063.750          39.000          41.300
 109812341.335 8  85568092.11546  20896585.172
  20896588.027          48.000          39.900
 127500512.641 6  99351157.332 7  24262543.211    24262552.641
  24262552.523          37.800          42.000
 109708960.645 8  85487530.366 8  20876918.414    20876922.395
  20876922.461          48.600          49.100
 21  5 10  0 37 30.0000000  0  8G02G05G13G15G18G20G25G29
 119514654.573 7  93128348.38945  22742872.680
  22742875.074          45.700          35.700
 106296219.814 8  82828262.557 8  20227487.109    20227490.352
  20227490.473          48.800          52.200
 114142530.315 7  88942275.38245  21720592.328
  21720595.941          47.800          34.600
 118574511.471 7  92395796.440 7  22563981.383    22563985.840
  22563985.668          46.000          43.300
 125568042.217 7  97845245.776 7  23894800.305    23894805.328
  23894805.941          42.000          43.000
 109766570.130 8  85532426.23746  20887875.344
  20887878.688          48.100          40.200
 127587101.923 6  99418629.447 6  24279021.594    24279029.930
  24279029.770          38.800          39.400
 109670738.144 8  85457746.607 8  20869644.859    20869649.070
  20869649.242          49.100          49.200
 21  5 10  0 38  0.0000000  0  8G02G05G13G15G18G20G25G29
 119568529.980 7  93170329.23545  22753125.438
  22753128.313          44.900          35.800
 106323142.857 8  82849241.555 8  20232610.141    20232613.922
  20232613.852          48.300          52.000
 114069747.057 7  88885561.15045  21706742.766
  21706746.465          47.900          35.200
 118466475.628 7  92311612.794 7  22543422.609    22543427.555
  22543427.184          46.700          44.000
 125482620.688 7  97778683.569 7  23878545.375    23878550.664
  23878550.465          42.300          43.200
 109721112.399 7  85497004.66246  20879225.219
  20879227.898          47.500          40.000
 127673803.088 6  99486188.701 6  24295520.641    24295528.629
  24295528.539          39.500          39.800
 109633055.196 8  85428383.281 8  20862474.219    20862478.258
  20862478.113          48.800          49.200
 21  5 10  0 38 30.0000000  0  8G02G05G13G15G18G20G25G29
 119622606.130 7  93212466.50245  22763415.633
  22763417.434          47.800          35.700
 106350455.156 8  82870523.855 8  20237807.539    20237811.313
  20237811.223          48.400          51.200
 113997409.614 7  88829194.36045  21692977.047
  21692981.180          46.500          35.800
 118358678.041 7  92227614.752 7  22522909.055    22522914.594
  22522913.660          46.100          43.000
 125397216.003 7  97712134.485 7  23862293.117    23862298.449
  23862299.305          42.200          43.700
 109675967.965 8  85461827.19246  20870634.578
  20870637.254          48.600          40.300
 127760613.201 6  99553832.868 6  24312039.539    24312047.734
  24312047.711          39.200          39.900
 109595913.659 8  85399441.846 8  20855406.438    20855410.582
  20855410.922          48.900          50.200
 21  5 10  0 39  0.0000000  0  8G02G05G13G15G18G20G25G29
 119676883.037 7  93254760.15945  22773744.320
  22773745.625          46.400          34.100
 106378155.001 7  82892108.133 8  20243078.148    20243082.000
  20243081.664          47.600          51.100
 113925521.296 7  88773177.51945  21679297.352
  21679301.422          47.700          35.500
 118251121.298 7  92143804.401 7  22502442.656    22502447.016
  22502446.645          45.300          42.200
 125311828.629 6  97645598.898 7  23846044.930    23846050.398
  23846050.660          41.900          45.800
 109631136.826 7  85426893.85646  20862103.313
  20862106.609          47.400          40.200
 127847528.868 6  99621559.355 6  24328578.820    24328588.020
  24328587.191          37.100          40.700
 109559314.940 8  85370923.395 8  20848441.703    20848446.207
  20848446.309          48.400          49.300
 21  5 10  0 39 30.0000000  0  8G02G05G13G15G18G20G25G29
 119731361.259 7  93297210.72545  22784110.992
  22784113.957          45.900          35.900
 106406240.109 7  82913992.606 8  20248422.422    20248426.754
  20248426.582          47.000          50.700
 113854084.193 7  88717512.27645  21665703.359
  21665707.547          47.300          35.500
 118143808.299 7  92060184.028 7  22482021.344    22482025.609
  22482025.301          47.000          44.100
 125226459.200 7  97579077.280 7  23829799.266    23829804.953
  23829805.363          42.400          46.400
 109586619.166 8  85392204.82346  20853631.375
  20853635.094          48.300          40.500
 127934547.104 6  99689365.645 6  24345138.695    24345147.363
  24345146.609          37.500          40.600
 109523261.083 8  85342829.506 8  20841581.172    20841584.820
  20841585.047          48.900          49.500
 21  5 10  0 40  0.0000000  0  8G02G05G13G15G18G20G25G29
 119786040.705 7  93339818.09045  22794515.836
  22794516.039          47.200          33.600
 106434709.023 8  82936176.159 8  20253840.445    20253843.793
  20253843.895          48.200          51.500
 113783101.135 8  88662200.83145  21652195.563
  21652199.453          48.500          35.800
 118036742.035 7  91976755.859 7  22461646.914    22461651.930
  22461651.781          45.800          45.200
 125141108.350 6  97512570.213 7  23813558.117    23813563.504
  23813563.289          40.900          45.700
 109542414.971 8  85357760.00446  20845220.000
  20845223.305          49.100          40.400
 128021664.673 6  99757249.440 7  24361715.992    24361725.125
  24361725.137          39.300          42.600
 109487753.857 8  85315161.535 8  20834824.070    20834828.070
  20834827.746          49.000          48.400
 21  5 10  0 40 30.0000000  0  8G02G05G13G15G18G20G25G29
 119840921.920 7  93382582.68445  22804959.273
  22804961.441          44.700          33.500
 106463560.680 8  82958657.969 8  20259331.492    20259334.293
  20259334.254          49.100          51.300
 113712575.184 7  88607245.57945  21638775.445
  21638778.781          47.500          34.700
 117929925.773 7  91893522.503 7  22441320.172    22441325.316
  22441325.316          45.400          43.600
 125055776.785 6  97446078.186 7  23797318.781    23797324.727
  23797324.453          41.800          43.400
 109498524.342 8  85323559.52246  20836867.648
  20836870.680          48.200          40.400
 128108878.631 6  99825208.289 7  24378312.609    24378321.406
  24378321.250          38.100          42.100
 109452795.143 8  85287920.993 8  20828171.945    20828175.551
  20828175.449          49.300          48.800
 21  5 10  0 41  0.0000000  0  8G02G05G13G15G18G20G25G29
 119896005.121 7  93425504.62245  22815441.984
  22815442.875          44.800          34.000
 106492794.126 8  82981437.275 8  20264894.219    20264897.297
  20264897.199          48.900          51.300
 113642509.342 7  88552648.85045  21625441.836
  21625445.766          47.700          35.300
 117823362.738 7  91810486.430 7  22421042.227    22421046.590
  22421046.961          47.600          44.500
 124970465.501 7  97379601.891 7  23781084.594    23781089.629
  23781090.277          42.900          42.400
 109454947.471 8  85289603.55546  20828575.156
  20828578.379          49.800          41.400
 128196186.118 6  99893239.970 6  24394926.461    24394936.176
  24394935.359          37.500          41.200
 109418386.668 8  85261109.188 8  20821624.586    20821627.617
  20821627.848          48.700          48.900
 21  5 10  0 41 30.0000000  0  8G02G05G13G15G18G20G25G29
 119951290.671 7  93468584.28445  22825962.156
  22825962.770          47.800          33.600
 106522407.077 7  83004512.294 8  20270529.039    20270532.059
  20270532.320          47.300          51.400
 113572906.145 7  88498412.58645  21612197.789
  21612200.023          47.000          34.600
 117717055.580 7  91727649.787 7  22400812.195    22400816.629
  22400816.754          45.100          42.700
 124885175.023 7  97313141.769 6  23764854.195    23764859.066
  23764859.137          42.600          40.200
 109411684.629 8  85255892.23746  20820343.203
  20820346.207          50.000          40.900
 128283583.947 5  99961342.113 6  24411558.141    24411566.719
  24411566.254          35.700          40.300
 109384530.299 7  85234727.616 8  20815181.633    20815185.449
  20815185.609          47.300          49.500
 21  5 10  0 42  0.0000000  0  8G02G05G13G15G18G20G25G29
 120006778.510 7  93511821.55345  22836521.617
  22836523.598          46.400          34.700
 106552397.975 8  83027881.818 8  20276236.023    20276239.973
  20276239.809          48.300          51.000
 113503767.990 8  88444538.75045  21599040.188
  21599043.824          48.100          34.800
 117611006.994 7  91645014.550 7  22380631.367    22380636.258
  22380636.156          45.900          43.700
 124799905.769 7  97246698.186 6  23748628.484    23748633.414
  23748633.520          43.100          41.800
 109368734.715 8  85222424.81846  20812169.195
  20812172.441          49.700          40.300
 128371068.869 5 100029512.043 6  24428205.539    24428213.996
  24428213.684          33.600          39.200
 109351227.560 7  85208777.461 8  20808844.000    20808848.078
  20808848.000          47.900          50.100
 21  5 10  0 42 30.0000000  0  8G02G05G13G15G18G20G25G29
 120062469.091 7  93555216.84445  22847118.398
  22847120.164          46.000          34.500
 106582765.322 8  83051544.642 8  20282015.234    20282018.461
  20282018.313          48.500          51.000
 113435097.542 7  88391029.31545  21585972.516
  21585975.977          47.900          34.700
 117505220.322 7  91562583.433 7  22360501.328    22360505.508
  22360505.527          45.500          44.200
 124714658.560 7  97180271.813 7  23732406.859    23732412.242
  23732411.293          43.200          42.100
 109326098.568 8  85189201.84846  20804056.289
  20804059.672          48.100          40.600
 128458637.845 6 100097747.590 6  24444869.523    24444879.160
  24444877.613          36.600          36.200
 109318480.428 8  85183260.217 8  20802612.953    20802616.309
  20802616.371          48.400          49.800
 21  5 10  0 43  0.0000000  0  9G02G05G13G15G18G20G23G25G29
 120118362.380 7  93598770.00745  22857755.398
  22857755.734          44.300          34.200
 106613507.862 8  83075499.848 8  20287864.969    20287868.805
  20287868.512          48.300          51.800
 113366897.834 7  88337886.71245  21572994.563
  21572998.098          47.400          34.700
 117399698.145 7  91480358.373 7  22340421.063    22340425.891
  22340425.758          45.600          44.400
 124629434.040 6  97113863.122 7  23716189.172    23716194.023
  23716194.258          40.900          45.300
 109283775.916 8  85156223.18146  20796001.977
  20796005.625          48.500          40.800
 132342510.016 5 103124062.625 6  25183941.266    25183948.488
  25183949.156          35.600          41.100
 128546287.650 6 100166046.096 6  24461548.625    24461558.016
  24461557.234          37.400          38.800
 109286290.142 7  85158176.870 8  20796487.250    20796490.496
  20796490.793          47.200          49.400
 21  5 10  0 43 30.0000000  0  9G02G05G13G15G18G20G23G25G29
 120174458.547 7  93642481.31145  22868429.508
  22868432.887          46.400          35.000
 106644623.339 8  83099745.678 8  20293786.023    20293789.457
  20293789.457          49.100          52.300
 113299170.961 8  88285112.55145  21560106.156
  21560110.012          48.700          35.000
 117294443.376 7  91398341.754 7  22320391.828    22320395.695
  22320396.215          46.600          44.000
 124544232.750 6  97047472.570 7  23699974.430    23699981.102
  23699981.320          41.400          44.300
 109241766.873 8  85123488.86446  20788008.852
  20788011.484          48.900          40.700
 132248030.262 6 103050442.171 6  25165961.984    25165969.191
  25165969.723          38.700          40.000
 128634015.134 6 100234405.146 6  24478243.656    24478252.070
  24478251.496          38.900          39.900
 109254658.006 7  85133528.442 8  20790467.875    20790472.000
  20790472.211          46.400          49.900
 21  5 10  0 44  0.0000000  0  9G02G05G13G15G18G20G23G25G29
 120230758.323 7  93686351.24045  22879143.852
  22879144.695          43.000          33.600
 106676111.475 8  83124281.873 8  20299778.383    20299781.965
  20299782.094          48.800          52.000
 113231920.393 8  88232709.53245  21547309.133
  21547312.375          48.800          34.800
 117189459.579 7  91316536.245 7  22300413.813    22300418.457
  22300418.422          46.800          43.900
 124459055.996 6  96981101.120 7  23683766.539    23683772.152
  23683772.996          40.400          46.100
 109200071.773 8  85090999.17846  20780074.578
  20780077.559          48.800          40.900
 132153658.081 5 102976905.493 6  25148003.625    25148011.184
  25148010.984          34.100          39.900
 128721817.902 6 100302822.843 6  24494950.586    24494960.223
  24494960.066          36.900          38.300
 109223586.657 7  85109317.006 8  20784555.320    20784558.867
  20784559.203          46.800          49.200
 21  5 10  0 44 30.0000000  0  9G02G05G13G15G18G20G23G25G29
 120287261.164 7  93730379.35745  22889894.695
  22889897.348          45.200          34.400
 106707969.088 7  83149105.967 8  20305840.609    20305843.305
  20305843.777          47.700          50.900
 113165148.079 8  88180679.19045  21534602.820
  21534607.039          48.000          35.700
 117084748.778 7  91234943.408 7  22280488.469    22280492.398
  22280492.406          46.300          44.300
 124373903.470 7  96914748.546 7  23667562.945    23667568.125
  23667568.629          42.600          43.000
 109158689.531 7  85058753.30846  20772199.281
  20772202.363          47.600          40.700
 132059393.032 5 102903452.406 6  25130064.867    25130072.023
  25130072.324          32.000          39.100
 128809691.889 6 100371296.062 6  24511672.914    24511681.598
  24511681.930          38.000          39.600
 109193076.741 8  85085543.047 8  20778749.008    20778753.422
  20778753.582          48.900          50.300
 21  5 10  0 45  0.0000000  0  9G02G05G13G15G18G20G23G25G29
 120343967.581 7  93774566.21345  22900685.633
  22900689.004          43.700          34.300
 106740195.028 7  83174217.084 8  20311972.766    20311976.113
  20311975.953          47.400          50.900
 113098856.558 8  88129023.49145  21521987.734
  21521991.625          48.700          35.900
 116980314.313 7  91153565.947 7  22260614.852    22260619.332
  22260619.598          47.000          45.300
 124288776.393 7  96848415.755 7  23651363.898    23651368.684
  23651369.039          43.700          43.100
 109117620.725 7  85026751.63046  20764383.891
  20764387.277          47.900          40.800
 131965236.749 5 102830083.986 6  25112147.133    25112154.918
  25112155.355          32.900          40.400
 128897634.432 5 100439822.667 6  24528408.516    24528416.852
  24528416.738          35.800          40.900
 109163130.175 8  85062208.061 8  20773050.398    20773054.160
  20773054.305          48.900          49.500
 21  5 10  0 45 30.0000000  0  9G02G05G13G15G18G20G23G25G29
 120400877.834 7  93818911.81345  22911515.258
  22911517.082          44.500          33.400
 106772788.227 7  83199614.390 8  20318174.914    20318178.836
  20318178.711          47.000          51.400
 113033048.974 8  88077744.87246  21509465.102
  21509468.570          48.000          36.300
 116876159.622 7  91072406.431 7  22240795.438    22240799.020
  22240799.563          47.600          44.900
 124203675.828 6  96782103.634 7  23635169.055    23635175.094
  23635174.711          40.500          43.000
 109076865.517 8  84994994.34946  20756628.430
  20756631.586          48.500          40.500
 131871190.177 6 102756800.987 6  25094251.445    25094258.238
  25094258.582          37.900          37.900
 128985642.715 6 100508400.468 6  24545155.563    24545163.930
  24545163.500          37.900          37.900
 109133749.042 8  85039313.667 8  20767459.375    20767463.105
  20767463.230          48.400          50.300
 21  5 10  0 46  0.0000000  0  9G02G05G13G15G18G20G23G25G29
 120457992.134 7  93863416.48545  22922384.313
  22922386.875          43.700          33.500
 106805746.913 7  83225296.508 8  20324446.609    20324450.207
  20324450.203          47.700          51.600
 112967727.543 8  88026845.07346  21497034.477
  21497038.254          48.600          36.800
 116772287.122 8  90991466.853 7  22221029.141    22221033.133
  22221033.273          48.100          44.300
 124118602.133 6  96715812.490 7  23618980.844    23618986.441
  23618986.688          38.800          43.700
 109036423.636 8  84963481.18846  20748932.977
  20748936.266          48.900          40.800
 131777253.761 6 102683603.804 6  25076376.313    25076383.168
  25076383.031          37.600          39.200
 129073713.526 6 100577026.992 6  24561915.039    24561923.398
  24561923.188          36.600          39.700
 109104934.355 8  85016860.654 8  20761976.266    20761980.090
  20761980.113          48.100          50.000
 21  5 10  0 46 30.0000000  0  9G02G05G13G15G18G20G23G25G29
 120515310.874 7  93908080.41545  22933291.070
  22933291.855          44.400          32.900
 106839069.594 7  83251262.243 8  20330787.961    20330791.449
  20330791.285          47.600          51.200
 112902894.858 7  87976326.11045  21484697.711
  21484700.773          47.200          35.800
 116668699.623 7  90910749.333 7  22201316.711    22201320.824
  22201320.625          47.200          44.900
 124033556.150 6  96649542.924 7  23602797.133    23602801.785
  23602802.145          41.300          44.100
 108996294.952 8  84932212.07246  20741296.563
  20741299.531          48.900          40.700
 131683428.374 6 102610493.178 6  25058522.102    25058528.898
  25058529.219          37.600          37.800
 129161843.696 6 100645699.753 6  24578686.352    24578694.559
  24578693.715          38.100          38.700
 109076687.793 7  84994850.333 8  20756601.195    20756604.891
  20756605.070          47.900          49.900
 21  5 10  0 47  0.0000000  0  9G02G05G13G15G18G20G23G25G29
 120572833.572 7  93952903.29645  22944238.141
  22944239.758          45.000          33.600
 106872754.029 8  83277509.835 8  20337197.781    20337201.316
  20337201.578          48.500          50.200
 112838552.911 7  87926189.55346  21472453.531
  21472457.406          47.600          36.500
 116565399.897 7  90830256.075 7  22181659.250    22181664.031
  22181663.813          46.900          45.800
 123948538.192 6  96583295.207 7  23586619.023    23586623.426
  23586623.457          41.700          44.200
 108956479.222 8  84901186.81846  20733720.133
  20733722.801          48.200          41.100
 131589714.466 5 102537469.404 6  25040689.141    25040695.254
  25040695.348          35.400          40.400
 129250029.898 6 100714416.176 6  24595466.883    24595476.738
  24595474.922          39.600          37.500
 109049010.447 7  84973283.564 8  20751334.016    20751338.320
  20751338.316          47.500          49.800
 21  5 10  0 47 30.0000000  0  9G02G05G13G15G18G20G23G25G29
 120630560.741 7  93997885.52345  22955222.781
  22955225.027          45.700          33.500
 106906799.299 8  83304038.586 8  20343676.523    20343679.703
  20343679.980          49.300          50.300
 112774705.168 7  87876438.08346  21460303.984
  21460307.840          47.900          36.400
 116462391.461 7  90749989.754 7  22162057.414    22162061.840
  22162062.207          46.700          45.100
 123863549.412 6  96517070.234 7  23570445.453    23570450.602
  23570450.828          40.500          42.400
 108916976.621 8  84870405.58846  20726202.648
  20726205.496          48.100          40.000
 131496113.275 6 102464533.505 6  25022876.742    25022883.449
  25022883.660          36.900          39.000
 129338269.485 6 100783174.326 6  24612258.281    24612266.797
  24612266.203          38.600          37.900
 109021904.415 8  84952161.978 8  20746176.391    20746179.719
  20746179.883          49.000          49.900
 21  5 10  0 48  0.0000000  0  9G02G05G13G15G18G20G23G25G29
 120688492.722 7  94043027.27345  22966247.219
  22966249.055          45.100          34.000
 106941203.682 8  83330847.186 8  20350222.938    20350226.563
  20350226.668          48.800          49.200
 112711353.857 7  87827073.44646  21448248.555
  21448252.668          47.300          36.800
 116359677.024 7  90669952.514 7  22142511.586    22142515.977
  22142516.063          47.200          43.800
 123778590.657 6  96450868.654 7  23554277.891    23554283.828
  23554283.664          39.700          43.900
 108877787.284 8  84839868.43846  20718744.906
  20718748.426          48.100          40.200
 131402625.512 6 102391685.982 6  25005087.289    25005093.590
  25005094.254          36.700          39.500
 129426559.469 6 100851971.643 6  24629059.711    24629068.652
  24629067.527          36.700          39.500
 108995371.306 8  84931486.821 8  20741127.539    20741130.934
  20741130.910          48.200          50.200
 21  5 10  0 48 30.0000000  0  9G02G05G13G15G18G20G23G25G29
 120746629.878 7  94088328.96545  22977310.117
  22977311.547          44.600          33.500
 106975966.302 8  83357934.937 8  20356838.680    20356842.199
  20356842.191          48.100          51.200
 112648501.691 7  87778097.72846  21436288.547
  21436292.164          47.600          36.400
 116257259.801 8  90590146.862 7  22123022.242    22123026.914
  22123027.004          48.000          44.900
 123693662.725 7  96384691.081 7  23538116.789    23538122.305
  23538123.230          42.400          44.900
 108838911.361 8  84809575.52646  20711347.820
  20711351.348          49.100          41.300
 131309252.045 5 102318927.569 6  24987318.422    24987324.418
  24987325.391          34.200          39.000
 129514896.932 6 100920805.930 5  24645869.172    24645878.984
  24645877.348          37.400          34.900
 108969412.315 8  84911259.003 8  20736187.164    20736190.664
  20736190.508          49.800          49.400
 21  5 10  0 49  0.0000000  0  9G02G05G13G15G18G20G23G25G29
 120804972.062 7  94133790.38345  22988412.570
  22988414.242          43.400          33.100
 107011084.564 7  83385299.858 8  20363521.070    20363524.797
  20363524.832          47.700          51.400
 112586150.667 7  87729512.54146  21424423.633
  21424426.777          47.500          36.500
 116155142.252 7  90510574.757 7  22103589.898    22103594.133
  22103594.258          47.200          44.100
 123608766.247 7  96318538.055 7  23521961.906    23521966.730
  23521966.445          44.100          44.100
 108800348.515 8  84779526.54746  20704009.547
  20704012.816          48.400          40.400
 131215993.507 6 102246258.664 6  24969571.188    24969578.465
  24969578.723          36.800          37.000
 129603278.615 6 100989674.700 6  24662688.203    24662697.789
  24662697.078          36.900          40.400
 108944028.727 8  84891479.601 8  20731357.102    20731360.566
  20731360.734          48.100          49.800
 21  5 10  0 49 30.0000000  0  9G02G05G13G15G18G20G23G25G29
 120863519.343 7  94179411.64945  22999553.828
  22999555.133          43.100          32.600
 107046556.849 8  83412940.641 8  20370271.227    20370274.789
  20370274.867          48.300          50.900
 112524303.402 7  87681319.89246  21412653.648
  21412657.602          47.200          36.400
 116053327.315 8  90431238.445 7  22084215.563    22084219.742
  22084219.527          48.100          43.800
 123523901.969 7  96252410.063 7  23505813.359    23505818.180
  23505817.477          44.100          43.400
 108762098.254 8  84749721.17046  20696730.695
  20696733.652          48.100          41.000
 131122850.651 6 102173679.924 6  24951846.883    24951853.398
  24951854.246          40.000          37.500
 129691701.300 6 101058575.344 6  24679514.961    24679524.152
  24679523.215          39.900          40.400
 108919222.009 8  84872149.688 8  20726636.438    20726639.824
  20726639.566          49.500          49.400
 21  5 10  0 50  0.0000000  0  9G02G05G13G15G18G20G23G25G29
 120922272.045 7  94225192.90645  23010733.797
  23010735.883          43.600          32.800
 107082381.540 8  83440855.980 8  20377088.523    20377092.043
  20377092.000          49.000          49.600
 112462962.390 7  87633521.70946  21400981.367
  21400984.699          47.900          36.300
 115951818.065 7  90352140.294 7  22064898.375    22064903.582
  22064903.180          47.900          43.800
 123439070.583 7  96186307.757 7  23489669.813    23489674.813
  23489674.887          42.000          44.000
 108724160.768 7  84720159.51146  20689510.961
  20689514.043          47.900          40.800
 131029824.084 6 102101191.766 6  24934145.297    24934151.219
  24934151.348          40.000          39.800
 129780162.081 6 101127505.810 6  24696348.555    24696357.699
  24696357.980          40.400          40.400
 108894993.487 8  84853270.307 8  20722026.234    20722029.750
  20722030.109          48.500          50.200
 21  5 10  0 50 30.0000000  0  9G02G05G13G15G18G20G23G25G29
 120981230.201 7  94271134.33245  23021953.508
  23021956.504          44.100          33.300
 107118557.151 8  83469044.753 8  20383972.563    20383975.723
  20383975.855          48.700          49.500
 112402130.109 8  87586119.96246  21389404.891
  21389408.504          48.300          36.100
 115850617.333 7  90273282.594 7  22045640.969    22045645.746
  22045645.379          47.200          45.000
 123354272.942 7  96120231.741 7  23473532.773    23473538.023
  23473538.656          43.400          43.600
 108686535.967 8  84690841.50046  20682351.508
  20682354.297          48.800          41.300
 130936914.691 6 102028794.913 6  24916464.594    24916470.898
  24916471.313          38.100          38.600
 129868657.954 6 101196463.511 6  24713188.297    24713197.789
  24713197.496          39.000          39.400
 108871344.714 8  84834842.697 8  20717525.617    20717529.508
  20717529.734          48.800          49.800
 21  5 10  0 51  0.0000000  0  9G02G05G13G15G18G20G23G25G29
 121040394.189 7  94317236.11145  23033212.031
  23033213.098          44.500          32.500
 107155082.476 8  83497506.038 8  20390922.984    20390926.535
  20390926.859          48.900          50.300
 112341808.976 7  87539116.49546  21377926.523
  21377930.625          47.800          36.600
 115749727.971 7  90194667.499 7  22026442.781    22026446.996
  22026446.852          47.600          45.400
 123269510.025 7  96054182.733 7  23457403.391    23457407.676
  23457407.742          42.900          42.800
 108649223.816 8  84661767.10846  20675251.297
  20675254.313          48.500          41.200
 130844123.238 6 101956489.957 7  24898806.992    24898813.938
  24898814.219          37.100          42.400
 129957186.137 6 101265446.394 6  24730034.969    24730044.180
  24730043.645          39.200          39.200
 108848277.035 8  84816867.888 8  20713135.609    20713139.523
  20713139.590          48.700          49.600
 21  5 10  0 51 30.0000000  0  9G02G05G13G15G18G20G23G25G29
 121099764.210 7  94363498.46045  23044509.398
  23044512.195          45.500          33.300
 107191955.875 7  83526238.556 8  20397939.906    20397943.410
  20397943.367          47.800          50.000
 112282000.938 7  87492512.84946  21366545.313
  21366549.094          47.100          36.500
 115649152.854 7  90116297.286 7  22007303.430    22007307.875
  22007308.234          47.600          46.000
 123184782.420 7  95988161.284 7  23441280.313    23441284.965
  23441285.563          43.300          44.600
 108612224.087 8  84632936.16646  20668210.648
  20668213.742          48.600          41.300
 130751450.371 5 101884277.455 7  24881171.266    24881178.703
  24881178.934          34.900          42.500
 130045743.378 6 101334451.887 6  24746886.242    24746895.613
  24746896.141          38.300          39.200
 108825791.548 8  84799346.717 8  20708857.078    20708860.750
  20708860.895          49.200          49.500
 21  5 10  0 52  0.0000000  0  9G02G05G13G15G18G20G23G25G29
 121159340.128 7  94409921.23045  23055847.219
  23055848.148          44.900          32.100
 107229175.084 8  83555240.552 8  20405022.273    20405025.910
  20405025.938          49.000          50.300
 112222708.758 7  87446311.18445  21355261.883
  21355265.809          47.400          35.800
 115548894.884 7  90038174.157 7  21988224.867    21988229.051
  21988229.637          47.000          45.600
 123100090.958 6  95922167.965 7  23425164.602    23425169.316
  23425169.488          41.200          44.000
 108575537.112 7  84604348.94646  20661228.875
  20661232.008          47.700          40.100
 130658896.855 6 101812157.935 7  24863558.797    24863566.105
  24863567.145          37.500          43.000
 130134326.705 6 101403477.837 6  24763744.031    24763752.348
  24763752.621          36.600          37.000
 108803889.747 8  84782280.380 8  20704689.234    20704693.105
  20704693.332          48.100          49.700
 21  5 10  0 52 30.0000000  0  9G02G05G13G15G18G20G23G25G29
 121219121.944 7  94456504.43745  23067222.914
  23067224.695          45.200          33.100
 107266739.251 7  83584511.330 8  20412170.813    20412174.375
  20412174.273          47.200          50.700
 112163934.977 7  87400513.43946  21344077.938
  21344082.117          46.900          36.700
 115448957.265 8  89960300.712 7  21969207.453    21969212.102
  21969212.238          48.000          45.300
 123015436.765 6  95856203.732 7  23409055.531    23409060.043
  23409059.641          41.000          44.900
 108539162.490 8  84576005.08146  20654307.297
  20654310.602          49.400          41.200
 130566463.787 6 101740132.197 6  24845970.125    24845976.875
  24845976.605          37.700          41.000
 130222933.634 6 101472522.167 6  24780605.234    24780613.754
  24780613.723          37.000          36.500
 108782573.296 8  84765670.155 8  20700633.273    20700636.773
  20700636.797          49.300          50.600
 21  5 10  0 53  0.0000000  0  9G02G05G13G15G18G20G23G25G29
 121279109.745 7  94503248.16445  23078638.383
  23078639.664          45.400          32.800
 107304646.024 7  83614049.112 8  20419383.820    20419388.063
  20419387.906          46.400          50.500
 112105681.455 7  87355121.12446  21332992.453
  21332996.504          46.900          36.400
 115349342.311 7  89882678.657 7  21950251.547    21950255.645
  21950255.859          47.300          45.000
 122930820.036 7  95790268.699 7  23392953.117    23392957.180
  23392957.695          42.800          45.000
 108503099.623 7  84547904.16046  20647444.453
  20647447.145          47.500          39.900
 130474151.226 6 101668200.400 7  24828403.406    24828409.625
  24828410.156          36.300          42.400
 130311560.233 5 101541581.824 6  24797468.836    24797478.883
  24797479.359          34.700          39.400
 108761842.206 8  84749516.090 8  20696687.797    20696691.738
  20696691.828          48.200          49.500
 21  5 10  0 53 30.0000000  0  9G02G05G13G15G18G20G23G25G29
 121339304.426 7  94550153.08345  23090092.656
  23090095.250          45.500          33.400
 107342894.829 7  83643853.394 8  20426662.820    20426666.238
  20426666.230          47.500          50.700
 112047951.138 8  87310136.47446  21322007.164
  21322009.859          48.000          37.200
 115250053.577 8  89805310.830 7  21931357.469    21931361.410
  21931361.324          48.700          44.600
 122846242.497 7  95724364.140 7  23376858.078    23376863.367
  23376863.094          43.100          44.500
 108467349.343 8  84520046.81646  20640641.617
  20640644.496          48.000          40.700
 130381960.755 5 101596363.646 7  24810859.609    24810866.078
  24810866.883          35.200          42.400
 130400204.353 6 101610655.046 6  24814338.523    24814347.832
  24814347.820          38.100          40.600
 108741699.172 7  84733820.219 8  20692854.688    20692858.742
  20692858.695          47.800          50.300
 21  5 10  0 54  0.0000000  0  9G02G05G13G15G18G20G23G25G29
 121399705.133 7  94597218.54945  23101586.523
  23101587.809          44.200          32.400
 107381483.270 8  83673922.318 8  20434005.813    20434009.645
  20434009.586          49.200          50.300
 111990745.822 7  87265560.93246  21311121.664
  21311125.195          46.600          37.100
 115151093.333 8  89728198.949 7  21912525.797    21912529.859
  21912529.832          48.000          44.700
 122761704.251 7  95658490.220 7  23360771.070    23360776.012
  23360776.668          42.100          45.800
 108431910.812 7  84492432.37946  20633897.477
  20633900.848          47.300          40.500
 130289892.409 5 101524622.178 6  24793337.859    24793346.383
  24793346.941          31.000          41.500
 130488862.468 6 101679739.186 6  24831210.227    24831218.926
  24831218.891          40.000          40.700
 108722144.923 7  84718583.144 8  20689133.813    20689137.289
  20689137.398          47.800          49.100
 21  5 10  0 54 30.0000000  0  9G02G05G13G15G18G20G23G25G29
 121460312.603 7  94644445.08145  23113120.352
  23113121.547          44.800          32.300
 107420409.709 8  83704254.597 8  20441413.547    20441416.789
  20441416.762          48.300          50.600
 111934067.875 7  87221396.33446  21300335.148
  21300339.117          47.000          36.400
 115052464.703 7  89651345.521 7  21893757.109    21893762.070
  21893761.848          47.800          45.200
 122677206.475 7  95592647.855 7  23344691.320    23344696.340
  23344696.379          43.200          45.000
 108396784.218 8  84465061.03446  20627213.531
  20627216.266          48.900          41.100
 130197947.143 5 101452976.564 7  24775842.016    24775850.250
  24775850.566          33.700          43.300
 130577531.862 6 101748832.166 6  24848083.578    24848092.770
  24848092.234          38.100          40.800
 108703180.516 7  84703805.668 8  20685524.781    20685529.145
  20685529.043          47.500          50.300
 21  5 10  0 55  0.0000000  0  9G02G05G13G15G18G20G23G25G29
 121521126.547 7  94691832.55145  23124692.539
  23124694.164          44.100          32.000
 107459672.504 8  83734848.966 8  20448884.875    20448888.246
  20448888.266          48.600          50.000
 111877919.703 8  87177644.51646  21289651.039
  21289654.258          48.300          36.700
 114954170.339 8  89574752.504 7  21875052.633    21875056.805
  21875056.809          48.300          45.000
 122592749.690 6  95526837.439 7  23328619.641    23328624.820
  23328624.941          41.200          43.700
 108361969.059 7  84437932.34846  20620587.984
  20620591.320          47.000          40.000
 130106125.489 6 101381427.373 7  24758369.781    24758377.223
  24758377.125          37.500          44.400
 130666209.410 6 101817931.451 6  24864957.961    24864967.715
  24864967.328          38.100          39.500
 108684806.895 7  84689488.570 8  20682028.375    20682032.594
  20682032.762          47.200          49.500
 21  5 10  0 55 30.0000000  0  9G02G05G13G15G18G20G23G25G29
 121582147.366 7  94739381.17045  23136304.992
  23136305.797          45.700          32.600
 107499270.125 8  83765704.234 8  20456420.344    20456424.012
  20456424.074          48.300          50.300
 111822303.208 7  87134307.01146  21279067.461
  21279070.734          47.800          36.900
 114856213.147 8  89498422.278 7  21856412.102    21856416.090
  21856416.238          48.500          46.000
 122508335.138 6  95461059.861 6  23312556.453    23312560.449
  23312559.930          41.900          41.900
 108327465.480 8  84411046.44346  20614022.617
  20614025.105          48.000          40.800
 130014428.261 6 101309975.097 7  24740920.984    24740927.109
  24740927.285          39.900          42.400
 130754892.356 5 101887034.923 6  24881832.477    24881843.148
  24881843.258          35.200          39.100
 108667025.383 8  84675632.829 8  20678644.711    20678648.730
  20678648.469          48.500          50.000
 21  5 10  0 56  0.0000000  0  9G02G05G13G15G18G20G23G25G29
 121643375.033 7  94787091.06645  23147955.648
  23147958.250          44.600          33.100
 107539201.233 7  83796819.391 8  20464018.203    20464022.441
  20464022.320          47.600          50.700
 111767221.179 8  87091385.99046  21268585.234
  21268589.203          48.100          37.100
 114758596.175 7  89422357.144 7  21837836.195    21837840.590
  21837840.758          47.700          46.000
 122423963.625 7  95395315.820 7  23296501.188    23296505.480
  23296506.430          43.800          44.100
 108293273.440 8  84384403.31746  20607515.609
  20607519.375          48.600          41.000
 129922856.268 6 101238620.405 6  24723494.664    24723501.250
  24723501.086          39.000          40.500
 130843577.686 6 101956140.371 5  24898710.031    24898718.719
  24898718.621          38.300          34.200
 108649837.405 7  84662239.601 8  20675373.820    20675378.238
  20675378.309          47.200          49.700
 21  5 10  0 56 30.0000000  0  9G02G05G13G15G18G20G23G25G29
 121704809.707 7  94834962.16545  23159646.633
  23159647.441          45.200          32.100
 107579464.324 8  83828193.211 8  20471680.305    20471684.129
  20471684.348          48.800          50.500
 111712675.288 7  87048882.70446  21258205.633
  21258209.367          47.800          37.100
 114661322.260 7  89346559.350 7  21819325.828    21819329.793
  21819329.824          47.100          46.000
 122339636.029 7  95329606.056 7  23280454.281    23280458.754
  23280459.059          44.300          44.800
 108259392.945 8  84358002.94246  20601069.047
  20601071.840          48.500          40.900
 129831410.121 6 101167363.784 6  24706092.563    24706099.141
  24706099.652          38.000          37.700
 130932262.442 6 102025245.340 6  24915586.438    24915595.668
  24915594.633          37.500          36.400
 108633243.857 8  84649309.556 8  20672216.703    20672220.559
  20672220.813          48.000          50.900
 21  5 10  0 57  0.0000000  0  9G02G05G13G15G18G20G23G25G29
 121766451.531 7  94882994.72645  23171375.984
  23171379.035          44.700          31.900
 107620057.074 8  83859823.917 8  20479405.008    20479408.297
  20479408.484          50.000          51.300
 111658667.986 7  87006799.12246  21247928.547
  21247932.699          47.700          37.200
 114564394.065 7  89271030.917 7  21800881.125    21800885.070
  21800885.191          46.300          45.000
 122255353.151 7  95263931.103 7  23264416.102    23264420.594
  23264420.828          43.300          45.200
 108225823.522 8  84331844.95646  20594680.586
  20594683.578          48.300          41.300
 129740090.496 6 101096205.696 6  24688715.156    24688722.363
  24688721.836          37.100          36.700
 131020943.669 6 102094347.468 5  24932462.234    24932470.863
  24932470.785          38.000          33.900
 108617245.746 8  84636843.501 8  20669172.258    20669176.035
  20669176.246          48.100          50.500
 21  5 10  0 57 30.0000000  0  9G02G05G13G15G18G20G23G25G29
 121828300.501 7  94931188.71045  23183145.000
  23183147.090          44.800          30.900
 107660978.410 8  83891710.675 8  20487191.992    20487195.453
  20487195.664          50.200          50.900
 111605201.349 7  86965136.82446  21237754.195
  21237758.699          47.000          37.200
 114467814.390 7  89195774.097 7  21782501.844    21782505.918
  21782506.305          47.800          46.300
 122171116.063 7  95198291.837 7  23248385.594    23248390.637
  23248391.445          42.000          44.600
 108192565.340 7  84305929.49846  20588351.633
  20588354.652          47.200          40.800
 129648898.223 6 101025146.954 6  24671361.539    24671369.281
  24671368.199          40.700          39.300
 131109618.523 6 102163444.785 6  24949336.109    24949345.180
  24949344.934          36.600          39.700
 108601844.537 8  84624842.546 8  20666241.320    20666244.867
  20666245.203          48.800          49.600
 21  5 10  0 58  0.0000000  0  9G02G05G13G15G18G20G23G25G29
 121890356.944 7  94979544.34745  23194955.063
  23194956.770          43.600          31.900
 107702226.784 8  83923852.274 8  20495041.125    20495044.418
  20495044.660          49.600          49.700
 111552277.653 7  86923897.62946  21227683.109
  21227687.395          47.900          37.200
 114371586.360 7  89120791.260 7  21764190.688    21764194.156
  21764194.465          47.000          46.200
 122086925.616 7  95132688.843 7  23232364.961    23232369.129
  23232369.766          43.000          43.900
 108159617.954 8  84280256.22446  20582082.414
  20582085.098          48.000          41.500
 129557833.964 6 100954187.896 6  24654033.328    24654039.691
  24654040.063          41.800          38.100
 131198284.113 6 102232534.752 6  24966208.914    24966218.230
  24966217.898          37.000          38.800
 108587041.164 8  84613307.440 8  20663424.313    20663427.902
  20663428.418          48.800          50.800
 21  5 10  0 58 30.0000000  0  9G02G05G13G15G18G20G23G25G29
 121952620.451 7  95028061.33245  23206802.570
  23206805.430          43.200          31.500
 107743800.372 8  83956247.271 8  20502952.852    20502956.016
  20502956.105          49.700          49.600
 111499898.780 8  86883082.93646  21217715.789
  21217719.824          48.200          37.000
 114275712.414 8  89046084.337 7  21745946.383    21745950.246
  21745950.027          48.200          45.700
 122002782.678 6  95067122.914 7  23216353.523    23216358.027
  23216357.699          40.400          44.100
 108126981.017 7  84254824.85346  20575871.531
  20575874.559          47.300          40.900
 129466898.260 6 100883329.018 6  24636728.680    24636735.414
  24636735.770          39.900          41.900
 131286937.313 6 102301615.046 6  24983078.133    24983088.352
  24983087.668          36.700          38.900
 108572836.333 8  84602238.751 8  20660721.367    20660725.539
  20660725.668          49.000          51.200
 21  5 10  0 59  0.0000000  0  9G02G05G13G15G18G20G23G25G29
 122015091.467 7  95076740.00645  23218691.000
  23218693.176          42.700          32.300
 107785697.516 8  83988894.393 8  20510925.289    20510928.801
  20510928.855          48.000          49.300
 111448067.150 8  86842694.67546  21207852.641
  21207856.758          48.000          37.700
 114180195.669 8  88971655.744 7  21727769.813    21727774.168
  21727774.336          48.100          45.900
 121918688.283 7  95001594.822 7  23200350.641    23200355.160
  23200354.262          42.800          43.700
 108094654.827 7  84229635.60746  20569720.383
  20569723.410          47.500          41.300
 129376091.976 6 100812570.944 6  24619448.922    24619455.297
  24619455.227          38.400          39.700
 131375575.510 5 102370683.719 5  24999945.117    24999955.234
  24999954.348          35.400          35.600
 108559231.285 8  84591637.412 8  20658132.477    20658136.133
  20658136.066          49.600          49.900
 21  5 10  0 59 30.0000000  0  9G02G05G13G15G18G20G23G25G29
 122077769.716 7  95125580.17945  23230618.141
  23230620.430          44.100          32.100
 107827916.365 8  84021792.185 8  20518959.359    20518962.574
  20518962.512          48.300          48.600
 111396784.491 8  86802734.16846  21198094.172
  21198097.023          48.400          37.200
 114085038.753 7  88897507.542 7  21709662.391    21709666.664
  21709666.000          47.200          45.000
 121834643.074 6  94936105.064 7  23184358.000    23184361.910
  23184361.262          41.300          43.300
 108062639.004 7  84204688.23246  20563627.414
  20563631.027          47.200          41.400
 129285415.433 6 100741914.028 6  24602193.219    24602199.840
  24602199.547          36.900          41.300
 131464195.369 5 102439738.093 6  25016811.531    25016819.469
  25016819.219          34.600          40.600
 108546226.601 8  84581503.860 8  20655657.867    20655661.547
  20655661.570          49.600          50.500
 21  5 10  1  0  0.0000000  4  4
+39.764739464 (latitude)                                    COMMENT
-084.18064853 (longitude)                                   COMMENT
+196.575      (elevation)                                   COMMENT
+.000000      (antenna height)                              COMMENT
 21  5 10  1  0  0.0000000  0  9G02G05G13G15G18G20G23G25G29
 122140655.279 7  95174581.88445  23242584.977
  23242587.930          45.100          32.700
 107870455.617 8  84054939.644 8  20527054.227    20527057.641
  20527057.820          48.100          50.300
 111346052.919 7  86763203.10546  21188439.695
  21188443.180          47.800          36.600
 113990244.405 7  88823641.869 7  21691623.531    21691627.527
  21691627.371          47.800          45.800
 121750648.110 7  94870654.405 7  23168373.352    23168378.090
  23168378.746          42.800          45.300
 108030933.198 7  84179982.40446  20557594.289
  20557596.980          46.800          40.300
 129194869.386 6 100671358.778 6  24584962.547    24584969.941
  24584969.082          37.600          39.900
 131552794.262 6 102508776.097 6  25033669.406    25033679.961
  25033679.336          36.500          39.000
 108533823.215 8  84571838.909 8  20653297.336    20653301.652
  20653301.707          48.600          50.500
 21  5 10  1  0 30.0000000  0  9G02G05G13G15G18G20G23G25G29
 122203748.525 7  95223745.39445  23254591.922
  23254594.031          46.200          33.100
 107913313.787 8  84088335.614 8  20535209.742    20535213.707
  20535213.992          48.600          50.300
 111295874.757 8  86724103.24846  21178891.234
  21178894.777          48.100          37.000
 113895815.402 8  88750060.907 7  21673653.852    21673658.367
  21673658.234          48.300          45.500
 121666704.430 7  94805243.738 7  23152399.227    23152403.898
  23152403.734          42.600          44.300
 107999537.474 7  84155518.22646  20551619.703
  20551622.863          47.400          40.800
 129104454.778 6 100600905.874 6  24567757.680    24567764.172
  24567763.637          36.600          41.400
 131641369.215 6 102577795.458 6  25050524.703    25050534.879
  25050535.125          36.900          40.200
 108522022.345 8  84562643.402 8  20651051.805    20651055.625
  20651055.637          48.900          50.100
 21  5 10  1  1  0.0000000  0  9G02G05G13G15G18G20G23G25G29
 122267049.105 7  95273070.50045  23266637.188
  23266639.227          45.500          32.700
 107956488.501 8  84121978.250 8  20543425.492    20543429.414
  20543429.645          49.500          50.900
 111246251.335 8  86685435.66546  21169448.398
  21169451.500          48.500          36.200
 113801754.358 7  88676766.603 7  21655754.719    21655759.078
  21655759.047          47.500          46.400
 121582812.726 7  94739873.558 7  23136435.367    23136439.867
  23136440.242          43.600          44.300
 107968451.657 7  84131295.52146  20545704.273
  20545707.656          46.600          40.000
 129014171.796 6 100530555.583 6  24550578.102    24550584.340
  24550583.699          36.900          41.300
 131729917.210 6 102646793.792 6  25067376.289    25067384.504
  25067385.125          36.200          37.800
 108510824.494 8  84553917.796 8  20648920.648    20648924.648
  20648924.625          49.300          49.200
 21  5 10  1  1 30.0000000  0  9G02G05G13G15G18G20G23G25G29
 122330557.353 7  95322557.40745  23278722.156
  23278724.898          43.800          32.300
 107999979.122 8  84155867.040 8  20551701.773    20551705.680
  20551705.742          48.900          50.800
 111197185.509 7  86647202.55046  21160111.406
  21160113.949          47.800          36.500
 113708064.481 7  88603761.571 7  21637926.094    21637930.309
  21637930.641          47.800          46.000
 121498974.440 7  94674544.988 7  23120481.906    23120486.234
  23120486.160          43.700          44.000
 107937675.615 7  84107314.17846  20539847.977
  20539850.613          46.600          39.400
 128924021.481 6 100460308.704 7  24533421.047    24533428.836
  24533429.109          38.000          42.200
 131818435.785 6 102715769.210 6  25084220.461    25084229.602
  25084229.637          37.900          38.700
 108500231.662 8  84545663.654 8  20646904.984    20646908.824
  20646908.934          49.100          49.900
 21  5 10  1  2  0.0000000  0  9G02G05G13G15G18G20G23G25G29
 122394273.082 7  95372206.03345  23290846.797
  23290847.922          44.800          30.300
 108043783.588 7  84190000.368 8  20560037.375    20560040.773
  20560040.906          47.500          50.000
 111148678.742 8  86609405.09046  21150880.664
  21150884.609          48.000          37.300
 113614748.303 7  88531047.720 7  21620168.828    21620172.664
  21620172.934          47.400          46.200
 121415190.010 7  94609258.405 7  23104538.195    23104541.961
  23104542.383          43.200          43.000
 107907208.739 7  84083573.79346  20534050.180
  20534053.875          47.600          40.500
 128834004.258 6 100390165.487 6  24516291.914    24516298.801
  24516299.141          37.900          40.800
 131906921.468 6 102784719.022 6  25101058.133    25101068.156
  25101067.773          38.200          36.200
 108490243.715 8  84537880.825 8  20645004.656    20645008.309
  20645008.672          49.400          51.000
 21  5 10  1  2 30.0000000  0  9G02G05G13G15G18G20G23G25G29
 122458197.007 7  95422016.79345  23303011.031
  23303013.012          44.200          30.400
 108087900.396 8  84224377.096 8  20568432.563    20568436.238
  20568436.473          48.900          49.900
 111100733.309 8  86572045.02046  21141757.203
  21141761.129          48.900          37.900
 113521809.146 7  88458627.664 7  21602482.719    21602487.188
  21602487.098          47.000          46.700
 121331461.128 7  94544015.143 7  23088604.680    23088609.164
  23088608.586          44.500          43.700
 107877051.539 7  84060074.67646  20528311.477
  20528314.688          46.700          41.100
 128744121.247 6 100320126.817 6  24499187.844    24499194.570
  24499194.797          39.800          41.300
 131995372.265 5 102853641.716 6  25117889.922    25117899.363
  25117899.375          35.900          37.400
 108480861.860 8  84530570.308 8  20643219.195    20643222.891
  20643222.512          49.100          49.600
 21  5 10  1  3  0.0000000  0  9G02G05G13G15G18G20G23G25G29
 122522328.524 7  95471989.36245  23315214.352
  23315217.230          44.900          30.700
 108132328.053 8  84258996.048 8  20576886.555    20576890.668
  20576890.602          48.100          49.600
 111053351.016 7  86535123.76546  21132740.586
  21132744.004          47.400          37.600
 113429248.965 7  88386502.864 7  21584869.531    21584873.371
  21584873.309          46.300          45.900
 121247788.539 7  94478815.663 7  23072682.688    23072687.359
  23072687.391          43.400          44.600
 107847203.580 7  84036816.53846  20522631.484
  20522634.008          47.400          40.200
 128654372.782 6 100250193.031 6  24482109.391    24482115.879
  24482116.246          39.900          41.300
 132083784.957 6 102922534.679 6  25134714.180    25134724.809
  25134723.109          37.000          39.200
 108472086.832 8  84523732.587 8  20641549.188    20641553.203
  20641553.340          49.800          50.200
 21  5 10  1  3 30.0000000  0  9G02G05G13G15G18G20G23G25G29
 122586667.701 7  95522123.75944  23327458.195
  23327460.414          43.000          29.300
 108177064.409 8  84293855.528 8  20585400.133    20585403.613
  20585403.434          49.800          50.100
 111006533.670 8  86498642.72046  21123831.469
  21123835.016          48.100          38.000
 113337070.603 7  88314675.604 7  21567328.734    21567332.285
  21567332.527          46.300          46.100
 121164173.001 7  94413660.690 7  23056771.445    23056775.977
  23056776.422          44.500          45.400
 107817664.550 7  84013799.12446  20517011.148
  20517013.340          47.300          40.900
 128564759.329 6 100180364.429 6  24465055.836    24465062.520
  24465062.395          39.000          38.600
 132172156.444 5 102991395.494 6  25151530.547    25151540.969
  25151540.500          33.800          40.100
 108463919.310 8  84517368.314 8  20639995.273    20639999.098
  20639999.109          48.600          50.200
 21  5 10  1  4  0.0000000  0  9G02G05G13G15G18G20G23G25G29
 122651214.298 7  95572419.77645  23339741.578
  23339742.738          45.200          30.500
 108222107.845 8  84328954.303 8  20593971.750    20593974.953
  20593975.000          50.300          50.300
 110960282.886 8  86462603.15646  21115030.414
  21115033.715          48.000          37.500
 113245276.691 7  88243147.932 7  21549860.070    21549864.215
  21549863.973          46.300          46.400
 121080615.191 7  94348550.734 7  23040870.672    23040875.363
  23040876.195          44.900          45.300
 107788433.883 7  83991021.98747  20511447.672
  20511451.141          46.700          42.400
 128475281.248 6 100110641.286 6  24448029.242    24448035.188
  24448035.973          40.000          38.900
 132260483.828 5 103060221.847 6  25168338.492    25168349.406
  25168348.871          35.600          40.700
 108456359.558 8  84511477.565 8  20638556.828    20638560.359
  20638560.215          49.100          50.000
 21  5 10  1  4 30.0000000  0  9G02G05G13G15G18G20G23G25G29
 122715968.631 7  95622877.67445  23352063.516
  23352065.434          43.900          30.500
 108267457.211 8  84364291.484 8  20602601.266    20602604.539
  20602604.371          49.300          49.300
 110914600.761 8  86427006.72046  21106336.992
  21106341.590          48.200          37.900
 113153870.239 7  88171922.159 7  21532465.797    21532470.418
  21532470.539          46.900          45.700
 120997116.505 7  94283486.880 7  23024981.430    23024985.828
  23024985.059          45.100          44.000
 107759511.425 7  83968485.00946  20505944.836
  20505947.539          46.600          41.400
 128385939.521 6 100041024.353 6  24431028.305    24431034.320
  24431034.652          40.900          39.800
 132348764.319 6 103129011.746 6  25185137.180    25185148.008
  25185147.367          37.900          37.900
 108449408.794 8  84506061.393 8  20637233.930    20637238.176
  20637238.066          48.500          49.900
 21  5 10  1  5  0.0000000  0  9G02G05G13G15G18G20G23G25G29
 122780931.536 7  95673498.10845  23364426.219
  23364427.266          44.600          31.200
 108313111.829 8  84399866.515 8  20611288.828    20611292.113
  20611292.164          48.700          49.800
 110869490.187 8  86391855.65446  21097753.188
  21097756.281          48.800          37.700
 113062854.782 7  88101001.070 7  21515146.961    21515151.035
  21515151.402          47.900          45.900
 120913678.855 7  94218470.491 7  23009104.055    23009107.656
  23009108.164          44.500          42.500
 107730898.132 7  83946188.95846  20500498.836
  20500502.426          47.300          40.900
 128296735.646 6  99971514.890 6  24414053.461    24414059.398
  24414059.500          40.900          41.400
 132436996.034 6 103197763.645 6  25201927.711    25201937.668
  25201936.777          37.100          37.100
 108443068.653 8  84501121.027 8  20636027.516    20636031.254
  20636031.340          48.400          50.300
 21  5 10  1  5 30.0000000  0  9G02G05G13G15G18G20G23G25G29
 122846101.798 7  95724280.07445  23376827.039
  23376829.637          43.600          31.100
 108359068.918 8  84435677.234 8  20620034.148    20620037.883
  20620037.961          49.000          50.000
 110824951.631 8  86357150.28646  21089277.266
  21089281.648          49.000          37.600
 112972232.023 7  88030385.978 7  21497901.688    21497905.715
  21497905.340          47.300          45.600
 120830302.077 7  94153501.645 7  22993237.273    22993241.395
  22993240.895          44.500          43.400
 107702592.802 7  83924132.85646  20495112.734
  20495115.754          46.300          40.300
 128207669.050 6  99902112.417 6  24397104.648    24397111.176
  24397111.430          38.400          41.800
 132525175.173 6 103266474.601 6  25218708.328    25218718.215
  25218717.820          39.300          39.500
 108437338.593 8  84496656.033 8  20634936.766    20634941.059
  20634941.195          49.000          49.700
 21  5 10  1  6  0.0000000  0 10G02G05G13G15G18G20G23G25G29G30
 122911479.341 7  95775223.57945  23389267.984
  23389270.273          42.700          30.900
 108405326.331 8  84471721.957 8  20628836.570    20628840.434
  20628840.391          49.700          49.700
 110780986.977 8  86322892.17046  21080911.219
  21080914.711          48.800          37.600
 112882004.179 8  87960078.576 7  21480731.578    21480735.523
  21480735.949          48.200          46.700
 120746987.305 7  94088581.101 7  22977383.336    22977386.945
  22977386.832          43.700          44.100
 107674595.090 7  83902316.46746  20489785.156
  20489788.238          46.600          40.600
 128118740.472 6  99832817.469 7  24380181.719    24380188.563
  24380188.258          39.900          42.500
 132613298.754 6 103335142.321 5  25235477.813    25235487.293
  25235487.023          37.500          35.200
 108432219.323 7  84492666.986 8  20633962.867    20633966.750
  20633966.781          47.600          49.600
 133926757.643 4 104358553.029 5  25485412.961    25485423.281
  25485424.867          26.400          33.400
 21  5 10  1  6 30.0000000  0 10G02G05G13G15G18G20G23G25G29G30
 122977064.181 7  95826328.62045  23401748.086
  23401750.824          44.700          31.400
 108451882.724 8  84507999.663 8  20637695.953    20637699.773
  20637700.039          48.900          50.000
 110737598.003 8  86289082.59246  21072654.633
  21072658.355          48.900          37.500
 112792174.560 7  87890081.557 7  21463637.875    21463642.016
  21463641.820          47.600          46.100
 120663735.602 7  94023709.701 7  22961540.680    22961545.012
  22961544.793          44.300          45.300
 107646904.599 7  83880739.46046  20484516.023
  20484518.477          45.800          40.000
 128029950.490 6  99763630.504 7  24363285.859    24363292.402
  24363292.152          38.900          42.800
 132701364.084 5 103403764.666 5  25252236.680    25252244.410
  25252244.223          34.100          31.400
 108427711.577 8  84489154.457 8  20633105.305    20633108.777
  20633108.945          49.600          50.200
 133889407.189 5 104329448.714 5  25478308.281    25478315.500
  25478315.797          32.900          31.100
 21  5 10  1  7  0.0000000  0 10G02G05G13G15G18G20G23G25G29G30
 123042856.274 7  95877595.12244  23414268.250
  23414270.523          42.200          29.900
 108498736.562 8  84544509.140 8  20646612.117    20646615.473
  20646615.684          49.400          49.700
 110694786.271 8  86255722.84846  21064507.602
  21064511.012          49.600          37.400
 112702745.270 7  87820396.438 7  21446620.055    21446624.039
  21446623.996          47.900          45.800
 120580547.694 7  93958888.016 7  22945710.219    22945715.527
  22945715.484          44.400          46.500
 107619521.097 7  83859401.67646  20479305.258
  20479307.816          47.300          41.300
 127941299.368 6  99694551.764 7  24346414.898    24346422.141
  24346422.898          39.100          44.300
 132789368.231 6 103472339.254 5  25268983.117    25268992.742
  25268991.469          36.000          33.300
 108423815.266 7  84486118.385 8  20632363.727    20632367.020
  20632366.754          47.300          49.100
 133852416.552 5 104300624.789 5  25471266.000    25471276.938
  25471275.992          31.900          32.400
 21  5 10  1  7 30.0000000  0 10G02G05G13G15G18G20G23G25G29G30
 123108855.789 7  95929023.26745  23426827.203
  23426830.207          43.000          30.800
 108545886.210 8  84581249.117 8  20655584.125    20655587.754
  20655587.863          48.600          49.100
 110652553.683 8  86222814.36646  21056471.422
  21056474.973          50.000          38.400
 112613719.155 7  87751025.468 7  21429679.008    21429683.145
  21429682.793          46.300          46.600
 120497424.952 7  93894117.121 7  22929893.453    22929897.168
  22929897.453          44.800          45.100
 107592444.768 7  83838303.24446  20474152.516
  20474155.180          45.800          40.600
 127852788.086 6  99625581.999 7  24329572.727    24329578.938
  24329579.281          39.400          44.100
 132877308.444 5 103540863.987 6  25285718.641    25285726.441
  25285726.258          35.700          36.400
 108420531.688 8  84483559.717 8  20631739.031    20631742.828
  20631742.793          48.400          50.300
 133815788.273 6 104272083.420 4  25464299.023    25464302.609
  25464304.168          36.000          26.400
 21  5 10  1  8  0.0000000  0 10G02G05G13G15G18G20G23G25G29G30
 123175062.670 7  95980613.00545  23439426.234
  23439429.309          43.900          30.400
 108593330.222 8  84618218.463 8  20664613.430    20664616.059
  20664615.973          48.500          49.000
 110610901.925 8  86190358.46446  21048545.609
  21048547.801          49.500          38.300
 112525099.185 7  87681970.989 7  21412814.969    21412819.281
  21412818.836          47.000          46.700
 120414368.538 7  93829397.891 7  22914087.570    22914092.441
  22914092.742          44.300          45.500
 107565675.217 7  83817443.85246  20469058.305
  20469061.391          45.800          41.500
 127764417.260 6  99556721.720 6  24312756.086    24312762.539
  24312761.918          40.200          41.500
 132965182.342 5 103609337.105 6  25302439.672    25302448.160
  25302448.180          35.000          36.400
 108417861.748 8  84481479.275 8  20631230.773    20631234.555
  20631234.512          48.100          49.700
 133779524.472 5 104243825.945 5  25457397.438    25457406.086
  25457405.590          34.700          33.800
 21  5 10  1  8 30.0000000  0 10G02G05G13G15G18G20G23G25G29G30
 123241476.715 7  96032364.15044  23452065.008
  23452067.074          44.300          29.800
 108641066.795 8  84655415.791 8  20673697.055    20673700.723
  20673700.637          48.800          50.300
 110569832.814 8  86158356.57246  21040730.617
  21040733.926          48.800          38.600
 112436887.915 7  87613234.962 7  21396028.563    21396032.488
  21396032.594          45.700          46.400
 120331379.368 7  93764731.055 7  22898295.133    22898299.965
  22898300.004          44.900          45.400
 107539212.069 7  83796823.22246  20464022.992
  20464025.320          47.500          41.100
 127676187.285 6  99487971.122 6  24295966.344    24295972.355
  24295972.227          39.500          41.200
 133052986.724 5 103677756.062 6  25319148.141    25319158.379
  25319157.563          34.500          40.000
 108415805.225 8  84479876.758 8  20630839.695    20630842.777
  20630842.543          49.100          50.000
 133743627.033 6 104215853.972 5  25450567.773    25450576.027
  25450574.328          37.200          33.800
 21  5 10  1  9  0.0000000  0 10G02G05G13G15G18G20G23G25G29G30
 123308098.118 7  96084276.92745  23464742.148
  23464745.230          44.900          30.300
 108689094.691 8  84692840.143 8  20682836.617    20682839.832
  20682839.938          49.600          49.400
 110529347.667 8  86126809.74446  21033026.570
  21033029.191          48.800          37.600
 112349087.903 7  87544819.450 7  21379321.398    21379324.770
  21379325.281          46.600          47.600
 120248458.512 7  93700117.503 7  22882516.836    22882520.816
  22882521.102          45.600          47.600
 107513055.139 7  83776441.20146  20459045.008
  20459048.383          46.000          40.600
 127588098.829 6  99419330.812 6  24279204.078    24279209.566
  24279209.168          41.200          40.600
 133140718.914 5 103746118.817 6  25335842.711    25335853.258
  25335852.305          35.300          38.300
 108414362.787 7  84478752.796 8  20630564.617    20630568.703
  20630569.117          47.000          50.500
 133708098.016 6 104188169.115 5  25443806.453    25443813.887
  25443811.395          36.100          33.400
 21  5 10  1  9 30.0000000  0 10G02G05G13G15G18G20G23G25G29G30
 123374926.637 7  96136351.05245  23477460.094
  23477461.738          43.500          31.100
 108737412.454 8  84730490.351 8  20692030.617    20692034.602
  20692034.309          48.900          49.200
 110489448.485 7  86095719.51846  21025433.094
  21025437.445          47.100          38.400
 112261701.839 7  87476726.467 7  21362691.852    21362695.762
  21362695.750          47.300          47.000
 120165607.203 7  93635558.101 7  22866750.148    22866754.828
  22866754.934          44.800          46.300
 107487204.379 7  83756297.75846  20454125.789
  20454128.824          45.800          41.600
 127500152.534 6  99350801.249 6  24262468.477    24262473.457
  24262473.602          40.900          41.600
 133228376.234 6 103814423.094 6  25352523.172    25352533.301
  25352533.570          36.300          38.000
 108413535.081 8  84478107.833 8  20630407.719    20630411.094
  20630410.922          48.900          50.300
 133672939.615 5 104160773.030 6  25437115.563    25437123.211
  25437123.793          35.000          37.000
 21  5 10  1 10  0.0000000  0 10G02G05G13G15G18G20G23G25G29G30
 123441962.220 7  96188586.53845  23490216.391
  23490218.438          44.700          30.400
 108786018.071 8  84768364.853 8  20701280.383    20701283.047
  20701283.129          49.000          48.800
 110450137.042 8  86065087.26346  21017952.195
  21017955.762          48.300          38.300
 112174732.611 7  87408958.255 7  21346142.164    21346146.379
  21346146.520          46.700          47.100
 120082826.683 7  93571053.873 7  22850997.406    22851001.984
  22851002.465          43.900          47.000
 107461659.718 7  83736392.85446  20449265.164
  20449268.406          47.500          41.300
 127412349.197 6  99282383.109 7  24245759.508    24245765.934
  24245766.098          40.500          43.200
 133315956.089 6 103882667.094 6  25369188.438    25369199.133
  25369198.410          36.600          36.100
 108413322.718 8  84477942.359 8  20630367.102    20630371.055
  20630371.301          48.500          50.100
 133638153.932 5 104133667.415 5  25430495.195    25430503.078
  25430502.195          34.800          35.300
 21  5 10  1 10 30.0000000  0 10G02G05G13G15G18G20G23G25G29G30
 123509204.764 7  96240983.27544  23503011.750
  23503014.082          44.600          29.600
 108834909.580 8  84806462.117 8  20710583.586    20710587.340
  20710587.246          48.200          48.400
 110411414.188 8  86034913.62746  21010583.633
  21010587.566          48.400          38.400
 112088182.058 7  87341516.303 7  21329672.039    21329676.539
  21329676.496          47.300          47.100
 120000117.510 7  93506605.216 7  22835257.844    22835262.512
  22835262.984          44.300          46.300
 107436420.233 7  83716725.73746  20444462.203
  20444465.789          46.400          41.300
 127324688.725 6  99214076.361 7  24229078.125    24229084.719
  24229084.891          39.600          44.000
 133403455.404 6 103950848.292 6  25385839.969    25385850.109
  25385849.836          37.300          37.800
 108413725.557 8  84478256.259 8  20630443.875    20630447.059
  20630447.570          48.800          50.000
 133603742.602 6 104106853.449 6  25423949.672    25423955.582
  25423955.012          38.300          37.800
 21  5 10  1 11  0.0000000  0 10G02G05G13G15G18G20G23G25G29G30
 123576654.463 7  96293541.48044  23515846.891
  23515849.320          43.700          29.600
 108884086.154 8  84844781.536 8  20719941.492    20719945.457
  20719945.203          48.500          49.700
 110373282.348 8  86005200.53446  21003327.266
  21003331.059          49.100          37.900
 112002053.554 7  87274403.236 7  21313282.500    21313286.305
  21313285.977          46.300          47.900
 119917481.346 7  93442213.473 7  22819532.453    22819537.383
  22819536.563          42.100          44.000
 107411486.258 7  83697296.68646  20439717.492
  20439720.566          47.800          41.300
 127237172.240 6  99145881.812 7  24212424.023    24212430.730
  24212430.734          39.500          42.900
 133490871.893 5 104018965.056 5  25402474.906    25402484.871
  25402483.926          35.700          35.800
 108414744.399 7  84479050.164 8  20630637.141    20630641.188
  20630641.414          45.800          50.200
 133569707.909 6 104080332.967 6  25417470.820    25417479.750
  25417480.289          36.700          39.100
 21  5 10  1 11 30.0000000  0 10G02G05G13G15G18G20G23G25G29G30
 123644311.365 6  96346261.05445  23528722.094
  23528724.492          41.700          30.900
 108933546.107 8  84883321.757 8  20729353.703    20729357.238
  20729357.223          49.400          49.300
 110335742.603 8  85975948.80246  20996184.156
  20996187.406          49.200          38.800
 111916349.581 7  87207620.948 7  21296973.422    21296978.113
  21296978.668          46.600          47.800
 119834919.259 7  93377879.415 7  22803821.578    22803826.406
  22803826.313          46.200          45.400
 107386857.521 7  83678105.50446  20435030.164
  20435033.578          47.600          41.400
 127149800.335 6  99077799.890 7  24195797.367    24195803.941
  24195804.359          38.800          42.100
 133578202.704 5 104087014.930 5  25419093.578    25419103.215
  25419103.285          33.700          34.900
 108416379.855 7  84480324.538 8  20630948.539    20630952.367
  20630952.422          47.100          50.200
 133536051.972 6 104054107.606 6  25411066.258    25411074.023
  25411074.434          36.800          36.000
 21  5 10  1 12  0.0000000  0  9G02G05G13G15G18G20G23G29G30
 123712174.959 7  96399141.74945  23541636.000
  23541638.293          42.100          30.400
 108983287.554 8  84922081.303 8  20738819.281    20738822.734
  20738822.520          48.900          49.200
 110298796.590 8  85947159.73746  20989153.641
  20989157.266          48.900          38.800
 111831072.426 8  87141171.272 7  21280745.695    21280749.887
  21280749.965          48.300          47.800
 119752432.342 7  93313603.925 7  22788124.695    22788129.805
  22788130.316          45.100          47.200
 107362533.533 7  83659151.76846  20430401.656
  20430404.508          46.300          40.400
 127062573.472 6  99009831.008 7  24179199.875    24179205.797
  24179205.949          40.900          43.300
 108418632.287 7  84482079.685 8  20631377.195    20631381.270
  20631380.801          47.800          49.400
 133502776.627 6 104028178.849 6  25404735.000    25404741.887
  25404742.125          37.000          36.400
 21  5 10  1 12 30.0000000  0  9G02G05G13G15G18G20G23G29G30
 123780245.217 7  96452183.47645  23554589.516
  23554591.820          43.900          30.900
 109033309.186 8  84961059.199 8  20748337.945    20748341.805
  20748341.594          49.300          49.800
 110262445.774 8  85918834.46646  20982235.883
  20982238.793          48.000          37.500
 111746224.760 8  87075056.229 7  21264600.133    21264603.371
  21264603.906          48.200          47.200
 119670021.877 7  93249388.046 7  22772442.594    22772448.066
  22772447.789          45.400          45.300
 107338514.518 7  83640435.68646  20425830.922
  20425834.336          46.200          40.900
 126975492.239 7  98941975.609 6  24162628.883    24162633.781
  24162633.633          42.300          39.400
 108421501.918 7  84484315.776 8  20631923.289    20631927.227
  20631927.418          45.600          49.900
 133469883.888 5 104002548.197 5  25398475.445    25398483.320
  25398484.098          35.200          35.800
 21  5 10  1 13  0.0000000  0  9G02G05G13G15G18G20G23G29G30
 123848521.980 7  96505386.11945  23567581.992
  23567583.672          42.400          30.800
 109083609.029 8  85000253.885 8  20757909.844    20757913.402
  20757913.602          48.800          49.000
 110226691.261 8  85890973.82146  20975432.250
  20975435.797          49.600          38.600
 111661809.083 7  87009277.848 7  21248535.625    21248539.914
  21248539.961          47.400          47.000
 119587688.601 7  93185232.257 7  22756775.344    22756779.797
  22756780.141          44.000          46.000
 107314799.670 7  83621956.59646  20421318.500
  20421320.984          47.400          41.300
 126888556.930 6  98874233.805 6  24146084.305    24146090.141
  24146090.176          40.900          40.600
 108424988.550 7  84487032.603 8  20632587.094    20632590.828
  20632590.645          47.200          49.000
 133437375.465 6 103977217.025 6  25392289.219    25392296.465
  25392296.289          38.100          36.600
 21  5 10  1 13 30.0000000  0  9G02G05G13G15G18G20G23G29G30
 123917004.940 6  96558749.45744  23580614.000
  23580616.309          41.300          29.800
 109134185.556 8  85039664.137 8  20767533.508    20767537.348
  20767537.398          48.100          48.900
 110191534.569 8  85863579.02946  20968742.391
  20968745.625          49.000          38.900
 111577827.844 7  86943837.952 7  21232554.641    21232558.352
  21232558.859          46.400          47.300
 119505433.573 7  93121137.476 7  22741122.289    22741126.957
  22741127.160          43.200          46.200
 107291388.779 7  83603714.36946  20416863.273
  20416866.262          46.600          40.900
 126801767.959 6  98806606.116 6  24129569.406    24129575.063
  24129574.742          38.400          40.600
 108429092.380 8  84490230.390 8  20633368.180    20633371.715
  20633371.938          48.200          49.600
 133405253.236 6 103952186.634 6  25386176.664    25386184.547
  25386185.488          38.300          37.300
 21  5 10  1 14  0.0000000  0  9G02G05G13G15G18G20G23G29G30
 123985694.445 7  96612273.76144  23593684.617
  23593686.770          43.200          28.600
 109185037.451 8  85079288.954 8  20777210.836    20777214.594
  20777214.297          49.200          48.400
 110156977.396 7  85836651.39846  20962166.094
  20962169.133          47.800          37.900
 111494283.590 7  86878738.573 7  21216656.438    21216660.922
  21216660.922          46.200          46.800
 119423258.259 7  93057104.791 7  22725484.875    22725490.215
  22725490.613          42.500          47.000
 107268281.709 7  83585708.86846  20412465.953
  20412469.195          47.200          41.400
 126715126.004 6  98739093.032 6  24113081.258    24113088.023
  24113088.316          37.700          40.900
 108433813.835 7  84493909.459 8  20634266.508    20634269.891
  20634269.832          45.300          50.000
 133373519.110 6 103927458.822 6  25380137.758    25380145.664
  25380145.379          38.100          36.800
 21  5 10  1 14 30.0000000  0  9G02G05G13G15G18G20G23G29G30
 124054589.998 6  96665958.60544  23606796.500
  23606796.258          40.600          27.900
 109236163.021 8  85119127.041 8  20786939.602    20786942.781
  20786942.762          48.300          48.600
 110123020.874 8  85810191.81346  20955703.867
  20955707.707          48.300          37.900
 111411178.921 7  86813981.742 8  21200842.531    21200846.422
  21200846.746          45.800          48.000
 119341163.720 7  92993135.084 7  22709862.820    22709867.648
  22709868.047          42.700          46.100
 107245477.766 7  83567939.60146  20408126.680
  20408129.621          47.000          41.300
 126628631.599 6  98671694.853 6  24096622.852    24096628.074
  24096628.828          38.000          39.300
 108439153.255 7  84498070.027 8  20635282.484    20635286.266
  20635286.434          47.300          50.400
 133342175.163 6 103903034.986 6  25374173.688    25374180.957
  25374182.387          39.200          38.600
 21  5 10  1 15  0.0000000  0  9G02G05G13G15G18G20G23G29G30
 124123691.608 7  96719803.96744  23619944.203
  23619947.254          43.100          28.100
 109287560.397 8  85159176.940 8  20796720.188    20796723.504
  20796723.730          49.000          48.300
 110089666.316 7  85784201.29146  20949356.883
  20949360.410          47.200          37.100
 111328516.022 8  86749569.134 7  21185112.063    21185116.094
  21185116.176          48.000          47.500
 119259151.103 7  92929229.163 7  22694256.320    22694260.422
  22694260.844          44.100          44.700
 107222977.100 7  83550406.63446  20403844.375
  20403847.121          47.400          41.100
 126542285.220 6  98604412.061 6  24080191.031    24080197.316
  24080197.551          39.200          40.800
 108445110.850 7  84502712.332 8  20636416.422    20636419.551
  20636419.121          47.200          49.300
 133311223.024 6 103878916.470 6  25368282.844    25368290.422
  25368290.555          37.300          38.500
 21  5 10  1 15 30.0000000  0  9G02G05G13G15G18G20G23G29G30
 124192999.241 6  96773809.90444  23633134.297
  23633134.738          40.300          27.600
 109339228.536 8  85199437.823 8  20806552.258    20806555.832
  20806555.742          49.100          49.000
 110056915.389 7  85758681.11546  20943124.242
  20943127.332          47.500          36.900
 111246297.930 7  86685503.118 7  21169466.102    21169470.000
  21169470.441          47.600          47.400
 119177221.905 7  92865388.244 7  22678665.570    22678669.637
  22678669.492          43.900          44.100
 107200779.606 8  83533109.89446  20399620.742
  20399623.891          48.200          41.400
 126456087.704 6  98537245.254 7  24063788.625    24063794.410
  24063795.156          40.400          42.500
 108451687.285 7  84507836.821 8  20637667.070    20637671.430
  20637671.391          47.300          50.100
 133280664.988 6 103855105.009 6  25362468.641    25362476.012
  25362475.980          37.900          37.500
 21  5 10  1 16  0.0000000  0  9G02G05G13G15G18G20G23G29G30
 124262512.455 7  96827976.01544  23646361.672
  23646364.262          42.100          29.300
 109391165.667 7  85239908.304 8  20816435.516    20816438.988
  20816439.004          47.500          49.100
 110024768.911 7  85733631.94846  20937006.922
  20937011.035          46.900          37.700
 111164526.328 8  86621785.035 7  21153906.359    21153909.184
  21153909.387          48.700          47.100
 119095377.095 7  92801613.109 7  22663091.633    22663094.949
  22663094.828          46.500          44.700
 107178884.860 7  83516049.07046  20395454.469
  20395457.355          47.800          41.100
 126370039.275 6  98470194.623 6  24047413.789    24047419.277
  24047420.379          41.300          41.600
 108458881.986 8  84513443.101 8  20639036.945    20639040.617
  20639040.445          48.400          49.900
 133250502.567 6 103831601.916 6  25356728.344    25356735.918
  25356736.145          37.500          37.500
 21  5 10  1 16 30.0000000  0  9G02G05G13G15G18G20G23G29G30
 124332231.314 7  96882302.39245  23659629.594
  23659632.047          42.600          31.500
 109443369.928 8  85280586.937 8  20826370.031    20826373.535
  20826373.547          49.800          49.200
 109993228.139 7  85709054.76646  20931004.938
  20931007.852          46.900          37.400
 111083204.381 8  86558417.322 7  21138430.352    21138434.809
  21138435.012          48.500          47.400
 119013617.698 7  92737904.493 7  22647532.953    22647537.336
  22647536.656          44.900          43.600
 107157292.595 7  83499223.96246  20391345.234
  20391348.535          47.300          41.300
 126284140.319 6  98403260.492 6  24031068.164    24031073.961
  24031073.547          38.300          39.500
 108466695.112 7  84519531.251 8  20640523.164    20640527.383
  20640527.398          47.900          50.500
 133220737.47115 103808408.42016  25351063.758    25351072.629
  25351072.273          33.900          38.200
 21  5 10  1 17  0.0000000  0  9G02G05G13G15G18G20G23G29G30
 124402155.772 7  96936788.97945  23672935.461
  23672938.539          43.400          31.200
 109495840.075 8  85321472.767 8  20836354.953    20836358.227
  20836357.988          48.700          48.900
 109962294.928 8  85684950.96846  20925118.758
  20925122.656          49.200          38.400
 111002334.739 7  86495402.031 7  21123041.602    21123045.676
  21123045.797          46.700          46.700
 118931945.407 6  92674263.788 7  22631990.930    22631995.844
  22631996.082          41.800          46.800
 107136002.641 7  83482634.38246  20387294.109
  20387297.438          47.500          41.900
 126198391.773 6  98336443.500 6  24014749.602    24014755.359
  24014755.789          39.000          38.600
 108475127.013 8  84526101.584 8  20642127.961    20642131.688
  20642131.633          49.500          50.600
 133191372.156 6 103785526.420 6  25345476.281    25345483.555
  25345484.496          41.300          38.800
 21  5 10  1 17 30.0000000  0  9G02G05G13G15G18G20G23G29G30
 124472285.246 7  96991435.30645  23686280.703
  23686283.063          43.600          31.000
 109548574.407 8  85362564.457 8  20846389.250    20846393.520
  20846393.184          49.700          48.400
 109931969.896 8  85661321.10046  20919348.109
  20919351.492          49.500          38.400
 110921919.051 7  86432740.510 7  21107738.789    21107743.313
  21107743.199          47.600          47.600
 118850360.933 7  92610691.552 7  22616466.125    22616471.383
  22616470.926          43.800          46.600
 107115014.396 8  83466279.93947  20383300.445
  20383303.117          48.500          42.100
 126112793.668 6  98269743.716 6  23998462.133    23998466.668
  23998467.613          39.400          39.300
 108484177.409 8  84533153.833 8  20643850.352    20643854.207
  20643854.438          48.400          50.300
 133162407.847 6 103762956.867 6  25339964.656    25339971.262
  25339972.090          36.100          37.300
 21  5 10  1 18  0.0000000  0  9G02G05G13G15G18G20G23G29G30
 124542620.131 7  97046241.69845  23699664.734
  23699667.285          44.500          30.900
 109601571.847 8  85403861.142 8  20856474.938    20856478.852
  20856478.719          48.800          49.200
 109902254.885 8  85638166.56446  20913694.258
  20913696.895          48.500          38.600
 110841960.469 8  86370435.144 7  21092523.688    21092527.348
  21092527.527          48.500          47.400
 118768865.978 7  92547189.016 7  22600957.672    22600962.867
  22600963.078          44.000          46.600
 107094327.850 7  83450160.57246  20379363.797
  20379366.375          47.000          41.000
 126027346.800 5  98203161.841 6  23982200.141    23982207.383
  23982206.855          33.700          36.000
 108493846.812 8  84540688.471 8  20645690.539    20645693.625
  20645693.777          49.500          50.400
 133133846.730 6 103740701.571 6  25334528.719    25334536.449
  25334534.945          39.000          37.300
 21  5 10  1 18 30.0000000  0  9G02G05G13G15G18G20G23G29G30
 124613160.076 7  97101207.83444  23713087.234
  23713090.625          43.300          28.600
 109654830.468 8  85445361.378 8  20866609.250    20866613.195
  20866613.047          49.500          48.400
 109873150.702 8  85615487.98146  20908155.055
  20908158.465          48.400          38.500
 110762461.036 8  86308487.561 7  21077395.016    21077398.730
  21077399.031          48.600          47.600
 118687461.540 7  92483757.035 7  22585467.539    22585471.961
  22585472.156          44.100          46.200
 107073942.654 7  83434276.01146  20375484.945
  20375487.504          47.900          41.700
 125942051.710 6  98136698.345 6  23965968.805    23965976.309
  23965976.039          38.600          39.200
 108504134.851 8  84548705.103 8  20647647.961    20647651.949
  20647652.273          48.000          50.200
 133105690.405 6 103718761.550 6  25329171.094    25329178.613
  25329179.660          37.400          37.100
 21  5 10  1 19  0.0000000  0  9G02G05G13G15G18G20G23G29G30
 124683904.657 7  97156333.49144  23726550.188
  23726551.645          43.400          27.000
 109708348.803 8  85487063.971 8  20876793.656    20876797.375
  20876797.270          48.200          48.900
 109844658.528 8  85593286.30146  20902733.461
  20902737.051          49.200          38.400
 110683423.230 8  86246899.671 8  21062354.875    21062358.969
  21062359.355          48.500          48.000
 118606148.822 7  92420396.534 7  22569994.391    22569998.695
  22569998.605          44.100          46.100
 107053858.508 7  83418626.07546  20371662.492
  20371665.770          46.800          41.600
 125856908.718 6  98070353.157 6  23949768.133    23949774.176
  23949774.246          39.200          39.500
 108515041.917 7  84557204.158 8  20649723.273    20649727.168
  20649727.266          47.600          50.700
 133077940.554 5 103697138.382 5  25323890.773    25323898.703
  25323897.145          35.400          34.400
 21  5 10  1 19 30.0000000  0  9G02G05G13G15G18G20G23G29G30
 124754853.751 7  97211618.50544  23740050.984
  23740053.297          42.100          27.300
 109762124.913 8  85528967.439 8  20887027.320    20887030.359
  20887030.578          49.100          48.500
 109816779.079 8  85571562.05946  20897428.156
  20897431.609          48.800          38.400
 110604849.310 8  86185673.275 8  21047403.156    21047406.832
  21047407.125          49.600          48.700
 118524929.094 7  92357108.462 7  22554538.063    22554542.590
  22554542.469          45.900          44.600
 107034074.790 7  83403210.21547  20367898.156
  20367900.766          47.200          42.300
 125771918.280 6  98004126.890 6  23933595.859    23933601.020
  23933601.301          39.400          41.100
 108526567.408 7  84566185.033 8  20651916.617    20651920.473
  20651920.352          47.100          49.500
 133050598.885 6 103675833.275 6  25318687.320    25318695.086
  25318693.598          36.600          37.100
 21  5 10  1 20  0.0000000  0  9G02G05G13G15G18G20G23G29G30
 124826006.759 7  97267062.38144  23753590.477
  23753594.133          43.700          27.900
 109816157.123 8  85571070.449 8  20897308.711    20897312.543
  20897312.332          49.400          48.700
 109789513.226 8  85550315.98246  20892239.484
  20892242.277          48.800          38.400
 110526741.228 8  86124809.857 7  21032539.602    21032543.488
  21032543.422          49.600          47.300
 118443803.233 7  92293893.540 7  22539101.203    22539104.242
  22539104.695          44.500          46.000
 107014591.125 7  83388028.18246  20364190.203
  20364192.961          46.300          41.300
 125687080.499 6  97938019.577 7  23917451.727    23917456.461
  23917456.328          39.700          42.000
 108538711.052 8  84575647.596 8  20654227.617    20654231.383
  20654231.707          48.800          50.300
 133023666.878 5 103654847.417 6  25313561.523    25313570.383
  25313570.770          35.200          39.700
 21  5 10  1 20 30.0000000  0  9G02G05G13G15G18G20G23G29G30
 124897364.075 7  97322665.48844  23767170.805
  23767172.625          42.100          28.500
 109870444.617 8  85613372.394 7  20907639.336    20907642.730
  20907642.668          49.400          47.800
 109762863.241 8  85529549.73446  20887168.609
  20887171.859          48.500          38.300
 110449102.335 8  86064312.037 7  21017765.492    21017769.063
  21017768.563          48.600          47.400
 118362773.251 7  92230753.329 7  22523680.641    22523685.641
  22523685.980          43.500          46.300
 106995408.027 7  83373080.33646  20360539.750
  20360543.109          46.800          41.900
 125602396.637 6  97872032.221 7  23901336.359    23901342.500
  23901342.148          39.600          42.900
 108551473.583 7  84585592.461 8  20656656.102    20656660.215
  20656659.961          47.700          49.900
 132997146.949 5 103634182.574 6  25308515.867    25308523.219
  25308523.137          35.200          38.900
 21  5 10  1 21  0.0000000  0  9G02G05G13G15G18G20G23G29G30
 124968925.325 7  97378427.53044  23780787.500
  23780790.004          42.100          28.100
 109924985.713 8  85655871.942 8  20918018.273    20918021.746
  20918021.703          49.900          48.100
 109736829.478 8  85509263.71246  20882214.813
  20882218.074          48.800          38.900
 110371934.428 7  86004181.246 7  21003080.063    21003084.176
  21003084.039          47.000          47.500
 118281840.022 7  92167688.498 7  22508279.844    22508284.410
  22508285.309          43.000          47.600
 106976524.592 7  83358365.98946  20356946.578
  20356949.820          46.600          41.300
 125517866.714 6  97806164.803 7  23885250.938    23885255.926
  23885256.910          39.800          42.800
 108564854.472 7  84596019.072 8  20659202.414    20659206.844
  20659207.078          47.500          50.300
 132971040.310 5 103613839.807 6  25303547.828    25303554.828
  25303555.027          35.000          36.500
 21  5 10  1 21 30.0000000  0  9G02G05G13G15G18G20G23G29G30
 125040690.673 7  97434348.52044  23794444.250
  23794447.563          42.000          29.400
 109979779.032 8  85698568.060 8  20928445.188    20928448.910
  20928448.805          49.800          48.400
 109711412.956 8  85489458.64046  20877377.938
  20877381.156          48.700          38.000
 110295240.081 7  85944419.455 7  20988486.086    20988489.961
  20988489.555          45.900          47.600
 118201005.059 7  92104700.268 7  22492897.430    22492902.133
  22492902.145          44.200          46.200
 106957940.968 7  83343885.27246  20353409.883
  20353412.633          46.000          40.900
 125433491.425 6  97740417.914 6  23869193.430    23869200.500
  23869200.570          38.000          41.300
 108578853.877 8  84606927.728 8  20661866.773    20661869.949
  20661870.258          49.100          49.900
 132945348.999 5 103593820.605 6  25298659.711    25298666.957
  25298666.676          35.200          36.900
 21  5 10  1 22  0.0000000  0  9G02G05G13G15G18G20G23G29G30
 125112659.079 6  97490427.80244  23808138.797
  23808142.383          40.900          28.300
 110034822.636 8  85741459.175 7  20938919.156    20938923.355
  20938923.449          48.700          47.800
 109686614.465 8  85470135.13046  20872658.430
  20872661.820          49.600          38.500
 110219021.242 7  85885028.204 7  20973981.984    20973985.625
  20973985.738          47.200          47.500
 118120269.393 7  92041789.368 8  22477534.000    22477539.277
  22477539.512          44.600          48.100
 106939656.467 7  83329637.60346  20349930.664
  20349933.789          45.800          40.800
 125349270.848 6  97674791.582 6  23853166.664    23853173.000
  23853172.957          40.700          39.600
 108593470.910 8  84618317.595 8  20664647.844    20664651.750
  20664652.020          48.200          50.100
 132920074.115 5 103574125.948 6  25293848.281    25293856.266
  25293857.160          34.600          36.100
 21  5 10  1 22 30.0000000  0  9G02G05G13G15G18G20G23G29G30
 125184830.673 6  97546665.35944  23821873.047
  23821875.906          40.800          28.600
 110090115.128 8  85784544.246 8  20949441.141    20949445.418
  20949445.566          48.500          48.800
 109662434.783 8  85451293.84646  20868057.789
  20868060.594          48.300          38.400
 110143280.025 7  85826009.156 7  20959568.469    20959572.633
  20959572.680          47.000          47.800
 118039634.346 7  91978956.896 8  22462189.430    22462194.578
  22462194.629          44.000          48.200
 106921670.958 7  83315622.93046  20346507.984
  20346510.492          47.800          40.700
 125265205.699 6  97609286.269 6  23837171.125    23837174.680
  23837175.324          39.600          40.500
 108608705.649 8  84630188.839 8  20667546.789    20667550.867
  20667551.184          48.400          50.300
 132895217.744 5 103554757.372 5  25289119.867    25289125.859
  25289125.500          33.200          33.300
 21  5 10  1 23  0.0000000  0  9G02G05G13G15G18G20G23G29G30
 125257205.139 7  97603061.00244  23835645.664
  23835648.277          42.500          27.700
 110145655.037 8  85827822.131 7  20960009.969    20960013.633
  20960013.473          48.700          47.900
 109638875.522 8  85432935.97046  20863574.008
  20863577.199          48.500          37.600
 110068019.397 8  85767364.554 7  20945247.016    20945251.395
  20945251.355          48.000          47.200
 117959101.383 7  91916203.975 7  22446864.539    22446869.523
  22446869.602          45.200          46.600
 106903984.015 7  83301840.93146  20343142.102
  20343144.898          45.800          41.000
 125181296.475 6  97543902.478 6  23821202.602    23821208.102
  23821208.441          40.000          39.900
 108624557.917 8  84642541.216 8  20670563.648    20670567.898
  20670567.906          48.800          50.200
 132870781.455 5 103535716.075 5  25284468.367    25284476.246
  25284474.430          35.500          35.700
 21  5 10  1 23 30.0000000  0  9G02G05G13G15G18G20G23G29G30
 125329782.018 6  97659614.40244  23849455.938
  23849458.645          41.800          28.500
 110201440.928 8  85871291.653 8  20970626.398    20970629.074
  20970629.152          49.700          48.700
 109615937.358 8  85415062.09146  20859209.406
  20859212.180          49.500          38.900
 109993241.130 7  85709095.811 7  20931017.172    20931021.246
  20931021.230          47.600          47.600
 117878671.673 7  91853531.469 7  22431559.719    22431563.898
  22431564.277          45.800          46.200
 106886595.425 7  83288291.34646  20339833.258
  20339836.434          46.500          41.300
 125097543.423 6  97478640.384 6  23805265.367    23805270.336
  23805271.059          39.400          41.400
 108641027.311 8  84655374.515 8  20673698.031    20673701.742
  20673702.047          48.400          50.200
 132846766.552 6 103517003.222 6  25279898.961    25279906.773
  25279907.355          36.100          38.400
 21  5 10  1 24  0.0000000  0  9G02G05G13G15G18G20G23G29G30
 125402561.484 6  97716325.63244  23863305.922
  23863308.871          41.100          26.800
 110257470.963 8  85914951.448 8  20981288.594    20981291.570
  20981291.582          49.400          48.700
 109593621.076 8  85397672.74746  20854962.875
  20854965.230          48.900          37.900
 109918947.587 8  85651204.754 8  20916879.688    20916883.320
  20916883.641          48.200          49.000
 117798346.512 7  91790940.450 7  22416273.898    22416278.270
  22416278.008          46.500          45.900
 106869504.631 7  83274973.86346  20336581.219
  20336583.785          47.500          40.900
 125013947.060 6  97413500.428 6  23789356.875    23789362.828
  23789362.004          39.800          40.400
 108658113.794 8  84668688.651 8  20676949.367    20676953.234
  20676953.121          48.300          49.600
 132823175.028 5 103498620.176 6  25275409.430    25275417.492
  25275416.992          35.000          37.500
 21  5 10  1 24 30.0000000  0  9G02G05G13G15G18G20G23G29G30
 125475543.131 7  97773194.39444  23877195.289
  23877196.250          44.200          28.500
 110313743.776 8  85958800.394 8  20991996.633    20991999.773
  20992000.035          48.800          48.300
 109571927.437 8  85380768.64546  20850833.961
  20850837.656          48.000          38.300
 109845140.761 8  85593692.956 8  20902834.852    20902838.480
  20902838.691          48.400          48.400
 117718127.219 7  91728431.920 7  22401009.234    22401013.578
  22401013.465          44.800          47.200
 106852711.332 7  83261888.19146  20333385.242
  20333388.055          46.700          40.200
 124930507.697 6  97348482.759 7  23773478.859    23773485.078
  23773485.172          39.600          42.400
 108675816.931 7  84682483.300 8  20680318.016    20680321.746
  20680321.785          47.200          49.300
 132800008.162 6 103480568.160 5  25271001.578    25271009.184
  25271008.801          36.300          35.500
 21  5 10  1 25  0.0000000  0  9G02G05G13G15G18G20G23G29G30
 125548726.528 7  97830220.43344  23891121.531
  23891122.895          43.000          28.800
 110370257.758 7  86002837.259 7  21002750.422    21002754.199
  21002754.402          47.900          47.600
 109550857.041 8  85364350.14446  20846825.180
  20846827.449          48.900          38.200
 109771822.999 8  85536562.250 8  20888883.063    20888886.340
  20888886.746          48.900          48.500
 117638015.119 7  91666006.927 7  22385763.531    22385768.293
  22385768.406          44.900          46.100
 106836215.559 8  83249034.33346  20330246.594
  20330249.102          48.400          41.700
 124847225.868 6  97283587.881 7  23757630.969    23757637.582
  23757637.508          39.200          44.500
 108694136.202 7  84696758.034 8  20683803.570    20683807.938
  20683807.680          47.700          50.000
 132777267.558 6 103462848.237 6  25266674.102    25266681.305
  25266681.184          37.900          36.700
 21  5 10  1 25 30.0000000  0  9G02G05G13G15G18G20G23G29G30
 125622111.528 7  97887403.53544  23905084.258
  23905087.660          43.000          27.900
 110427011.705 7  86047061.118 7  21013550.078    21013553.824
  21013553.781          46.300          47.400
 109530410.991 7  85348418.15646  20842934.844
  20842937.469          47.100          38.000
 109698996.787 7  85479814.562 8  20875025.008    20875028.043
  20875028.480          47.500          48.400
 117558011.768 7  91603666.675 7  22370539.664    22370544.211
  22370544.719          45.400          47.800
 106820016.732 7  83236411.85846  20327163.797
  20327166.926          46.100          40.300
 124764102.014 6  97218816.162 7  23741812.766    23741819.801
  23741819.418          39.900          44.600
 108713071.355 8  84711512.695 8  20687407.367    20687411.426
  20687411.527          48.600          50.000
 132754955.013 5 103445461.915 5  25262427.695    25262434.527
  25262433.285          33.100          31.000
 21  5 10  1 26  0.0000000  0  9G02G05G13G15G18G20G23G29G30
 125695697.725 7  97944743.39844  23919088.328
  23919090.055          42.700          28.300
 110484004.091 8  86091470.778 7  21024395.898    21024399.559
  21024399.449          48.800          47.600
 109510589.991 7  85332973.26446  20839161.586
  20839165.582          47.500          38.300
 109626664.167 7  85423451.503 7  20861260.008    20861263.645
  20861263.395          47.500          47.000
 117478118.415 7  91541412.112 7  22355336.695    22355341.207
  22355341.090          45.500          46.700
 106804114.782 7  83224020.72346  20324138.164
  20324140.695          45.800          40.500
 124681136.715 6  97154167.911 7  23726025.398    23726031.875
  23726031.961          41.500          43.800
 108732622.164 7  84726747.099 8  20691127.750    20691131.344
  20691131.645          47.900          50.800
 132733071.964 6 103428410.133 5  25258264.555    25258269.715
  25258269.684          37.600          35.400
 21  5 10  1 26 30.0000000  0  9G02G05G13G15G18G20G23G29G30
 125769484.754 6  98002239.77544  23933129.289
  23933131.238          41.700          27.500
 110541233.109 8  86136064.834 8  21035286.383    21035290.258
  21035290.328          48.500          49.100
 109491394.714 7  85318015.88646  20835508.977
  20835512.875          46.000          37.900
 109554827.182 8  85367474.658 8  20847589.852    20847593.645
  20847593.281          48.300          48.300
 117398336.322 7  91479244.240 7  22340154.539    22340159.148
  22340159.504          45.900          47.300
 106788509.272 7  83211860.60746  20321168.336
  20321170.688          45.700          41.300
 124598330.088 7  97089643.347 7  23710268.047    23710273.387
  23710273.824          42.800          43.700
 108752788.000 8  84742460.737 8  20694965.281    20694968.641
  20694968.793          48.600          49.500
 132711619.734 6 103411694.124 5  25254180.719    25254188.449
  25254189.793          36.600          35.200
 21  5 10  1 27  0.0000000  0  9G02G05G13G15G18G20G23G29G30
 125843472.390 6  98059892.44944  23947208.391
  23947211.367          40.500          27.600
 110598697.382 8  86180842.197 8  21046221.430    21046224.750
  21046225.012          48.500          48.600
 109472825.609 8  85303546.49246  20831975.680
  20831979.082          48.300          38.400
 109483487.731 7  85311885.493 8  20834014.359    20834018.055
  20834018.211          47.500          48.000
 117318666.783 7  91417164.143 7  22324994.156    22324998.754
  22324998.867          45.400          46.100
 106773199.550 7  83199930.93346  20318255.023
  20318257.617          47.500          41.200
 124515682.473 7  97025242.648 7  23694540.234    23694545.344
  23694545.719          43.900          43.000
 108773568.060 8  84758652.986 8  20698919.391    20698923.859
  20698924.293          49.900          50.200
 132690599.875 6 103395315.031 5  25250182.367    25250188.504
  25250188.031          37.100          33.500
 21  5 10  1 27 30.0000000  0  9G02G05G13G15G18G20G23G29G30
 125917660.367 6  98117701.19244  23961326.578
  23961329.289          39.900          27.000
 110656395.875 8  86225802.080 8  21057200.852    21057204.793
  21057204.656          48.400          48.100
 109454883.540 7  85289565.67246  20828561.086
  20828564.992          47.600          37.800
 109412648.528 7  85256686.152 8  20820534.047    20820538.082
  20820538.262          47.600          48.600
 117239111.353 7  91355172.914 7  22309855.133    22309859.523
  22309859.223          44.600          46.600
 106758185.506 8  83188231.67746  20315397.766
  20315400.594          48.500          41.200
 124433194.543 7  96960966.343 6  23678843.070    23678848.781
  23678848.453          43.800          41.500
 108794962.198 8  84775323.752 8  20702990.461    20702994.148
  20702993.785          48.200          49.600
 132670013.880 6 103379274.134 6  25246264.156    25246270.512
  25246271.004          39.200          37.200
 21  5 10  1 28  0.0000000  0  9G02G05G13G15G18G20G23G29G30
 125992048.395 6  98175665.84844  23975481.531
  23975485.117          39.400          27.900
 110714326.777 7  86270943.064 7  21068225.031    21068228.055
  21068228.133          46.700          46.600
 109437569.684 7  85276074.39146  20825266.484
  20825270.980          47.800          38.800
 109342311.558 7  85201878.123 8  20807149.484    20807152.633
  20807152.914          47.300          48.200
 117159671.732 7  91293271.901 7  22294738.555    22294742.398
  22294742.680          44.300          47.600
 106743467.217 7  83176762.89246  20312597.094
  20312600.031          45.100          41.300
 124350866.960 7  96896815.002 7  23663177.680    23663182.246
  23663182.262          42.300          43.400
 108816970.050 8  84792472.724 8  20707178.586    20707182.375
  20707182.336          48.200          49.900
 132649863.593 5 103363572.615 6  25242429.820    25242437.141
  25242437.484          33.100          37.500
 21  5 10  1 28 30.0000000  0  9G02G05G13G15G18G20G23G29G30
 126066636.229 6  98233786.22644  23989674.859
  23989677.949          41.500          26.900
 110772488.218 8  86316263.680 7  21079292.672    21079295.359
  21079295.520          48.400          47.200
 109420884.094 8  85263072.60546  20822091.836
  20822095.387          48.800          39.400
 109272478.452 7  85147462.753 8  20793860.344    20793864.578
  20793864.664          46.900          48.300
 117080348.859 7  91231461.882 7  22279643.563    22279647.785
  22279647.227          43.000          47.200
 106729043.915 8  83165523.94146  20309852.211
  20309855.098          48.100          41.100
 124268699.714 6  96832788.613 7  23647541.234    23647546.953
  23647547.496          39.900          44.900
 108839591.206 8  84810099.604 8  20711483.250    20711486.543
  20711487.148          48.700          49.700
 132630149.952 6 103348211.350 5  25238677.898    25238685.621
  25238685.414          39.200          34.100
 21  5 10  1 29  0.0000000  0  9G02G05G13G15G18G20G23G29G30
 126141423.589 6  98292062.08244  24003905.742
  24003909.156          41.800          25.800
 110830879.385 7  86361763.279 7  21090404.047    21090407.246
  21090406.867          47.400          47.000
 109404827.729 8  85250561.18946  20819035.523
  20819039.258          49.200          38.600
 109203151.898 7  85093442.091 7  20780668.141    20780671.488
  20780671.953          46.900          47.900
 117001144.280 7  91169744.041 7  22264571.195    22264576.055
  22264576.160          45.100          47.400
 106714915.544 8  83154514.80746  20307163.547
  20307166.484          48.000          40.600
 124186693.254 6  96768887.550 7  23631935.703    23631941.766
  23631941.922          41.600          44.500
 108862825.084 8  84828203.913 8  20715904.195    20715908.875
  20715908.742          48.500          49.600
 132610874.717 5 103333191.722 5  25235010.078    25235014.969
  25235015.539          34.800          31.100
 21  5 10  1 29 30.0000000  0  9G02G05G13G15G18G20G23G29G30
 126216409.861 7  98350492.96144  24018175.930
  24018178.695          43.600          27.000
 110889498.668 8  86407440.642 7  21101559.164    21101562.270
  21101562.023          48.200          47.500
 109389400.812 8  85238540.20246  20816100.750
  20816104.512          49.000          39.400
 109134333.862 7  85039817.681 7  20767572.406    20767576.508
  20767576.340          47.000          47.900
 116922059.526 7  91108119.594 7  22249521.773    22249526.176
  22249526.883          45.800          46.800
 106701081.974 7  83143735.41246  20304531.461
  20304534.223          47.900          41.200
 124104848.239 7  96705112.303 7  23616360.977    23616366.809
  23616367.211          42.100          45.900
 108886670.959 8  84846785.134 8  20720442.305    20720445.570
  20720445.359          48.100          49.300
 132592039.239 6 103318514.795 5  25231425.891    25231433.500
  25231434.008          38.600          35.500
 21  5 10  1 30  0.0000000  0  9G02G05G13G15G18G20G23G29G30
 126291594.844 7  98409078.65444  24032484.000
  24032485.941          43.500          26.000
 110948344.317 8  86453294.432 7  21112756.750    21112760.301
  21112760.195          48.600          47.200
 109374603.956 7  85227010.22146  20813284.828
  20813287.484          47.200          38.300
 109066025.958 7  84986590.743 8  20754574.141    20754577.559
  20754578.031          47.200          49.100
 116843095.803 7  91046589.439 7  22234495.484    22234499.887
  22234500.070          47.500          46.400
 106687542.125 7  83133184.90746  20301954.773
  20301958.168          46.400          41.400
 124023164.688 7  96641462.843 7  23600817.289    23600823.816
  23600823.871          42.200          45.500
 108911128.025 7  84865842.573 8  20725095.719    20725099.961
  20725099.988          47.600          49.600
 132573644.719 6 103304181.390 6  25227925.375    25227932.965
  25227933.629          38.400          37.900
 21  5 10  1 30 30.0000000  0  9G02G05G13G15G18G20G23G29G30
 126366977.887 6  98467818.71344  24046828.320
  24046831.340          41.300          24.100
 111007415.166 7  86499323.681 7  21123997.938    21124000.742
  21124000.883          47.700          47.800
 109360437.669 8  85215971.55546  20810589.203
  20810592.816          49.900          39.200
 108998230.642 8  84933763.270 8  20741673.305    20741676.973
  20741676.988          48.800          48.000
 116764254.500 8  90985154.634 7  22219492.977    22219496.941
  22219496.305          48.400          44.800
 106674296.019 7  83122863.25546  20299434.000
  20299437.469          46.300          40.600
 123941643.018 7  96577939.528 7  23585304.742    23585309.980
  23585310.266          43.200          43.800
 108936195.659 7  84885375.806 8  20729866.461    20729869.652
  20729869.781          47.900          49.700
 132555692.547 6 103290192.845 5  25224509.406    25224516.902
  25224516.086          36.600          35.700
 21  5 10  1 31  0.0000000  0  9G02G05G13G15G18G20G23G29G30
 126442558.728 6  98526712.83044  24061210.398
  24061213.230          39.300          25.300
 111066709.224 8  86545526.875 7  21135280.930    21135284.074
  21135283.906          48.300          47.000
 109346902.495 8  85205424.67046  20808013.578
  20808015.895          49.000          37.900
 108930949.682 8  84881336.555 8  20728869.617    20728873.723
  20728873.809          48.300          49.900
 116685537.060 8  90923816.334 7  22204513.430    22204517.445
  22204518.125          48.200          46.800
 106661343.381 7  83112770.27346  20296969.266
  20296972.691          47.600          41.200
 123860283.651 7  96514542.632 7  23569821.906    23569827.859
  23569827.707          42.800          43.900
 108961873.442 7  84905384.458 8  20734752.906    20734756.316
  20734756.484          46.700          49.600
 132538183.993 6 103276549.775 6  25221177.813    25221184.652
  25221184.781          39.500          36.200
 21  5 10  1 31 30.0000000  0  9G02G05G13G15G18G20G23G29G30
 126518337.142 6  98585760.90644  24075631.469
  24075634.410          41.900          27.200
 111126225.610 7  86591903.279 7  21146606.797    21146609.875
  21146609.469          47.400          47.200
 109333998.811 8  85195369.90146  20805557.703
  20805561.023          49.100          39.100
 108864185.110 7  84829312.259 8  20716164.766    20716168.734
  20716168.516          47.800          48.500
 116606945.099 7  90862575.850 7  22189558.156    22189562.535
  22189562.961          44.900          47.800
 106648683.790 8  83102905.66747  20294560.359
  20294562.980          49.500          42.000
 123779087.022 6  96451272.597 7  23554371.711    23554376.477
  23554375.938          41.100          44.400
 108988160.564 7  84925867.947 8  20739754.781    20739758.438
  20739758.484          47.200          49.000
 132521120.593 6 103263253.687 5  25217930.000    25217938.152
  25217938.059          37.100          33.900
 21  5 10  1 32  0.0000000  0  9G02G05G13G15G18G20G23G29G30
 126594312.634 6  98644962.58644  24090089.164
  24090091.762          40.600          27.500
 111185962.794 7  86638451.692 7  21157974.563    21157977.664
  21157977.000          46.300          47.700
 109321727.192 8  85185807.58446  20803223.164
  20803225.992          49.500          37.900
 108797938.802 7  84777691.799 8  20703558.211    20703562.758
  20703562.852          47.800          49.500
 116528479.910 7  90801434.146 7  22174625.914    22174630.832
  22174630.633          46.000          47.500
 106636316.751 7  83093269.02646  20292206.898
  20292209.840          47.200          40.300
 123698053.497 7  96388129.580 7  23538951.398    23538956.168
  23538957.328          42.400          43.900
 109015055.990 7  84946825.405 8  20744872.859    20744876.836
  20744876.992          45.500          49.500
 132504503.623 5 103250305.501 5  25214766.930    25214775.020
  25214774.344          33.500          34.600
 21  5 10  1 32 30.0000000  0  9G02G05G13G15G18G20G23G29G30
 126670485.075 6  98704317.65844  24104585.344
  24104586.328          40.800          28.300
 111245919.354 7  86685171.114 7  21169383.570    21169386.996
  21169386.629          46.800          47.800
 109310087.902 8  85176738.06446  20801007.461
  20801010.332          49.100          38.000
 108732213.014 8  84726476.927 8  20691051.250    20691054.867
  20691055.094          49.100          50.200
 116450143.273 7  90740392.632 8  22159719.313    22159724.238
  22159724.516          45.500          48.500
 106624242.667 8  83083860.64046  20289909.008
  20289912.117          48.100          40.500
 123617183.646 7  96325114.207 7  23523561.797    23523566.859
  23523567.016          43.000          42.600
 109042559.500 7  84968256.704 8  20750106.797    20750111.094
  20750110.777          46.400          48.900
 132488334.573 5 103237706.200 5  25211691.547    25211698.082
  25211697.008          34.700          34.700
 21  5 10  1 33  0.0000000  0  9G02G05G13G15G18G20G23G29G30
 126746853.896 6  98763825.86744  24119117.023
  24119118.754          41.800          26.700
 111306094.282 8  86732060.687 8  21180834.609    21180838.340
  21180838.445          48.100          48.400
 109299081.530 8  85168161.67046  20798913.375
  20798916.984          48.000          38.900
 108667009.877 8  84675669.345 8  20678643.266    20678647.270
  20678646.895          48.100          48.400
 116371936.536 7  90679452.356 8  22144836.891    22144842.832
  22144842.676          46.100          49.100
 106612460.870 8  83074680.03846  20287667.336
  20287670.137          48.200          41.300
 123536477.839 6  96262226.592 6  23508203.609    23508209.246
  23508209.254          41.400          41.400
 109070670.059 7  84990161.049 8  20755455.891    20755459.840
  20755460.129          45.800          49.500
 132472614.709 5 103225456.946 6  25208699.430    25208706.902
  25208706.746          35.300          38.400
 21  5 10  1 33 30.0000000  0  9G02G05G13G15G18G20G23G29G30
 126823418.699 6  98823486.73144  24133686.094
  24133688.660          41.900          25.400
 111366485.576 8  86779118.814 7  21192326.367    21192329.691
  21192329.684          48.400          47.500
 109288708.221 7  85160078.60846  20796939.109
  20796941.824          47.700          38.300
 108602331.143 8  84625270.337 8  20666335.359    20666339.074
  20666339.383          48.600          49.300
 116293861.107 7  90618614.374 8  22129979.797    22129984.602
  22129984.730          47.200          48.700
 106600970.735 7  83065726.70746  20285480.328
  20285483.539          45.200          40.700
 123455936.248 6  96199466.927 7  23492877.320    23492881.871
  23492882.309          39.400          43.000
 109099386.925 7  85012537.813 8  20760920.672    20760924.297
  20760924.117          47.300          49.400
 132457345.133 5 103213558.647 6  25205793.672    25205801.430
  25205802.090          35.700          38.100
 21  5 10  1 34  0.0000000  0  9G02G05G13G15G18G20G23G29G30
 126900179.230 6  98883300.11743  24148293.445
  24148295.203          41.300          23.500
 111427092.155 7  86826344.705 7  21203859.445    21203862.531
  21203862.711          46.500          47.100
 109278968.409 8  85152489.16946  20795085.703
  20795090.027          48.300          38.600
 108538178.664 8  84575281.437 8  20654127.719    20654131.656
  20654131.754          48.800          49.600
 116215918.588 7  90557879.915 8  22115148.305    22115152.328
  22115152.793          46.100          48.000
 106589772.161 7  83057000.54346  20283349.656
  20283352.406          46.300          39.600
 123375559.315 6  96136835.634 7  23477581.703    23477586.723
  23477586.520          39.400          42.700
 109128709.365 7  85035386.487 8  20766500.570    20766504.434
  20766504.656          47.600          50.000
 132442527.263 5 103202012.285 6  25202974.711    25202982.031
  25202983.012          33.100          38.200
 21  5 10  1 34 30.0000000  0  9G02G05G13G15G18G20G23G29G30
 126977134.817 6  98943265.49143  24162937.164
  24162940.660          39.900          23.400
 111487912.026 7  86873736.796 8  21215433.328    21215436.930
  21215437.004          47.300          48.200
 109269861.955 8  85145393.23246  20793352.914
  20793355.973          49.400          38.800
 108474553.813 8  84525703.641 7  20642020.398    20642023.934
  20642023.508          48.000          47.500
 116138110.023 7  90497249.912 7  22100341.727    22100345.512
  22100344.949          47.000          46.200
 106578864.697 8  83048501.23046  20281274.297
  20281277.051          48.300          41.000
 123295347.155 7  96074332.710 7  23462318.242    23462323.070
  23462322.543          43.600          42.200
 109158636.439 7  85058706.276 8  20772195.547    20772199.148
  20772199.387          47.400          49.900
 132428161.809 5 103190818.535 6  25200240.539    25200248.535
  25200248.426          35.400          37.200
 21  5 10  1 35  0.0000000  0  9G02G05G13G15G18G20G23G29G30
 127054284.925 6  99003382.53943  24177618.328
  24177620.551          39.900          22.600
 111548944.106 7  86921294.247 7  21227047.586    21227050.887
  21227050.809          47.600          47.900
 109261389.304 8  85138791.19546  20791740.813
  20791744.301          49.100          38.900
 108411458.628 7  84476538.574 8  20630013.703    20630017.328
  20630017.793          47.500          49.600
 116060437.039 7  90436725.483 7  22085560.289    22085564.199
  22085564.582          47.000          46.600
 106568248.046 8  83040228.55047  20279253.977
  20279256.871          48.900          42.300
 123215300.085 7  96011958.398 7  23447085.781    23447091.109
  23447091.352          43.600          43.800
 109189167.247 8  85082496.516 8  20778005.281    20778009.277
  20778008.961          48.300          49.600
 132414250.261 6 103179978.345 6  25197593.891    25197601.508
  25197601.461          36.700          38.600
 21  5 10  1 35 30.0000000  0  9G02G05G13G15G18G20G23G29G30
 127131629.473 6  99063650.93744  24192336.523
  24192340.781          41.600          26.300
 111610187.581 7  86969016.449 8  21238701.375    21238705.105
  21238705.199          47.900          48.400
 109253551.108 8  85132683.53146  20790249.164
  20790252.508          48.200          39.500
 108348895.679 7  84427788.266 8  20618108.500    20618111.922
  20618111.715          47.400          48.700
 115982901.653 7  90376308.322 8  22070806.359    22070811.012
  22070811.031          47.600          48.100
 106557922.055 7  83032182.33546  20277289.117
  20277291.543          44.700          41.200
 123135418.949 6  95949713.398 7  23431884.531    23431889.289
  23431889.965          41.300          42.600
 109220300.753 7  85106756.394 8  20783930.141    20783933.480
  20783933.992          47.900          49.500
 132400794.175 6 103169493.046 6  25195032.289    25195039.926
  25195039.680          36.800          36.100
 21  5 10  1 36  0.0000000  0  9G02G05G13G15G18G20G23G29G30
 127209167.665 7  99124070.25544  24207092.133
  24207094.664          42.800          26.300
 111671640.123 7  87016901.518 8  21250395.383    21250399.344
  21250399.273          47.800          48.000
 109246347.153 8  85127070.07246  20788878.789
  20788880.867          48.800          38.100
 108286866.155 7  84379453.598 8  20606304.492    20606308.074
  20606308.223          46.300          49.100
 115905504.832 7  90315999.124 7  22056078.578    22056082.105
  22056082.148          46.600          47.600
 106547885.952 7  83024361.99146  20275379.297
  20275382.004          47.000          40.200
 123055703.604 6  95887597.594 7  23416714.977    23416720.402
  23416719.859          40.500          42.600
 109252036.059 7  85131485.203 8  20789969.141    20789972.574
  20789972.586          47.000          49.800
 132387794.218 5 103159363.232 5  25192559.328    25192566.699
  25192566.098          35.500          35.800
 21  5 10  1 36 30.0000000  0  9G02G05G13G15G18G20G23G29G30
 127286899.147 7  99184640.21544  24221885.000
  24221886.855          43.600          27.600
 111733301.046 7  87064948.978 7  21262128.813    21262132.266
  21262132.434          46.700          47.300
 109239777.917 8  85121951.23746  20787628.094
  20787631.500          49.200          39.600
 108225372.349 7  84331536.372 8  20594602.641    20594606.098
  20594606.043          47.100          49.300
 115828248.466 7  90255799.397 8  22041376.844    22041381.340
  22041381.715          47.300          48.700
 106538139.907 7  83016767.70746  20273524.555
  20273527.215          47.900          40.700
 122976154.697 7  95825611.481 7  23401577.094    23401582.293
  23401582.770          42.000          42.900
 109284372.371 7  85156682.327 8  20796122.172    20796126.195
  20796126.324          46.700          49.900
 132375251.845 5 103149590.101 5  25190171.297    25190179.656
  25190179.098          35.100          35.900
 21  5 10  1 37  0.0000000  0  9G02G05G13G15G18G20G23G29G30
 127364823.621 7  99245360.52244  24236713.195
  24236715.211          42.700          28.100
 111795168.880 7  87113157.669 7  21273902.125    21273905.598
  21273905.617          46.000          46.600
 109233843.432 7  85117326.94046  20786499.313
  20786502.117          47.600          38.800
 108164415.776 7  84284037.773 8  20583002.945    20583006.813
  20583006.660          46.700          49.000
 115751134.083 7  90195710.322 8  22026702.570    22026706.520
  22026706.727          47.600          48.600
 106528683.452 7  83009399.08846  20271724.563
  20271727.734          44.500          39.900
 122896772.673 7  95763755.421 6  23386470.992    23386476.770
  23386476.699          43.800          41.300
 109317308.938 7  85182347.169 8  20802389.914    20802393.410
  20802393.953          46.600          49.800
 132363168.417 5 103140174.432 6  25187872.469    25187879.426
  25187878.660          35.900          36.700
 21  5 10  1 37 30.0000000  0  9G02G05G13G15G18G20G23G29G30
 127442940.641 6  99306230.92544  24251577.969
  24251581.742          40.900          27.800
 111857242.192 7  87161526.413 7  21285714.313    21285717.883
  21285717.852          44.900          46.500
 109228543.629 8  85113197.29146  20785490.023
  20785492.957          48.200          38.400
 108103998.227 8  84236959.183 8  20571505.750    20571509.371
  20571509.238          48.000          49.800
 115674163.089 7  90135732.993 8  22012055.211    22012059.602
  22012059.805          47.600          49.100
 106519516.144 7  83002255.72746  20269979.898
  20269982.973          45.900          40.400
 122817557.638 7  95702029.403 6  23371397.242    23371402.023
  23371401.914          42.300          41.700
 109350844.477 7  85208478.741 8  20808771.547    20808775.199
  20808775.203          47.600          49.200
 132351544.757 5 103131117.007 6  25185661.203    25185667.789
  25185667.234          32.500          37.100
 21  5 10  1 38  0.0000000  0  9G02G05G13G15G18G20G23G29G30
 127521249.620 6  99367250.83444  24266479.430
  24266482.543          40.100          25.400
 111919519.501 7  87210054.169 7  21297565.844    21297569.188
  21297569.102          45.100          47.200
 109223878.714 8  85109562.26146  20784603.375
  20784606.402          50.100          39.800
 108044121.271 7  84190301.845 8  20560111.375    20560114.922
  20560115.184          47.700          49.300
 115597336.845 7  90075868.390 8  21997435.766    21997440.242
  21997440.902          47.500          49.700
 106510637.443 8  82995337.24947  20268290.875
  20268293.773          48.600          42.100
 122738509.699 7  95640433.638 7  23356355.031    23356359.730
  23356359.656          44.600          43.900
 109384977.678 7  85235076.037 8  20815266.617    20815270.473
  20815270.711          47.500          50.100
 132340381.591 5 103122418.486 6  25183536.625    25183543.926
  25183543.258          32.800          38.600
 21  5 10  1 38 30.0000000  0  9G02G05G13G15G18G20G23G29G30
 127599750.211 7  99428420.08843  24281417.500
  24281420.219          42.200          22.900
 111981999.211 7  87258739.671 7  21309454.945    21309458.535
  21309458.832          46.100          47.500
 109219848.806 8  85106422.12646  20783835.516
  20783837.457          48.300          36.600
 107984786.885 7  84144067.283 8  20548820.578    20548824.219
  20548824.441          47.900          50.000
 115520657.047 8  90016117.965 8  21982844.070    21982848.188
  21982848.480          49.500          48.600
 106502047.052 8  82988643.45946  20266655.969
  20266658.918          48.300          41.700
 122659629.393 7  95578968.465 7  23341345.125    23341349.328
  23341349.641          45.500          44.800
 109419707.852 7  85262138.479 8  20821875.648    20821879.641
  20821879.551          47.200          48.900
 132329680.487 6 103114080.001 6  25181499.648    25181507.883
  25181506.176          36.200          38.100
 21  5 10  1 39  0.0000000  0  9G02G05G13G15G18G20G23G29G30
 127678441.484 6  99489737.92143  24296392.617
  24296393.238          40.700          21.100
 112044679.811 7  87307581.667 8  21321382.922    21321386.020
  21321386.453          47.400          48.000
 109216453.511 8  85103776.44646  20783189.758
  20783193.645          50.200          40.100
 107925996.355 7  84098256.506 8  20537633.344    20537636.664
  20537636.211          47.300          48.200
 115444125.017 7  89956482.643 7  21968280.203    21968284.816
  21968284.328          47.100          47.100
 106493744.613 7  82982174.04746  20265075.781
  20265078.980          47.000          40.000
 122580916.803 7  95517633.985 7  23326366.531    23326371.738
  23326371.883          45.600          45.300
 109455033.692 7  85289665.110 8  20828598.055    20828601.957
  20828601.918          46.100          49.200
 132319442.146 5 103106102.044 6  25179552.844    25179559.633
  25179559.477          35.400          38.900
 21  5 10  1 39 30.0000000  0  9G02G05G13G15G18G20G23G29G30
 127757323.156 6  99551204.17343  24311402.984
  24311403.848          40.000          22.800
 112107560.461 7  87356579.588 7  21333348.000    21333351.816
  21333351.738          47.000          46.700
 109213693.211 7  85101625.56346  20782663.859
  20782667.227          47.000          37.700
 107867751.826 7  84052871.170 8  20526549.711    20526553.172
  20526553.035          47.900          48.800
 115367742.627 8  89896963.949 7  21953745.484    21953749.172
  21953749.059          48.900          47.300
 106485729.975 7  82975928.87346  20263551.281
  20263554.082          46.300          39.700
 122502372.604 7  95456430.789 7  23311419.844    23311425.184
  23311425.379          44.600          45.800
 109490954.156 7  85317655.060 8  20835433.195    20835437.484
  20835437.445          47.300          49.000
 132309667.796 5 103098485.751 6  25177691.055    25177699.203
  25177699.828          35.000          40.100
 21  5 10  1 40  0.0000000  0  9G02G05G13G15G18G20G23G29G30
 127836394.841 7  99612818.44943  24326449.898
  24326450.895          42.200          22.200
 112170639.671 7  87405732.214 7  21345352.250    21345355.566
  21345355.234          47.100          46.000
 109211568.039 8  85099969.62346  20782260.172
  20782263.246          49.200          39.200
 107810055.075 7  84007912.687 8  20515570.586    20515573.957
  20515574.539          47.600          49.700
 115291511.314 7  89837562.997 7  21939238.656    21939242.602
  21939243.246          46.800          47.500
 106478002.731 8  82969907.67246  20262080.906
  20262083.703          48.100          41.100
 122423996.906 7  95395358.856 7  23296505.281    23296510.750
  23296511.227          44.200          45.800
 109527468.051 7  85346107.429 8  20842381.781    20842386.188
  20842386.184          47.500          49.400
 132300358.554 5 103091231.731 6  25175920.258    25175927.930
  25175927.281          35.400          37.500
 21  5 10  1 40 30.0000000  0  9G02G05G13G15G18G20G23G29G30
 127915656.097 7  99674580.47044  24341533.586
  24341534.125          42.600          24.400
 112233916.240 7  87455038.599 7  21357393.953    21357396.336
  21357396.113          47.000          46.200
 109210077.747 7  85098808.32846  20781976.523
  20781979.906          47.300          38.300
 107752907.582 8  83963382.212 8  20504695.125    20504698.699
  20504698.984          48.100          50.500
 115215432.822 8  89778281.103 7  21924762.078    21924765.445
  21924765.629          48.200          47.500
 106470562.725 8  82964110.29846  20260664.969
  20260667.441          48.300          41.600
 122345790.164 7  95334418.570 7  23281622.758    23281628.031
  23281628.172          44.100          45.400
 109564574.418 8  85375021.476 8  20849443.016    20849446.914
  20849447.285          49.000          49.600
 132291515.331 6 103084340.924 6  25174238.578    25174245.453
  25174245.531          37.500          39.800
 21  5 10  1 41  0.0000000  0  9G02G05G13G15G18G20G23G29G30
 127995106.421 7  99736489.74744  24356651.469
  24356652.906          42.500          24.900
 112297388.339 7  87504497.380 7  21369471.766    21369475.402
  21369474.559          47.000          46.800
 109209222.203 8  85098141.71746  20781814.109
  20781815.820          49.300          38.800
 107696310.782 8  83919280.833 8  20493925.109    20493929.102
  20493929.484          48.100          49.200
 115139508.584 8  89719119.401 7  21910313.492    21910317.277
  21910316.969          48.700          47.300
 106463409.332 7  82958536.23546  20259303.289
  20259305.977          47.200          41.100
 122267752.572 7  95273610.077 7  23266772.992    23266778.055
  23266777.969          43.800          46.400
 109602271.865 7  85404396.112 8  20856616.086    20856620.445
  20856620.180          47.900          49.200
 132283139.089 5 103077814.075 6  25172642.719    25172651.203
  25172651.664          34.300          39.700
 21  5 10  1 41 30.0000000  0  9G02G05G13G15G18G20G23G29G30
 128074745.099 7  99798545.85144  24371806.445
  24371808.637          43.300          26.700
 112361055.189 8  87554107.907 7  21381587.617    21381590.855
  21381591.148          48.500          47.400
 109209001.475 7  85097969.72346  20781771.227
  20781775.957          47.900          39.200
 107640266.424 8  83875609.925 8  20483260.523    20483263.934
  20483264.070          48.300          49.200
 115063740.344 7  89660079.252 8  21895894.867    21895899.641
  21895899.855          46.200          48.500
 106456542.539 7  82953185.46146  20257996.969
  20257999.590          46.000          40.800
 122189884.635 7  95212933.829 7  23251955.328    23251960.863
  23251961.191          42.600          45.900
 109640559.871 7  85434230.907 8  20863902.594    20863906.809
  20863907.137          47.900          49.700
 132275230.952 5 103071651.813 6  25171138.203    25171146.355
  25171146.047          35.400          39.600
 21  5 10  1 42  0.0000000  0  9G02G05G13G15G18G20G23G29G30
 128154571.492 6  99860748.17744  24386996.000
  24387000.004          41.200          26.200
 112424915.326 7  87603869.075 7  21393739.063    21393742.199
  21393742.672          47.000          46.600
 109209415.274 8  85098292.16546  20781850.469
  20781852.480          49.000          38.400
 107584776.090 7  83832370.732 8  20472700.578    20472704.883
  20472705.160          47.900          50.100
 114988129.521 7  89601161.812 8  21881506.453    21881511.066
  21881511.523          47.900          48.700
 106449961.770 8  82948057.57946  20256744.875
  20256747.426          48.300          41.500
 122112186.435 7  95152389.810 7  23237169.094    23237174.508
  23237175.039          42.500          44.900
 109679436.590 7  85464524.426 8  20871300.039    20871304.496
  20871304.316          47.800          48.600
 132267791.572 5 103065854.843 6  25169723.555    25169730.590
  25169730.645          35.800          39.900
 21  5 10  1 42 30.0000000  0  9G02G05G13G15G18G20G23G29G30
 128234585.315 6  99923096.53544  24402223.211
  24402227.355          39.500          26.700
 112488967.304 7  87653779.722 7  21405927.938    21405931.523
  21405931.652          47.000          46.600
 109210463.506 7  85099109.00846  20782049.383
  20782053.648          45.400          38.900
 107529841.551 7  83789564.631 8  20462247.273    20462251.199
  20462251.594          47.800          50.500
 114912678.000 7  89542368.464 8  21867148.977    21867153.598
  21867153.355          47.600          48.300
 106443666.931 8  82943152.52846  20255546.828
  20255549.738          49.100          41.000
 122034658.501 6  95091978.494 7  23222416.477    23222421.211
  23222421.813          39.900          44.700
 109718900.908 8  85495275.823 8  20878810.414    20878814.359
  20878814.254          48.300          49.300
 132260822.056 5 103060424.066 6  25168396.328    25168404.148
  25168403.910          35.900          40.200
 21  5 10  1 43  0.0000000  0  9G02G05G13G15G18G20G23G29G30
 128314785.843 7  99985590.42544  24417484.297
  24417488.949          42.800          25.200
 112553209.869 7  87703838.901 7  21418152.898    21418156.461
  21418156.465          47.800          46.600
 109212145.775 8  85100419.84346  20782370.039
  20782373.305          48.900          38.700
 107475464.009 8  83747192.544 8  20451899.766    20451903.047
  20451903.207          48.300          50.000
 114837386.998 7  89483700.193 8  21852821.703    21852825.953
  21852825.926          46.900          48.000
 106437657.364 8  82938469.78946  20254403.664
  20254405.703          48.800          41.100
 121957300.725 7  95031699.771 7  23207695.758    23207700.160
  23207700.668          42.800          44.000
 109758951.332 8  85526483.929 8  20886431.180    20886435.648
  20886436.121          49.400          49.300
 132254323.269 6 103055360.021 6  25167159.461    25167167.906
  25167168.047          37.400          40.500
 21  5 10  1 43 30.0000000  0  9G02G05G13G15G18G20G23G29G30
 128395172.863 6 100048229.59244  24432781.766
  24432785.969          41.100          24.500
 112617641.790 7  87754045.596 7  21430414.250    21430417.125
  21430417.551          46.200          47.500
 109214462.169 7  85102224.87646  20782810.063
  20782813.102          45.800          37.100
 107421645.021 8  83705255.715 8  20441658.063    20441661.703
  20441661.605          48.300          49.400
 114762258.403 7  89425158.494 8  21838524.836    21838528.980
  21838529.332          47.700          48.300
 106431932.871 7  82934009.19846  20253313.883
  20253316.523          47.900          40.300
 121880113.733 7  94971554.136 7  23193007.336    23193012.715
  23193012.762          43.200          44.100
 109799586.469 8  85558147.631 8  20894164.516    20894168.777
  20894168.719          49.300          48.200
 132248296.082 6 103050663.515 6  25166013.086    25166020.480
  25166019.973          36.000          39.200
 21  5 10  1 44  0.0000000  0  9G02G05G13G15G18G20G23G29G30
 128475745.508 6 100111013.43143  24448114.883
  24448118.293          40.900          21.800
 112682261.750 7  87804398.830 7  21442710.398    21442713.602
  21442713.031          46.200          45.800
 109217412.384 8  85104523.74246  20783371.773
  20783375.961          48.400          39.700
 107368386.424 7  83663755.530 8  20431522.898    20431526.828
  20431526.895          47.200          49.800
 114687293.884 7  89366744.672 8  21824259.539    21824264.480
  21824264.715          45.700          49.400
 106426493.135 7  82929770.46746  20252278.516
  20252281.219          45.800          40.200
 121803097.806 7  94911541.802 7  23178351.859    23178356.520
  23178356.723          42.300          42.900
 109840805.590 7  85590266.409 8  20902008.141    20902012.105
  20902012.063          47.000          48.800
 132242741.607 6 103046335.311 6  25164956.188    25164963.695
  25164962.789          37.300          38.700
 21  5 10  1 44 30.0000000  0  9G02G05G13G15G18G20G23G29G30
 128556503.048 6 100173941.50444  24463482.773
  24463484.785          41.800          24.900
 112747068.338 7  87854897.491 7  21455043.031    21455046.324
  21455046.398          46.700          46.900
 109220996.051 7  85107316.21546  20784054.141
  20784056.445          47.400          37.500
 107315689.425 8  83622692.938 8  20421495.516    20421499.082
  20421499.230          48.800          49.600
 114612494.873 7  89308459.774 8  21810025.609    21810030.391
  21810030.324          46.500          48.500
 106421337.582 7  82925753.12746  20251297.922
  20251300.891          45.100          41.100
 121726253.059 7  94851662.836 7  23163728.750    23163733.617
  23163733.762          44.100          43.600
 109882606.865 8  85622838.814 8  20909962.500    20909966.551
  20909966.992          48.300          49.000
 132237660.187 6 103042375.826 6  25163988.766    25163997.039
  25163996.742          38.600          39.500
 21  5 10  1 45  0.0000000  0  9G02G05G13G15G18G20G23G29G30
 128637445.175 7 100237013.26743  24478884.859
  24478887.387          42.700          23.600
 112812060.263 8  87905540.571 7  21467410.586    21467413.637
  21467414.020          48.000          47.200
 109225212.858 8  85110602.09146  20784856.117
  20784860.156          49.100          39.600
 107263555.473 7  83582069.117 8  20411574.602    20411578.520
  20411578.465          47.700          50.000
 114537863.191 7  89250305.247 8  21795823.719    21795828.160
  21795828.461          46.900          49.900
 106416466.186 7  82921957.21147  20250370.117
  20250373.395          46.400          42.400
 121649579.857 7  94791917.568 7  23149137.594    23149143.660
  23149143.691          44.700          44.300
 109924988.805 8  85655863.687 8  20918027.969    20918031.871
  20918031.781          48.800          48.200
 132233052.963 5 103038785.759 6  25163111.727    25163120.266
  25163119.273          35.500          38.500
 21  5 10  1 45 30.0000000  0  9G02G05G13G15G18G20G23G29G30
 128718571.202 6 100300228.37844  24494322.203
  24494324.852          41.700          24.300
 112877236.451 8  87956327.195 7  21479813.602    21479816.746
  21479817.172          48.300          47.100
 109230062.571 7  85114381.05546  20785779.758
  20785781.902          47.500          38.300
 107211986.664 7  83541885.645 8  20401761.555    20401765.016
  20401765.270          46.700          49.300
 114463400.386 7  89192282.316 7  21781654.266    21781658.168
  21781657.859          46.800          47.600
 106411878.570 7  82918382.42647  20249497.633
  20249500.539          46.700          42.400
 121573078.452 7  94732306.144 7  23134579.773    23134585.176
  23134584.789          44.000          42.300
 109967950.529 8  85689340.349 8  20926202.938    20926206.797
  20926206.980          48.100          49.000
 132228920.744 6 103035565.863 6  25162327.141    25162333.465
  25162333.480          39.500          39.400
 21  5 10  1 46  0.0000000  0  9G02G05G13G15G18G20G23G29G30
 128799880.471 6 100363586.18343  24509794.063
  24509798.012          39.000          22.000
 112942595.234 7  88007256.144 7  21492250.133    21492254.160
  21492254.012          47.800          46.700
 109235544.377 8  85118652.65946  20786822.594
  20786824.910          49.400          38.700
 107160983.147 8  83502142.664 8  20392055.633    20392059.230
  20392059.094          48.500          49.800
 114389107.891 7  89134392.077 8  21767516.625    21767521.180
  21767521.449          46.500          49.600
 106407573.845 7  82915028.09946  20248678.281
  20248681.094          47.800          41.800
 121496748.779 7  94672828.581 7  23120053.805    23120059.914
  23120059.961          44.300          44.100
 110011489.843 7  85723267.058 8  20934488.000    20934491.871
  20934492.359          47.800          48.900
 132225263.875 6 103032716.299 6  25161630.125    25161637.609
  25161637.070          37.200          38.800
 21  5 10  1 46 30.0000000  0  9G02G05G13G15G18G20G23G29G30
 128881372.758 6 100427086.60444  24525302.922
  24525305.316          41.600          25.400
 113008136.062 8  88058326.965 7  21504722.422    21504725.879
  21504725.969          48.400          47.000
 109241658.884 8  85123417.17846  20787985.875
  20787989.688          48.000          39.000
 107110547.662 8  83462842.305 8  20382458.195    20382461.551
  20382461.742          48.500          49.300
 114314988.066 7  89076636.400 8  21753411.797    21753416.750
  21753417.258          47.800          49.800
 106403552.706 7  82911894.77346  20247913.086
  20247915.867          47.900          40.800
 121420591.955 7  94613485.643 7  23105562.563    23105567.918
  23105568.188          46.100          44.500
 110055606.367 7  85757643.549 8  20942883.586    20942887.262
  20942887.219          47.500          48.700
 132222083.941 6 103030238.463 6  25161024.523    25161032.633
  25161031.641          37.600          37.300
 21  5 10  1 47  0.0000000  0  9G02G05G13G15G18G20G23G29G30
 128963046.828 7 100490728.73043  24540843.773
  24540847.719          42.000          22.800
 113073857.000 7  88109538.074 7  21517228.914    21517232.262
  21517232.176          46.800          46.800
 109248404.655 8  85128673.63546  20789269.594
  20789271.707          48.600          38.100
 107060680.758 7  83423985.009 8  20372968.625    20372972.223
  20372971.992          47.300          50.200
 114241041.895 7  89019016.052 7  21739340.891    21739344.309
  21739344.168          47.600          47.600
 106399813.820 7  82908981.40046  20247201.539
  20247204.367          47.600          40.000
 121344607.510 7  94554277.065 7  23091103.734    23091109.125
  23091108.676          42.500          44.300
 110100297.754 8  85792467.989 8  20951387.844    20951391.840
  20951392.020          48.600          49.200
 132219381.104 6 103028132.323 6  25160510.898    25160518.000
  25160518.582          37.000          38.900
 21  5 10  1 47 30.0000000  0  9G02G05G13G15G18G20G23G29G30
 129044902.599 6 100554512.33944  24556421.836
  24556423.449          41.600          26.100
 113139756.872 7  88160888.653 7  21529769.148    21529772.203
  21529772.336          47.300          46.900
 109255781.720 7  85134422.02946  20790673.258
  20790676.359          47.800          38.400
 107011383.923 8  83385571.924 8  20363587.984    20363591.039
  20363591.352          48.500          49.600
 114167271.347 8  88961532.567 8  21725302.617    21725306.453
  21725306.746          48.200          49.100
 106396357.226 7  82906287.96746  20246543.625
  20246546.590          46.100          39.300
 121268795.938 7  94495203.192 7  23076677.258    23076682.035
  23076682.129          44.300          45.300
 110145562.768 8  85827739.432 8  20960001.461    20960005.273
  20960005.492          48.600          48.500
 132217156.118 6 103026398.590 6  25160087.352    25160094.340
  25160094.285          37.000          37.600
 21  5 10  1 48  0.0000000  0  9G02G05G13G15G18G20G23G29G30
 129126938.881 6 100618436.71143  24572032.789
  24572034.742          40.800          23.900
 113205834.880 8  88212378.010 7  21542343.469    21542346.348
  21542346.582          48.400          47.200
 109263789.082 8  85140661.52146  20792197.320
  20792200.355          48.200          39.200
 106962658.257 7  83347603.906 8  20354315.508    20354318.535
  20354318.457          46.700          49.500
 114093677.992 7  88904187.135 8  21711297.773    21711303.008
  21711303.172          47.200          49.700
 106393182.757 7  82903814.35846  20245939.906
  20245942.320          45.300          39.600
 121193157.470 7  94436264.177 7  23062283.625    23062288.203
  23062288.664          43.400          44.500
 110191399.837 8  85863456.584 8  20968724.055    20968727.762
  20968727.934          48.500          48.700
 132215409.730 6 103025037.741 6  25159755.891    25159761.922
  25159761.965          38.900          37.200
 21  5 10  1 48 30.0000000  0  9G02G05G13G15G18G20G23G29G30
 129209155.640 6 100682501.68143  24587678.039
  24587679.945          41.300          22.000
 113272089.553 8  88264005.027 7  21554951.547    21554954.875
  21554955.301          48.400          47.900
 109272427.182 7  85147392.53646  20793840.109
  20793843.324          47.000          38.700
 106914505.817 8  83310082.531 8  20345152.750    20345155.957
  20345155.555          48.000          49.300
 114020263.735 7  88846981.189 8  21697327.750    21697331.961
  21697331.902          45.700          49.000
 106390289.874 7  82901560.16146  20245389.203
  20245391.613          44.500          40.200
 121117692.430 6  94377460.311 7  23047922.188    23047927.836
  23047927.766          41.400          44.100
 110237807.560 8  85899618.439 8  20977555.430    20977558.898
  20977558.742          48.200          48.500
 132214142.852 6 103024050.523 6  25159515.016    25159522.063
  25159521.891          37.300          37.000
 21  5 10  1 49  0.0000000  0  9G02G05G13G15G18G20G23G29G30
 129291551.887 6 100746706.59143  24603357.422
  24603360.551          40.200          21.800
 113338519.048 7  88315768.291 7  21567592.195    21567595.578
  21567595.676          47.500          47.000
 109281695.313 8  85154614.44846  20795604.672
  20795607.594          48.700          38.900
 106866927.502 8  83273008.549 8  20336098.648    20336102.109
  20336102.043          49.100          50.000
 113947030.168 8  88789916.090 8  21683392.000    21683396.250
  21683396.457          48.400          48.900
 106387678.398 7  82899525.23847  20244892.484
  20244894.852          46.200          42.000
 121042401.097 6  94318791.825 7  23033595.781    23033599.871
  23033599.824          39.900          44.300
 110284784.207 8  85936223.612 8  20986494.578    20986498.305
  20986498.258          48.400          48.800
 132213355.925 6 103023437.400 6  25159364.586    25159370.809
  25159371.719          39.400          37.600
 21  5 10  1 49 30.0000000  0  9G02G05G13G15G18G20G23G29G30
 129374127.341 6 100811051.12143  24619071.094
  24619074.176          40.300          21.300
 113405122.808 7  88367667.319 7  21580266.063    21580269.527
  21580269.234          46.800          45.800
 109291592.691 7  85162326.68746  20797487.953
  20797490.348          47.000          38.800
 106819924.708 7  83236383.000 8  20327154.211    20327157.898
  20327158.113          47.800          50.000
 113873979.089 7  88732993.173 7  21669490.773    21669494.320
  21669494.281          46.600          47.600
 106385347.990 7  82897709.33747  20244448.758
  20244451.770          47.900          42.800
 120967283.652 6  94260258.836 7  23019300.906    23019305.691
  23019304.887          39.800          43.400
 110332328.564 8  85973271.128 8  20995541.914    20995546.461
  20995546.172          48.900          48.900
 132213049.718 6 103023198.756 6  25159306.203    25159312.027
  25159312.574          37.900          37.400
 21  5 10  1 50  0.0000000  0  9G02G05G13G15G18G20G23G29G30
 129456880.876 6 100875534.39643  24634817.461
  24634821.863          36.000          18.600
 113471899.290 7  88419700.936 7  21592973.297    21592977.512
  21592977.438          46.700          47.400
 109302118.550 8  85170528.68446  20799491.219
  20799493.711          48.800          39.400
 106773498.375 7  83200206.670 8  20318319.609    20318323.109
  20318323.539          46.400          49.900
 113801112.020 7  88676213.678 8  21655624.555    21655628.977
  21655629.172          45.200          48.300
 106383298.173 8  82896112.07447  20244058.977
  20244062.121          49.200          44.300
 120892340.361 6  94201861.472 7  23005040.047    23005044.020
  23005044.445          41.100          45.200
 110380438.485 8  86010759.351 8  21004696.766    21004700.953
  21004700.922          48.700          48.700
 132213224.662 5 103023335.113 6  25159339.008    25159347.391
  25159346.738          35.500          37.800
 21  5 10  1 50 30.0000000  0  9G02G05G13G15G18G20G23G29G30
 129539812.186 6 100940156.13843  24650599.547
  24650603.324          39.800          22.900
 113538847.623 8  88471868.490 7  21605713.297    21605716.711
  21605716.605          48.000          46.100
 109313272.503 8  85179220.08446  20801613.266
  20801616.586          49.200          38.900
 106727649.899 7  83164480.616 8  20309594.391    20309598.449
  20309598.453          47.200          50.100
 113728430.855 7  88619579.019 8  21641794.133    21641798.121
  21641798.273          45.200          49.000
 106381528.837 8  82894733.38947  20243721.992
  20243725.063          49.700          43.700
 120817571.525 7  94143600.120 7  22990811.617    22990816.918
  22990816.277          42.200          45.200
 110429112.666 7  86048687.285 8  21013959.266    21013963.672
  21013963.488          47.400          48.400
 132213881.579 6 103023847.066 6  25159463.117    25159472.008
  25159470.512          39.600          38.000
 21  5 10  1 51  0.0000000  0  9G02G05G13G15G18G20G23G29G30
 129622920.075 6 101004915.48344  24666415.945
  24666417.781          39.700          25.800
 113605966.505 7  88524168.902 7  21618485.453    21618489.066
  21618489.406          46.800          47.100
 109325053.969 8  85188400.45546  20803855.547
  20803858.496          48.100          39.400
 106682380.283 7  83129205.608 8  20300980.664    20300983.871
  20300984.094          47.600          50.200
 113655937.113 7  88563090.396 8  21627998.828    21628003.563
  21628004.133          46.800          49.500
 106380039.376 8  82893572.77647  20243438.172
  20243441.547          49.600          42.500
 120742977.292 7  94085474.767 7  22976617.086    22976621.820
  22976622.219          45.200          45.100
 110478349.409 7  86087053.565 8  21023328.734    21023333.023
  21023332.938          47.200          48.200
 132215020.801 6 103024734.730 5  25159680.844    25159688.523
  25159687.281          36.100          35.600
 21  5 10  1 51 30.0000000  0  9G02G05G13G15G18G20G23G29G30
 129706204.102 7 101069812.10444  24682263.047
  24682266.527          42.600          26.900
 113673254.547 8  88576601.168 7  21631290.117    21631292.844
  21631292.855          48.800          45.500
 109337462.078 7  85198069.12646  20806216.586
  20806219.789          47.200          38.600
 106637690.777 7  83094382.625 8  20292476.258    20292479.734
  20292479.773          47.300          50.300
 113583632.749 7  88506749.367 8  21614239.789    21614243.594
  21614243.836          45.500          49.800
 106378829.448 8  82892629.98146  20243208.516
  20243211.266          48.300          40.900
 120668557.967 7  94027485.737 7  22962455.641    22962459.984
  22962460.008          45.800          45.700
 110528147.021 7  86125856.855 8  21032805.047    21032808.832
  21032808.977          47.800          48.800
 132216643.125 5 103025998.914 6  25159990.078    25159997.355
  25159997.297          35.100          38.400
 21  5 10  1 52  0.0000000  0  9G02G05G13G15G18G20G23G29G30
 129789663.617 7 101134845.46844  24698145.359
  24698148.449          42.000          27.200
 113740710.230 8  88629164.037 7  21644126.289    21644129.297
  21644129.445          48.800          46.300
 109350495.846 8  85208225.31446  20808697.297
  20808699.676          48.700          39.000
 106593582.351 8  83060012.468 8  20284083.133    20284086.078
  20284086.008          48.800          49.900
 113511519.172 7  88450556.969 8  21600516.883    21600521.227
  21600521.484          45.200          49.300
 106377898.567 8  82891904.64346  20243031.156
  20243033.441          48.600          40.000
 120594313.542 7  93969632.972 7  22948327.281    22948331.996
  22948332.395          42.500          45.400
 110578503.511 8  86165095.657 8  21042387.422    21042391.559
  21042391.750          48.300          48.400
 132218748.648 6 103027639.570 6  25160390.391    25160398.551
  25160398.590          40.400          41.800
 21  5 10  1 52 30.0000000  0  9G02G05G13G15G18G20G23G29G30
 129873298.121 7 101200015.14544  24714060.133
  24714063.660          42.800          24.400
 113808332.704 8  88681856.878 7  21656994.578    21656998.480
  21656998.859          49.000          47.400
 109364155.231 7  85218869.02746  20811295.805
  20811299.164          47.700          38.400
 106550056.503 7  83026096.242 8  20275799.961    20275803.410
  20275803.684          47.500          50.700
 113439598.429 7  88394514.880 8  21586830.586    21586835.078
  21586835.445          46.400          49.600
 106377246.864 7  82891396.84046  20242907.234
  20242909.887          47.700          38.800
 120520244.523 7  93911916.868 7  22934232.469    22934237.242
  22934237.121          43.700          45.300
 110629417.543 7  86204768.904 8  21052076.117    21052080.438
  21052080.313          47.500          48.800
 132221338.318 6 103029657.539 6  25160883.742    25160891.109
  25160890.883          38.700          38.800
 21  5 10  1 53  0.0000000  0  9G02G05G13G15G18G20G23G29G30
 129957106.719 6 101265320.51443  24730007.961
  24730011.320          38.400          21.700
 113876121.060 7  88734678.947 7  21669894.016    21669898.008
  21669898.395          46.700          47.300
 109378439.182 8  85229999.39646  20814014.914
  20814016.844          48.600          39.100
 106507114.266 7  82992634.764 8  20267628.242    20267631.836
  20267631.934          47.400          49.600
 113367872.260 7  88338624.346 8  21573181.836    21573185.883
  21573186.398          46.000          49.300
 106376873.626 7  82891106.03446  20242835.922
  20242838.441          46.600          37.600
 120446351.112 7  93854337.606 7  22920171.336    22920175.238
  22920175.473          44.500          45.400
 110680887.253 8  86244875.143 7  21061870.695    21061874.578
  21061874.523          48.000          47.700
 132224412.566 6 103032053.089 6  25161468.242    25161475.473
  25161475.504          38.600          36.700
 21  5 10  1 53 30.0000000  0  9G02G05G13G15G18G20G23G29G30
 130041088.626 6 101330760.89242  24745987.992
  24745991.836          39.000          17.800
 113944073.988 7  88787629.236 7  21682824.672    21682828.719
  21682828.680          45.100          45.500
 109393347.107 7  85241616.00046  20816850.797
  20816854.199          47.300          38.900
 106464756.674 8  82959628.871 8  20259568.102    20259570.535
  20259570.941          48.100          50.000
 113296342.371 7  88282886.761 8  21559569.977    21559573.902
  21559574.098          46.100          48.300
 106376778.826 7  82891032.19746  20242818.242
  20242821.043          44.900          36.000
 120372633.594 6  93796895.398 7  22906142.867    22906147.086
  22906147.359          41.800          44.600
 110732911.183 8  86285413.242 8  21071770.391    21071774.453
  21071775.207          49.300          48.600
 132227971.804 6 103034826.594 6  25162145.781    25162153.941
  25162154.379          40.400          40.900
 21  5 10  1 54  0.0000000  0  9G02G05G13G15G18G20G23G29G30
 130125243.121 6 101396335.83143  24762003.797
  24762005.738          39.600          19.000
 114012190.025 7  88840706.655 7  21695787.172    21695790.406
  21695790.410          47.500          45.700
 109408878.365 7  85253718.27546  20819806.875
  20819810.180          47.600          38.800
 106422984.577 7  82927079.200 8  20251619.102    20251622.059
  20251622.246          47.900          50.000
 113225010.375 7  88227303.408 8  21545995.773    21545999.953
  21546000.078          46.200          48.600
 106376961.906 7  82891174.88445  20242853.508
  20242855.629          45.200          34.900
 120299091.965 6  93739590.236 7  22892148.672    22892153.141
  22892153.199          41.700          45.200
 110785486.914 8  86326381.310 8  21081775.148    21081779.160
  21081778.816          48.600          48.300
 132232016.435 6 103037978.236 6  25162914.672    25162922.172
  25162923.031          40.200          39.600
 21  5 10  1 54 30.0000000  0  9G02G05G13G15G18G20G23G29G30
 130209569.728 6 101462044.88143  24778051.430
  24778053.359          38.400          20.600
 114080468.237 7  88893910.451 7  21708780.133    21708783.410
  21708783.340          47.300          44.900
 109425031.767 8  85266305.37546  20822880.516
  20822883.691          48.400          38.900
 106381799.355 7  82894986.851 8  20243781.266    20243785.145
  20243785.336          46.400          49.400
 113153878.247 8  88171875.826 8  21532460.555    21532464.707
  21532464.672          48.200          49.200
 106377422.683 7  82891533.96345  20242940.695
  20242943.387          44.300          33.400
 120225726.665 7  93682422.507 7  22878187.117    22878191.449
  22878192.203          43.900          45.400
 110838612.927 7  86367778.206 8  21091884.828    21091888.969
  21091888.891          47.000          48.700
 132236546.924 6 103041508.480 5  25163776.516    25163784.711
  25163783.887          39.900          35.900
 21  5 10  1 55  0.0000000  0  9G02G05G13G15G18G20G23G29G30
 130294067.753 7 101527887.47443  24794131.016
  24794133.367          42.300          22.800
 114148907.650 8  88947239.879 7  21721803.836    21721807.328
  21721807.734          49.000          46.100
 109441806.773 7  85279376.81346  20826072.695
  20826075.926          46.100          37.800
 106341202.139 7  82863352.704 8  20236055.930    20236059.953
  20236059.555          47.300          49.800
 113082947.839 8  88116605.368 8  21518962.617    21518967.020
  21518967.027          48.700          49.500
 106378160.969 7  82892109.27845  20243080.875
  20243083.660          42.800          32.100
 120152538.010 7  93625392.378 7  22864259.852    22864264.688
  22864265.023          44.900          45.200
 110892287.581 7  86409602.576 8  21102099.000    21102103.027
  21102102.863          47.500          48.600
 132241563.910 6 103045417.902 6  25164732.008    25164739.352
  25164737.402          38.800          36.300
 21  5 10  1 55 30.0000000  0  9G02G05G13G15G18G20G23G29G30
 130378736.170 6 101593862.82444  24810242.156
  24810245.797          41.700          25.400
 114217506.559 8  89000693.615 7  21734857.742    21734861.352
  21734861.395          48.600          46.200
 109459201.613 7  85292931.25246  20829383.070
  20829385.992          47.600          38.800
 106301193.262 7  82832176.970 8  20228443.031    20228446.273
  20228446.164          47.300          50.000
 113012220.428 7  88061493.121 8  21505503.211    21505507.652
  21505507.578          47.300          48.600
 106379175.818 6  82892900.09145  20243273.320
  20243277.313          41.700          30.200
 120079525.668 7  93568499.682 7  22850366.313    22850370.828
  22850371.008          45.500          46.800
 110946508.591 7  86451852.689 8  21112416.188    21112420.875
  21112421.504          46.400          48.500
 132247067.215 6 103049706.191 6  25165779.508    25165785.465
  25165784.918          40.800          38.400
 21  5 10  1 56  0.0000000  0  9G02G05G13G15G18G20G23G29G30
 130463574.284 7 101659970.43544  24826386.469
  24826389.352          42.300          25.800
 114286264.119 7  89054270.906 7  21747941.930    21747945.496
  21747945.766          47.700          45.700
 109477216.346 7  85306968.72846  20832810.563
  20832813.934          47.400          38.100
 106261774.089 7  82801460.738 8  20220942.000    20220945.359
  20220944.883          46.900          50.200
 112941698.320 7  88006540.839 8  21492083.227    21492087.785
  21492087.734          47.200          49.100
 106380467.552 6  82893906.63544  20243518.766
  20243523.250          40.600          29.900
 120006690.388 7  93511744.923 7  22836505.797    22836510.813
  22836510.820          43.600          45.500
 111001274.556 7  86494527.449 7  21122838.078    21122842.324
  21122842.152          47.800          47.300
 132253057.680 6 103054374.134 6  25166918.328    25166926.836
  25166926.957          40.600          39.700
 21  5 10  1 56 30.0000000  0  9G02G05G13G15G18G20G23G29G30
 130548581.239 6 101726209.54544  24842562.242
  24842565.961          41.100          25.800
 114355179.180 7  89107970.934 7  21761056.180    21761060.203
  21761060.336          46.700          47.100
 109495849.949 7  85321488.43846  20836356.680
  20836359.313          47.000          38.200
 106222945.498 7  82771204.710 8  20213552.938    20213556.227
  20213556.707          47.100          50.300
 112871383.086 7  87951749.754 8  21478702.703    21478706.750
  21478706.781          47.500          48.300
 106382035.305 6  82895128.26145  20243817.438
  20243821.375          40.500          30.700
 119934032.250 7  93455128.195 7  22822678.773    22822683.875
  22822684.563          44.800          45.900
 111056583.075 7  86537624.987 8  21133363.109    21133367.547
  21133368.016          47.700          49.000
 132259535.495 6 103059421.881 6  25168151.938    25168159.789
  25168158.797          40.200          37.700
 21  5 10  1 57  0.0000000  0  9G02G05G13G15G18G20G23G29G30
 130633756.508 6 101792579.84043  24858770.648
  24858772.977          39.100          22.600
 114424250.628 8  89161792.849 7  21774199.898    21774203.797
  21774203.137          48.000          46.300
 109515101.411 8  85336489.60646  20840020.086
  20840022.945          48.200          38.500
 106184708.696 7  82741409.837 8  20206276.422    20206280.148
  20206280.383          47.200          51.100
 112801276.744 7  87897121.460 8  21465361.922    21465365.750
  21465366.004          47.600          49.400
 106383879.651 6  82896565.42645  20244168.617
  20244171.789          41.100          31.200
 119861551.611 6  93398649.809 7  22808886.859    22808891.652
  22808891.855          41.700          46.300
 111112433.099 7  86581144.439 7  21143991.445    21143995.832
  21143995.563          47.500          47.800
 132266501.243 6 103064849.753 6  25169477.281    25169484.406
  25169482.898          39.500          37.600
 21  5 10  1 57 30.0000000  0  9G02G05G13G15G18G20G23G29G30
 130719099.158 6 101859080.54843  24875010.750
  24875011.625          38.600          20.600
 114493477.401 8  89215735.766 7  21787373.422    21787376.969
  21787376.840          48.700          45.800
 109534969.627 8  85351971.32646  20843800.859
  20843804.156          48.800          38.600
 106147064.010 7  82712076.347 8  20199112.836    20199116.438
  20199116.719          47.900          51.200
 112731380.892 8  87842657.197 8  21452060.992    21452065.473
  21452065.313          48.300          49.300
 106385999.276 6  82898217.10645  20244573.406
  20244575.328          41.300          31.800
 119789248.453 7  93342309.680 7  22795128.031    22795132.348
  22795132.965          42.100          46.400
 111168821.893 8  86625083.788 7  21154721.570    21154725.359
  21154725.633          48.200          47.900
 132273954.922 6 103070657.828 6  25170895.664    25170903.191
  25170904.059          40.200          39.200
 21  5 10  1 58  0.0000000  0  9G02G05G13G15G18G20G23G29G30
 130804608.657 6 101925711.33543  24891282.438
  24891283.512          36.900          21.100
 114562858.303 8  89269798.786 7  21800576.391    21800579.621
  21800579.527          48.500          45.300
 109555453.764 8  85367932.99646  20847698.531
  20847701.387          48.200          38.800
 106110012.724 7  82683205.238 8  20192062.039    20192065.543
  20192065.527          47.200          50.300
 112661697.557 7  87788358.519 8  21438801.313    21438805.277
  21438805.820          47.800          49.000
 106388394.505 6  82900083.51845  20245029.047
  20245031.316          41.600          33.000
 119717123.186 7  93286108.205 7  22781403.461    22781407.754
  22781407.563          42.400          44.900
 111225747.704 7  86669441.528 8  21165553.844    21165558.246
  21165558.625          47.900          48.600
 132281897.059 6 103076846.581 6  25172406.391    25172413.727
  25172414.055          39.800          37.900
 21  5 10  1 58 30.0000000  0 10G02G05G13G15G18G20G23G24G29G30
 130890283.952 6 101992471.22243  24907586.367
  24907587.520          38.400          20.100
 114632392.325 8  89323981.148 7  21813808.336    21813811.566
  21813811.637          49.800          44.900
 109576552.819 7  85384373.83746  20851713.680
  20851716.633          47.300          38.400
 106073555.701 7  82654797.192 8  20185124.164    20185128.707
  20185128.496          45.800          49.100
 112592228.421 7  87734226.749 8  21425581.789    21425585.793
  21425586.004          47.100          49.600
 106391064.687 7  82902164.21145  20245536.891
  20245539.801          43.000          32.500
 119645175.969 6  93230045.459 7  22767712.414    22767716.770
  22767716.969          41.000          45.800
 131854439.016 5 102743737.203 6  25091062.688    25091071.879
  25091071.184          34.500          39.200
 111283208.653 8  86714216.295 7  21176488.953    21176492.848
  21176492.621          48.100          47.700
 132290327.798 6 103083416.041 6  25174010.461    25174018.051
  25174019.027          38.400          40.400
 21  5 10  1 59  0.0000000  0 10G02G05G13G15G18G20G23G24G29G30
 130976124.581 6 102059360.08143  24923922.156
  24923922.422          37.800          20.400
 114702078.552 8  89378282.110 7  21827069.648    21827071.945
  21827072.434          51.000          46.000
 109598265.779 7  85401293.03946  20855845.719
  20855848.520          47.600          38.300
 106037693.751 7  82626852.832 8  20178300.156    20178303.867
  20178303.902          45.800          50.000
 112522975.389 8  87680263.395 8  21412403.531    21412406.949
  21412407.449          48.900          49.800
 106394009.648 7  82904459.01645  20246097.508
  20246099.535          42.800          32.100
 119573407.100 7  93174121.699 7  22754054.414    22754059.590
  22754059.477          45.800          45.400
 131756192.625 5 102667181.630 6  25072367.367    25072375.598
  25072375.195          34.300          39.900
 111341202.676 7  86759406.414 7  21187524.453    21187528.801
  21187528.957          47.800          47.900
 132299247.597 6 103090366.564 6  25175708.211    25175715.891
  25175714.777          38.600          37.600
 21  5 10  1 59 30.0000000  0 10G02G05G13G15G18G20G23G24G29G30
 131062129.201 6 102126376.68943  24940286.984
  24940289.586          39.400          19.600
 114771915.460 7  89432700.516 7  21840358.336    21840361.738
  21840362.309          47.200          45.600
 109620591.175 8  85418689.45046  20860094.320
  20860097.172          48.000          38.800
 106002427.712 7  82599372.813 8  20171588.898    20171592.930
  20171593.332          47.800          50.900
 112453940.315 7  87626469.868 7  21399266.141    21399269.492
  21399269.406          47.200          47.800
 106397229.089 7  82906967.70645  20246710.195
  20246712.223          42.500          31.700
 119501816.723 7  93118336.991 7  22740431.461    22740436.543
  22740436.383          46.200          45.100
 131657823.950 6 102590530.630 6  25053649.813    25053655.285
  25053655.852          36.600          38.800
 111399727.915 7  86805010.492 8  21198661.289    21198665.090
  21198665.457          47.200          48.300
 132308656.405 6 103097698.206 6  25177497.945    25177505.973
  25177504.820          38.300          36.100
 21  5 10  2  0  0.0000000  4  4
+39.764739464 (latitude)                                    COMMENT
-084.18064853 (longitude)                                   COMMENT
+196.575      (elevation)                                   COMMENT
+.000000      (antenna height)                              COMMENT
 21  5 10  2  0  0.0000000  0 10G02G05G13G15G18G20G23G24G29G30
 131148297.505 6 102193520.82743  24956685.234
  24956687.301          38.800          21.100
 114841902.102 8  89487235.589 7  21853675.625    21853679.973
  21853680.488          48.200          46.400
 109643528.613 7  85436562.77046  20864459.453
  20864461.563          47.900          38.700
 105967758.294 7  82572357.718 8  20164992.328    20164995.875
  20164995.703          46.500          50.900
 112385124.879 7  87572847.505 8  21386170.820    21386174.676
  21386174.445          47.900          48.200
 106400722.727 7  82909690.05645  20247375.148
  20247376.953          42.800          32.700
 119430404.973 7  93062691.515 7  22726842.516    22726846.445
  22726846.613          44.600          45.600
 131559335.495 6 102513786.377 6  25034908.133    25034915.398
  25034914.809          36.900          38.000
 111458781.936 7  86851026.565 7  21209899.242    21209903.328
  21209903.434          47.600          47.300
 132318554.606 6 103105411.154 6  25179381.445    25179389.176
  25179389.637          38.500          38.400
 21  5 10  2  0 30.0000000  0  9G02G05G13G15G18G20G23G29G30
 131234628.306 6 102260791.50243  24973112.711
  24973115.324          37.000          20.100
 114912037.298 8  89541886.335 7  21867022.648    21867026.391
  21867026.363          48.700          45.800
 109667076.149 8  85454911.50446  20868939.734
  20868942.309          48.100          38.300
 105933685.718 7  82545807.685 8  20158507.680    20158511.738
  20158512.039          47.100          51.100
 112316530.630 8  87519397.487 8  21373117.898    21373121.742
  21373121.680          48.300          49.200
 106404489.786 7  82912625.43045  20248091.500
  20248093.840          44.000          33.000
 119359171.649 7  93007185.076 7  22713286.492    22713291.832
  22713292.258          46.000          46.300
 111518362.752 7  86897453.170 7  21221237.586    21221241.844
  21221240.789          46.900          46.800
 132328941.951 6 103113505.177 6  25181359.523    25181366.270
  25181366.020          37.800          37.300
 21  5 10  2  1  0.0000000  0 10G02G05G13G15G18G20G23G24G29G30
 131321121.073 6 102328188.37843  24989571.469
  24989575.254          37.700          21.500
 114982320.221 7  89596652.240 7  21880396.906    21880400.945
  21880400.945          47.500          45.700
 109691233.297 7  85473735.28846  20873536.508
  20873539.336          46.800          38.100
 105900211.223 7  82519723.691 8  20152138.164    20152141.715
  20152141.684          47.900          51.500
 112248159.942 8  87466121.683 8  21360107.305    21360111.059
  21360111.547          48.200          49.200
 106408530.349 7  82915773.94045  20248859.992
  20248862.527          45.000          34.300
 119288117.579 7  92951818.320 7  22699766.273    22699771.281
  22699771.352          45.100          45.900
 131362009.057 5 102360025.645 6  24997355.398    24997364.824
  24997365.008          33.800          36.100
 111578468.651 7  86944288.933 7  21232674.758    21232679.027
  21232679.242          46.800          47.700
 132339819.049 6 103121980.961 6  25183429.352    25183435.984
  25183435.453          39.900          37.900
 21  5 10  2  1 30.0000000  0 10G02G05G13G15G18G20G23G24G29G30
 131407774.791 6 102395710.78143  25006061.500
  25006064.957          38.700          22.200
 115052749.535 7  89651532.222 7  21893799.063    21893803.195
  21893803.059          47.600          46.200
 109715998.747 7  85493033.02946  20878249.297
  20878252.523          47.600          37.900
 105867335.488 8  82494106.240 8  20145882.141    20145885.906
  20145885.801          48.400          50.500
 112180014.463 7  87413021.358 8  21347139.859    21347143.879
  21347144.129          47.300          49.500
 106412844.118 7  82919135.30145  20249680.523
  20249683.055          44.700          35.500
 119217242.691 7  92896591.177 7  22686278.828    22686283.578
  22686283.605          43.900          45.400
 131263177.136 6 102283013.821 6  24978550.234    24978557.871
  24978557.477          36.500          37.300
 111639097.440 7  86991532.118 7  21244211.977    21244216.219
  21244216.168          45.800          47.700
 132351185.991 6 103130838.361 5  25185592.297    25185598.707
  25185597.000          39.200          35.100
 21  5 10  2  2  0.0000000  0 10G02G05G13G15G18G20G23G24G29G30
 131494589.100 6 102463358.28443  25022581.789
  25022584.617          39.500          20.400
 115123324.516 8  89706525.724 7  21907229.336    21907233.711
  21907233.816          48.900          46.600
 109741371.661 7  85512804.13746  20883077.938
  20883080.941          47.100          38.400
 105835059.454 7  82468956.130 8  20139740.313    20139743.734
  20139743.855          47.300          50.800
 112112096.403 8  87360098.256 7  21334215.188    21334218.695
  21334218.617          48.100          47.800
 106417431.663 7  82922710.00946  20250553.617
  20250556.594          45.400          37.900
 119146547.541 7  92841504.112 7  22672825.539    22672830.480
  22672830.648          46.000          45.500
 131164236.257 5 102205917.044 6  24959722.172    24959730.672
  24959729.340          34.300          39.400
 111700247.181 7  87039181.259 8  21255848.883    21255852.633
  21255852.984          46.500          48.100
 132363043.128 6 103140077.805 6  25187848.414    25187856.039
  25187856.137          37.600          37.500
 21  5 10  2  2 30.0000000  0 10G02G05G13G15G18G20G23G24G29G30
 131581562.168 6 102531129.51043  25039132.195
  25039135.977          39.200          20.400
 115194043.718 8  89761631.566 7  21920687.063    21920690.207
  21920690.328          48.300          45.900
 109767350.079 7  85533047.05146  20888021.852
  20888024.293          45.900          38.500
 105803383.476 7  82444273.556 8  20133713.172    20133715.563
  20133715.508          47.500          50.700
 112044407.013 8  87307353.334 8  21321334.445    21321337.820
  21321337.930          48.900          49.200
 106422291.201 7  82926496.65746  20251478.711
  20251481.434          45.900          39.400
 119076031.765 7  92786556.846 7  22659406.500    22659411.895
  22659411.629          45.000          44.600
 131065188.720 5 102128737.164 5  24940873.648    24940881.871
  24940881.180          34.500          35.200
 111761915.362 7  87087234.367 8  21267583.938    21267588.281
  21267588.332          46.700          48.300
 132375390.064 5 103149698.804 6  25190197.086    25190204.699
  25190205.355          35.400          37.200
 21  5 10  2  3  0.0000000  0 10G02G05G13G15G18G20G23G24G29G30
 131668693.804 6 102599024.34643  25055712.414
  25055716.316          40.400          21.100
 115264906.270 8  89816849.154 7  21934171.133    21934175.164
  21934174.813          48.400          44.800
 109793933.222 7  85553761.19246  20893080.297
  20893082.965          46.000          37.600
 105772307.976 7  82420058.907 8  20127799.008    20127801.969
  20127801.664          47.900          50.700
 111976948.479 7  87254788.292 8  21308497.477    21308501.594
  21308502.031          46.600          50.000
 106427423.050 7  82930495.49946  20252455.031
  20252458.070          46.700          41.400
 119005695.794 7  92731749.644 7  22646022.805    22646026.977
  22646026.602          46.700          44.300
 130966037.542 6 102051476.487 6  24922005.078    24922013.359
  24922013.449          36.600          36.700
 111824099.730 7  87135689.708 7  21279416.984    21279421.320
  21279420.906          44.700          47.500
 132388227.154 6 103159701.791 5  25192640.742    25192647.637
  25192647.785          36.700          35.100
 21  5 10  2  3 30.0000000  0 10G02G05G13G15G18G20G23G24G29G30
 131755983.031 6 102667041.92143  25072323.695
  25072326.801          39.800          21.800
 115335910.941 8  89872177.475 7  21947682.992    21947686.586
  21947686.336          48.000          45.200
 109821119.487 7  85574945.31046  20898253.078
  20898256.426          47.000          38.200
 105741833.614 8  82396312.652 8  20122000.695    20122003.270
  20122003.289          48.800          50.100
 111909722.529 8  87202404.488 8  21295704.875    21295708.637
  21295709.184          48.200          50.700
 106432826.347 8  82934705.86747  20253483.609
  20253486.359          48.200          42.600
 118935539.797 7  92677082.686 7  22632672.875    22632676.797
  22632677.313          45.500          46.000
 130866785.168 6 101974136.938 6  24903119.805    24903126.762
  24903127.496          38.100          37.900
 111886798.419 7  87184545.821 8  21291348.141    21291352.277
  21291352.492          46.300          48.500
 132401554.302 6 103170086.632 6  25195175.320    25195183.879
  25195185.395          37.800          36.500
 21  5 10  2  4  0.0000000  0 10G02G05G13G15G18G20G23G24G29G30
 131843428.968 6 102735181.62143  25088963.680
  25088967.043          39.000          21.700
 115407056.767 7  89927615.770 7  21961221.414    21961225.031
  21961224.766          46.800          44.700
 109848907.698 7  85596598.46146  20903540.633
  20903544.168          46.800          37.600
 105711961.247 7  82373035.510 8  20116315.828    20116318.750
  20116319.004          47.800          51.400
 111842731.033 8  87150203.370 8  21282956.883    21282960.141
  21282960.195          48.900          48.900
 106438501.409 8  82939127.99347  20254563.203
  20254566.141          48.300          42.900
 118865563.836 7  92622556.042 7  22619356.523    22619360.547
  22619360.602          45.900          45.000
 130767434.456 6 101896720.653 6  24884214.594    24884220.602
  24884221.492          39.400          36.400
 111950009.221 7  87233800.959 8  21303376.727    21303380.914
  21303381.852          47.000          48.600
 132415371.519 6 103180853.309 5  25197804.469    25197811.859
  25197812.988          36.100          35.900
 21  5 10  2  4 30.0000000  0 10G02G05G13G15G18G20G23G24G29G30
 131931030.815 6 102803442.79643  25105633.656
  25105637.211          38.400          20.400
 115478342.561 8  89983163.169 7  21974787.172    21974790.301
  21974790.586          48.400          45.000
 109877296.861 8  85618719.88046  20908943.617
  20908946.660          48.200          38.100
 105682691.330 7  82350227.817 8  20110745.609    20110749.207
  20110748.938          47.900          51.100
 111775975.943 7  87098186.463 8  21270253.109    21270256.512
  21270256.875          47.900          48.400
 106444447.625 8  82943761.41847  20255694.828
  20255697.453          48.200          43.300
 118795768.237 7  92568169.919 7  22606074.289    22606079.172
  22606079.648          45.500          46.500
 130667988.059 5 101819229.949 6  24865290.188    24865297.238
  24865297.590          35.500          37.900
 112013729.691 7  87283453.230 7  21315502.922    21315506.566
  21315506.652          45.600          47.800
 132429679.016 5 103192002.021 5  25200528.695    25200533.711
  25200533.996          33.600          31.000
 21  5 10  2  5  0.0000000  0 10G02G05G13G15G18G20G23G24G29G30
 132018787.575 6 102871824.64843  25122333.727
  25122336.117          36.800          21.700
 115549767.541 8  90038818.969 7  21988379.313    21988382.828
  21988382.871          48.500          46.500
 109906285.269 8  85641308.26446  20914459.805
  20914462.195          48.100          38.100
 105654023.923 7  82327889.611 8  20105290.320    20105293.578
  20105293.234          46.500          51.100
 111709459.045 8  87046355.177 8  21257595.336    21257599.313
  21257599.613          48.400          49.500
 106450664.561 8  82948605.79047  20256877.992
  20256881.000          48.000          43.200
 118726152.960 7  92513924.288 7  22592826.828    22592831.457
  22592832.137          44.600          46.700
 130568448.795 6 101741666.773 6  24846348.359    24846355.465
  24846355.883          36.600          38.800
 112077957.721 7  87333501.042 7  21327724.492    21327728.668
  21327728.957          47.000          47.100
 132444476.533 5 103203532.729 5  25203344.281    25203351.363
  25203349.727          34.100          35.000
 21  5 10  2  5 30.0000000  0 10G02G05G13G15G18G20G23G24G29G30
 132106698.207 6 102940326.46443  25139062.602
  25139064.566          38.100          22.200
 115621330.518 7  90094582.343 7  22001996.531    22002000.137
  22002000.207          47.800          46.000
 109935871.475 8  85664362.47646  20920089.688
  20920092.508          48.300          37.900
 105625959.731 8  82306021.424 8  20099949.789    20099953.020
  20099953.188          48.300          51.000
 111643182.123 8  86994710.840 8  21244983.391    21244987.301
  21244987.352          49.000          48.900
 106457152.089 8  82953661.02647  20258112.188
  20258115.113          48.000          42.800
 118656718.237 7  92459819.356 7  22579613.898    22579618.371
  22579618.570          45.200          46.200
 130468819.163 5 101664033.324 6  24827389.563    24827397.000
  24827397.328          33.400          39.600
 112142690.735 7  87383942.345 7  21340042.820    21340046.598
  21340047.090          47.700          47.400
 132459764.030 6 103215445.079 5  25206252.984    25206260.223
  25206259.871          37.200          34.100
 21  5 10  2  6  0.0000000  0 10G02G05G13G15G18G20G23G24G29G30
 132194762.289 6 103008947.83943  25155820.242
  25155822.602          36.500          22.000
 115693030.759 7  90150452.649 7  22015640.656    22015644.102
  22015643.988          47.600          45.700
 109966054.626 8  85687881.83346  20925833.773
  20925836.457          48.000          38.300
 105598499.603 8  82284623.956 8  20094724.703    20094727.895
  20094728.219          48.200          51.000
 111577147.471 8  86943255.322 8  21232417.563    21232421.227
  21232421.305          48.800          49.100
 106463910.282 7  82958927.16546  20259398.094
  20259400.883          47.000          41.700
 118587464.538 7  92405855.513 7  22566434.742    22566440.191
  22566440.242          43.900          46.000
 130369102.388 5 101586331.909 6  24808414.680    24808421.961
  24808421.023          34.300          38.800
 112207927.010 7  87434775.785 7  21352456.742    21352460.816
  21352461.051          46.400          47.400
 132475541.815 6 103227739.542 5  25209254.188    25209263.078
  25209263.656          36.300          33.700
 21  5 10  2  6 30.0000000  0 10G02G05G13G15G18G20G23G24G29G30
 132282978.222 6 103077687.59743  25172607.758
  25172610.398          36.400          22.800
 115764867.082 7  90206428.959 7  22029310.820    22029314.539
  22029314.730          47.000          46.600
 109996832.767 8  85711864.81246  20931690.344
  20931693.848          48.500          38.400
 105571643.673 7  82263697.276 8  20089614.125    20089616.977
  20089616.809          46.700          50.500
 111511356.598 7  86891989.735 8  21219897.633    21219901.215
  21219901.234          47.600          49.000
 106470938.365 7  82964403.59746  20260735.852
  20260738.363          45.800          40.900
 118518391.735 7  92352032.614 7  22553290.945    22553296.020
  22553295.723          44.900          46.200
 130269300.969 5 101508564.623 6  24789419.938    24789429.980
  24789430.223          31.500          38.900
 112273664.049 7  87485999.450 7  21364965.859    21364970.367
  21364970.648          47.200          47.000
 132491809.493 5 103240415.661 5  25212349.219    25212358.125
  25212358.086          30.300          35.500
 21  5 10  2  7  0.0000000  0 10G02G05G13G15G18G20G23G24G29G30
 132371345.867 6 103146545.53243  25189423.297
  25189426.094          38.500          22.200
 115836838.609 7  90262510.663 7  22043006.250    22043010.129
  22043009.730          45.900          45.400
 110028204.968 7  85736310.69246  20937660.367
  20937663.785          47.600          39.100
 105545392.613 8  82243241.925 8  20084618.656    20084621.449
  20084621.406          48.200          50.900
 111445811.850 7  86840915.927 8  21207425.125    21207428.273
  21207428.250          46.500          49.300
 106478236.485 7  82970090.46546  20262124.852
  20262127.699          45.800          40.400
 118449500.382 7  92298351.137 7  22540181.781    22540186.633
  22540186.293          44.000          47.000
 130169418.065 5 101430733.865 6  24770415.781    24770422.051
  24770422.438          35.000          40.100
 112339899.877 7  87537611.781 7  21377570.438    21377574.453
  21377574.695          47.200          47.900
 132508567.355 5 103253473.676 6  25215541.242    25215547.109
  25215546.848          35.400          36.100
 21  5 10  2  7 30.0000000  0 10G02G05G13G15G18G20G23G24G29G30
 132459864.247 6 103215520.94943  25206267.625
  25206270.352          38.300          21.800
 115908944.226 7  90318696.818 7  22056727.859    22056731.633
  22056731.852          46.600          45.800
 110060169.685 7  85761218.29246  20943742.977
  20943746.184          47.800          39.200
 105519746.915 7  82223258.285 8  20079738.297    20079740.973
  20079740.875          47.700          50.000
 111380514.943 7  86790035.237 8  21194999.258    21195003.332
  21195003.590          47.700          50.000
 106485804.264 7  82975987.47246  20263564.555
  20263567.012          45.800          40.300
 118380790.486 7  92244811.034 7  22527106.695    22527111.398
  22527110.816          45.300          45.500
 130069456.172 6 101352841.558 6  24751392.492    24751400.250
  24751400.766          37.600          41.600
 112406631.827 7  87589610.662 7  21390269.422    21390273.879
  21390273.598          46.600          47.200
 132525815.107 6 103266913.531 5  25218822.313    25218829.301
  25218829.266          36.600          35.100
 21  5 10  2  8  0.0000000  0 10G02G05G13G15G18G20G23G24G29G30
 132548532.328 6 103284613.00243  25223141.031
  25223142.320          40.200          22.000
 115981182.997 7  90374986.803 7  22070474.602    22070478.520
  22070477.871          47.300          45.600
 110092725.530 7  85786586.49446  20949938.211
  20949941.215          46.700          38.700
 105494706.914 7  82203746.620 8  20074973.320    20074976.238
  20074976.027          47.900          50.400
 111315467.838 7  86739349.240 8  21182620.883    21182624.902
  21182624.828          47.500          49.300
 106493641.495 7  82982094.42046  20265055.570
  20265058.445          46.600          40.800
 118312262.294 7  92191412.549 7  22514065.430    22514071.008
  22514070.820          44.700          46.900
 129969418.283 6 101274889.995 7  24732355.656    24732364.164
  24732364.082          39.000          42.200
 112473857.634 7  87641994.387 7  21403061.953    21403066.109
  21403066.262          47.000          47.000
 132543552.722 5 103280735.105 5  25222197.250    25222205.574
  25222204.855          35.300          33.400
 21  5 10  2  8 30.0000000  0 10G02G05G13G15G18G20G23G24G29G30
 132637348.561 6 103353820.48643  25240041.906
  25240043.527          38.800          21.300
 116053553.831 7  90431379.624 7  22084246.195    22084249.047
  22084249.016          47.000          45.100
 110125870.694 8  85812413.90946  20956245.281
  20956248.258          48.000          38.400
 105470272.389 8  82184706.756 8  20070323.898    20070326.586
  20070326.590          48.300          51.000
 111250672.015 8  86688859.034 8  21170290.875    21170294.895
  21170294.711          48.200          48.900
 106501747.000 7  82988410.40246  20266598.008
  20266600.512          46.100          39.400
 118243915.536 7  92138155.390 7  22501060.586    22501064.887
  22501064.883          46.700          46.600
 129869306.587 6 101196880.910 6  24713306.211    24713313.344
  24713313.500          39.600          41.100
 112541574.685 7  87694760.920 7  21415948.656    21415952.297
  21415952.164          46.200          47.200
 132561779.511 5 103294937.793 6  25225665.195    25225674.535
  25225673.945          34.400          36.800
 21  5 10  2  9  0.0000000  0 10G02G05G13G15G18G20G23G24G29G30
 132726312.475 6 103423143.05843  25256970.828
  25256974.008          39.000          21.500
 116126055.995 8  90487874.835 7  22098043.063    22098046.211
  22098046.430          48.000          45.300
 110159603.423 7  85838699.18346  20962664.055
  20962667.270          47.500          37.100
 105446444.236 7  82166139.380 8  20065789.313    20065792.199
  20065792.109          47.700          51.000
 111186129.768 8  86638566.410 8  21158008.766    21158012.484
  21158012.359          48.300          49.000
 106510121.298 7  82994935.82946  20268191.922
  20268194.445          46.500          40.000
 118175750.714 7  92085039.991 7  22488088.734    22488093.590
  22488093.695          46.800          47.700
 129769124.333 6 101118816.752 7  24694241.313    24694249.289
  24694249.738          38.800          42.400
 112609781.129 7  87747908.766 7  21428927.445    21428931.336
  21428931.645          47.000          47.300
 132580495.925 5 103309521.976 5  25229227.195    25229233.074
  25229234.383          31.900          30.900
 21  5 10  2  9 30.0000000  0 10G02G05G13G15G18G20G23G24G29G30
 132815423.301 6 103492580.09743  25273927.945
  25273931.539          38.700          22.300
 116198688.533 7  90544471.595 7  22111864.859    22111868.055
  22111867.848          47.800          45.800
 110193923.067 8  85865441.76346  20969195.398
  20969198.359          48.300          38.400
 105423222.676 7  82148044.679 8  20061370.320    20061373.160
  20061373.527          47.400          51.000
 111121843.068 7  86588472.924 8  21145775.375    21145779.254
  21145779.133          47.800          48.800
 106518763.842 7  83001670.28746  20269836.625
  20269839.402          45.800          40.100
 118107768.046 7  92032066.573 8  22475152.352    22475156.477
  22475157.020          44.700          48.000
 129668874.331 6 101040699.835 6  24675164.336    24675172.035
  24675172.320          38.300          40.800
 112678474.235 7  87801435.849 7  21441999.094    21442003.820
  21442003.938          46.700          47.500
 132599701.551 6 103324487.452 5  25232883.570    25232888.328
  25232887.070          36.800          32.700
 21  5 10  2 10  0.0000000  0  9G05G13G15G18G20G23G24G29G30
 116271450.262 7  90601169.056 7  22125710.938    22125714.289
  22125714.582          47.200          45.800
 110228827.788 7  85892640.26346  20975837.719
  20975840.816          47.900          38.900
 105400608.108 8  82130422.999 8  20057066.711    20057069.684
  20057069.750          48.300          50.700
 111057813.993 7  86538580.138 8  21133591.430    21133595.168
  21133595.746          47.500          50.100
 106527674.556 7  83008613.71646  20271532.367
  20271535.133          45.200          40.800
 118039967.865 7  91979235.354 7  22462249.523    22462254.168
  22462254.430          45.400          46.600
 129568559.625 6 100962532.484 6  24656074.648    24656082.688
  24656082.336          38.600          38.400
 112747651.857 7  87855340.472 7  21455162.938    21455167.363
  21455167.469          46.600          46.800
 132619396.485 5 103339834.202 5  25236629.531    25236636.969
  25236636.668          31.200          34.200
 21  5 10  2 10 30.0000000  0 10G05G10G13G15G18G20G23G24G29G30
 116344340.445 7  90657966.600 7  22139580.758    22139584.285
  22139584.379          43.900          45.600
 133440623.465 6 103979725.581 6  25392906.969    25392914.328
  25392915.531          37.300          37.200
 110264315.652 8  85920293.16846  20982590.570
  20982593.625          48.400          38.400
 105378600.322 7  82113274.059 8  20052878.898    20052882.098
  20052881.832          47.000          50.800
 110994044.052 7  86488889.302 8  21121456.234    21121460.004
  21121460.074          47.700          49.800
 106536852.733 7  83015765.57146  20273278.781
  20273281.297          47.200          41.300
 117972349.947 7  91926546.099 7  22449382.852    22449387.047
  22449387.609          46.000          47.400
 129468182.782 6 100884316.759 6  24636974.797    24636981.156
  24636981.379          37.900          36.400
 112817311.502 7  87909620.703 7  21468419.203    21468422.762
  21468423.316          45.500          47.200
 132639580.037 5 103355561.700 5  25240470.898    25240478.738
  25240478.977          33.800          34.400
 21  5 10  2 11  0.0000000  0 10G05G10G13G15G18G20G23G24G29G30
 116417357.744 7  90714863.139 7  22153476.188    22153479.648
  22153478.949          46.600          45.500
 133358699.677 6 103915889.008 6  25377316.516    25377324.980
  25377325.516          37.300          38.500
 110300385.052 7  85948399.20246  20989454.273
  20989457.203          47.200          37.800
 105357199.607 8  82096598.225 8  20048806.117    20048809.152
  20048809.402          48.400          51.300
 110930535.049 7  86439401.795 8  21109370.273    21109374.172
  21109374.094          47.000          49.000
 106546298.426 7  83023125.87046  20275075.891
  20275078.512          46.400          41.600
 117904914.303 7  91873998.923 7  22436550.070    22436554.387
  22436554.152          46.400          46.000
 129367746.397 6 100806054.640 6  24617862.492    24617869.277
  24617868.402          38.300          37.900
 112887450.368 7  87964274.337 7  21481766.250    21481770.449
  21481770.266          46.600          46.800
 132660251.854 5 103371669.627 5  25244403.836    25244411.758
  25244412.535          33.200          32.400
 21  5 10  2 11 30.0000000  0 10G05G10G13G15G18G20G23G24G29G30
 116490501.357 7  90771858.116 7  22167394.258    22167398.609
  22167398.664          43.800          45.200
 133276836.064 6 103852099.241 6  25361738.961    25361747.160
  25361747.648          38.700          39.500
 110337034.717 7  85976957.40046  20996428.703
  20996431.273          45.600          37.700
 105336406.739 8  82080395.997 8  20044850.039    20044852.680
  20044852.730          48.200          50.700
 110867289.476 7  86390119.561 8  21097334.953    21097338.996
  21097338.746          46.700          48.500
 106556011.446 7  83030694.46146  20276924.648
  20276926.758          47.400          41.200
 117837661.655 7  91821594.335 8  22423752.500    22423756.875
  22423757.863          47.800          48.200
 129267253.882 6 100727748.734 6  24598738.289    24598746.285
  24598745.211          38.100          38.600
 112958066.571 7  88019299.962 7  21495203.867    21495207.996
  21495208.113          47.200          47.200
 132681412.256 5 103388158.280 5  25248430.297    25248438.324
  25248438.523          32.300          32.300
 21  5 10  2 12  0.0000000  0 10G05G10G13G15G18G20G23G24G29G30
 116563770.203 7  90828950.742 7  22181337.305    22181340.656
  22181341.191          47.500          45.700
 133195032.361 6 103788356.274 6  25346171.555    25346179.660
  25346180.129          37.700          41.300
 110374262.555 7  86005966.12146  21003513.008
  21003515.563          46.800          37.600
 105316221.323 7  82064667.121 8  20041008.414    20041011.504
  20041011.652          47.000          51.100
 110804308.916 7  86341043.832 8  21085350.609    21085354.688
  21085354.777          47.400          49.500
 106565991.349 7  83038471.00846  20278824.148
  20278825.609          46.400          41.100
 117770591.802 7  91769332.170 7  22410989.258    22410993.379
  22410993.441          46.400          47.300
 129166707.754 6 100649401.105 6  24579605.305    24579612.762
  24579612.152          36.500          36.800
 113029157.157 8  88074695.186 7  21508731.719    21508736.102
  21508736.063          48.000          47.100
 132703060.356 5 103405026.956 4  25252550.922    25252555.172
  25252557.258          31.500          25.900
 21  5 10  2 12 30.0000000  0 10G05G10G13G15G18G20G23G24G29G30
 116637163.448 7  90886140.266 7  22195303.734    22195307.254
  22195307.207          44.900          45.100
 133113288.343 6 103724659.808 6  25330615.984    25330624.793
  25330625.156          36.200          40.800
 110412066.722 7  86035423.93946  21010706.656
  21010709.316          45.700          37.300
 105296643.326 7  82049411.551 8  20037282.938    20037285.684
  20037285.949          47.700          50.700
 110741595.064 7  86292175.920 8  21073416.383    21073420.055
  21073419.992          46.900          49.600
 106576237.542 7  83046455.08346  20280773.578
  20280775.844          46.400          40.600
 117703704.657 7  91717212.405 7  22398260.781    22398264.813
  22398264.902          47.000          46.400
 129066110.552 6 100571013.577 6  24560462.094    24560469.930
  24560468.863          38.300          36.700
 113100719.615 7  88130458.108 7  21522350.172    21522353.969
  21522354.008          47.500          47.200
 132725195.807 5 103422275.407 5  25256762.891    25256768.988
  25256770.371          34.600          32.900
 21  5 10  2 13  0.0000000  0 10G05G10G13G15G18G20G23G24G29G30
 116710680.138 7  90943426.067 7  22209293.117    22209296.625
  22209296.090          45.400          43.900
 133031604.166 6 103661010.001 6  25315072.406    25315080.168
  25315081.137          39.900          41.400
 110450445.690 7  86065329.63846  21018009.977
  21018012.582          47.300          37.900
 105277672.848 7  82034629.392 8  20033672.391    20033676.348
  20033675.945          46.600          50.600
 110679149.726 7  86243517.248 8  21061533.531    21061537.852
  21061537.914          46.200          50.300
 106586749.423 7  83054646.20646  20282773.820
  20282776.457          45.400          40.500
 117637000.257 7  91665235.033 7  22385567.219    22385571.609
  22385571.613          46.700          47.000
 128965465.143 6 100492588.628 6  24541309.828    24541318.039
  24541317.406          38.400          37.600
 113172751.341 7  88186586.708 7  21536057.102    21536061.660
  21536061.094          46.800          46.700
 132747818.108 5 103439903.134 4  25261068.695    25261074.520
  25261073.816          35.800          24.300
 21  5 10  2 13 30.0000000  0 10G05G10G13G15G18G20G23G24G29G30
 116784319.310 7  91000807.232 7  22223306.336    22223309.883
  22223309.348          44.700          42.900
 132949980.618 6 103597407.387 6  25299540.250    25299547.609
  25299548.109          38.400          38.900
 110489398.615 8  86095682.60046  21025422.141
  21025425.480          48.200          37.900
 105259310.713 7  82020321.268 8  20030178.844    20030181.789
  20030182.020          47.500          51.700
 110616975.608 7  86195069.911 8  21049702.031    21049706.223
  21049706.672          46.400          49.500
 106597527.705 7  83063044.89446  20284824.977
  20284827.898          45.900          41.900
 117570479.510 7  91613400.722 7  22372908.805    22372913.445
  22372914.043          46.400          46.400
 128864775.273 6 100414128.955 6  24522149.523    24522156.801
  24522157.035          40.000          41.500
 113245250.626 7  88243079.685 7  21549853.477    21549857.293
  21549857.645          46.200          46.200
 132770927.736 5 103457910.797 5  25265465.992    25265471.051
  25265469.660          33.100          32.400
 21  5 10  2 14  0.0000000  0  9G05G10G13G15G18G20G23G24G29
 116858080.470 7  91058283.475 7  22237342.672    22237345.703
  22237345.184          46.200          43.800
 132868417.350 6 103533851.745 6  25284018.781    25284026.266
  25284026.781          38.300          37.900
 110528923.028 7  86126480.87646  21032942.781
  21032946.102          46.300          36.000
 105241556.383 7  82006486.722 8  20026800.359    20026802.977
  20026803.164          47.600          51.300
 110555074.182 7  86146835.066 8  21037922.875    21037926.816
  21037926.684          47.300          49.300
 106608571.378 8  83071650.36847  20286926.414
  20286929.320          48.000          42.600
 117504142.044 7  91561709.254 7  22360285.492    22360289.723
  22360289.273          47.000          46.600
 128764043.240 6 100335636.454 6  24502980.500    24502989.371
  24502988.836          39.700          39.100
 113318214.066 7  88299934.299 7  21563737.930    21563742.105
  21563741.957          45.500          47.300
 21  5 10  2 14 30.0000000  0  9G05G10G13G15G18G20G23G24G29
 116931962.567 7  91115853.929 7  22251401.750    22251404.953
  22251404.543          45.200          43.400
 132786915.000 6 103470343.473 6  25268509.492    25268516.238
  25268516.391          37.500          38.100
 110569017.447 7  86157723.28946  21040573.031
  21040575.816          47.300          37.100
 105224410.528 7  81993126.358 8  20023537.469    20023540.254
  20023540.367          46.900          51.500
 110493447.825 7  86098814.570 8  21026195.422    21026199.516
  21026199.875          47.300          50.600
 106619881.059 7  83080463.09546  20289078.805
  20289081.395          47.600          41.900
 117437988.447 7  91510161.043 7  22347696.109    22347701.348
  22347701.090          46.200          46.300
 128663272.451 6 100257113.823 7  24483804.641    24483813.352
  24483812.578          40.800          42.000
 113391639.590 7  88357148.962 7  21577710.453    21577714.688
  21577714.707          46.800          46.700
 21  5 10  2 15  0.0000000  0 10G05G10G13G15G18G20G23G24G29G30
 117005964.130 7  91173517.507 7  22265483.500    22265487.508
  22265486.918          44.800          44.500
 132705472.708 6 103406882.105 6  25253011.023    25253018.996
  25253019.434          38.700          41.000
 110609679.456 8  86189407.97546  21048310.813
  21048313.699          48.300          37.400
 105207872.479 8  81980239.592 8  20020390.273    20020393.258
  20020393.574          48.100          51.300
 110432097.695 8  86051009.318 8  21014520.898    21014524.918
  21014525.191          48.000          50.400
 106631455.358 7  83089482.01646  20291281.078
  20291283.863          45.600          40.900
 117372018.098 7  91458755.598 7  22335142.500    22335147.230
  22335147.707          46.200          47.000
 128562464.954 6 100178562.597 6  24464621.664    24464629.797
  24464629.754          38.100          41.200
 113465524.320 7  88414721.470 7  21591770.328    21591774.313
  21591774.098          47.800          46.700
 132843173.663 5 103514206.386 5  25279213.383    25279221.324
  25279221.832          35.500          34.800
 21  5 10  2 15 30.0000000  0 10G05G10G13G15G18G20G23G24G29G30
 117080084.863 7  91231273.910 7  22279588.727    22279592.465
  22279593.000          45.700          46.400
 132624091.514 5 103343468.259 6  25237524.727    25237532.680
  25237533.527          34.100          41.300
 110650908.114 7  86221534.21546  21056155.602
  21056158.344          46.500          36.300
 105191942.602 8  81967826.715 8  20017359.023    20017362.262
  20017362.324          49.100          50.700
 110371026.571 7  86003421.420 8  21002899.758    21002903.578
  21002903.355          47.900          50.200
 106643294.627 7  83098707.42846  20293533.813
  20293536.801          46.100          40.800
 117306231.934 7  91407493.666 7  22322624.648    22322628.512
  22322629.078          46.900          46.700
 128461624.409 6 100099985.583 6  24445433.484    24445441.000
  24445440.039          39.000          38.700
 113539865.944 7  88472650.021 7  21605916.750    21605920.750
  21605920.941          46.900          46.100
 132868226.638 5 103533728.161 5  25283979.398    25283988.352
  25283991.352          31.300          35.500
 21  5 10  2 16  0.0000000  0 10G05G10G13G15G18G20G23G24G29G30
 117154323.780 7  91289122.456 7  22293714.961    22293718.938
  22293718.430          45.500          43.300
 132542771.217 6 103280101.907 6  25222050.453    25222058.223
  25222058.125          38.300          40.300
 110692701.357 7  86254100.37945  21064109.125
  21064111.988          45.200          35.900
 105176620.887 8  81955887.743 8  20014443.078    20014446.535
  20014446.313          48.500          51.100
 110310236.086 8  85956052.225 8  20991331.969    20991335.625
  20991335.828          48.300          51.000
 106655398.417 7  83108138.98547  20295837.430
  20295839.793          46.700          42.000
 117240629.820 7  91356375.176 7  22310140.930    22310144.516
  22310144.555          46.200          47.000
 128360753.554 6 100021384.975 6  24426236.813    24426244.352
  24426244.477          37.700          38.800
 113614662.295 7  88530932.872 7  21620150.125    21620154.145
  21620154.207          46.700          45.900
 132893764.591 5 103553627.832 4  25288838.461    25288847.934
  25288848.617          30.300          25.000
 21  5 10  2 16 30.0000000  0 10G05G10G13G15G18G20G23G24G29G30
 117228680.120 7  91347062.426 7  22307865.352    22307868.641
  22307868.340          43.600          44.000
 132461511.936 5 103216783.083 6  25206586.156    25206593.785
  25206594.160          35.700          38.400
 110735057.257 7  86287104.96546  21072169.414
  21072172.281          47.600          37.900
 105161906.894 7  81944422.331 8  20011643.008    20011646.199
  20011646.352          47.500          51.000
 110249728.170 7  85908903.225 8  20979817.266    20979820.785
  20979821.254          47.700          50.800
 106667766.783 7  83117776.70247  20298190.688
  20298193.703          46.600          43.900
 117175211.907 7  91305400.173 7  22297691.602    22297695.645
  22297696.043          46.500          46.300
 128259855.250 6  99942762.870 6  24407036.703    24407043.566
  24407043.137          39.000          36.200
 113689910.127 7  88589567.542 7  21634469.406    21634473.281
  21634473.336          45.400          45.500
 132919786.743 4 103573905.000 5  25293792.938    25293800.137
  25293799.809          28.900          31.200
 21  5 10  2 17  0.0000000  0  9G05G10G13G15G18G20G23G24G29
 117303153.115 7  91405093.331 7  22322037.938    22322040.488
  22322039.941          44.300          44.300
 132380314.349 6 103153512.357 6  25191134.648    25191142.965
  25191143.254          37.600          38.000
 110777974.541 8  86320547.01546  21080336.352
  21080339.098          48.400          37.500
 105147801.409 7  81933431.049 8  20008958.867    20008962.246
  20008962.367          46.900          51.000
 110189505.252 7  85861976.331 8  20968357.289    20968361.211
  20968361.609          47.900          51.200
 106680399.750 7  83127620.57447  20300594.523
  20300597.645          47.300          42.900
 117109978.782 7  91254569.181 7  22285278.508    22285282.777
  22285283.016          46.400          46.600
 128158932.926 6  99864122.149 5  24387832.633    24387838.559
  24387837.781          37.300          35.400
 113765607.340 7  88648552.384 7  21648873.883    21648877.773
  21648877.453          46.000          45.600
 21  5 10  2 17 30.0000000  0  9G05G10G13G15G18G20G23G24G29
 117377741.491 7  91463214.126 7  22336230.711    22336234.535
  22336234.867          44.400          44.000
 132299178.137 6 103090289.464 6  25175695.688    25175703.855
  25175703.449          36.300          37.300
 110821450.836 8  86354424.65446  21088609.375
  21088612.215          48.100          37.400
 105134304.134 8  81922913.727 8  20006390.695    20006393.629
  20006393.469          48.500          50.900
 110129568.990 7  85815272.761 8  20956951.695    20956955.434
  20956955.563          47.400          51.200
 106693296.408 7  83137669.92546  20303048.688
  20303051.918          46.300          41.400
 117044930.265 7  91203882.105 7  22272899.820    22272904.469
  22272904.605          46.000          47.500
 128057989.153 6  99785464.718 6  24368622.547    24368630.262
  24368629.691          36.200          38.700
 113841750.967 7  88707885.106 7  21663363.500    21663367.660
  21663368.039          47.600          46.800
 21  5 10  2 18  0.0000000  0 10G05G10G13G15G18G20G23G24G29G30
 117452444.080 7  91521423.970 7  22350446.195    22350449.723
  22350450.254          45.200          44.800
 132218102.817 6 103027114.028 6  25160267.789    25160274.730
  25160275.309          37.600          39.700
 110865483.873 8  86388736.09846  21096989.117
  21096991.609          48.200          37.800
 105121414.009 7  81912869.480 8  20003937.219    20003940.543
  20003940.930          47.900          51.200
 110069920.745 7  85768793.640 8  20945601.000    20945604.535
  20945604.727          47.300          49.000
 106706456.092 7  83147924.22046  20305552.906
  20305556.133          46.100          39.800
 116980065.901 7  91153338.476 7  22260557.000    22260561.438
  22260560.762          46.400          46.400
 127957026.404 6  99706792.533 6  24349411.086    24349418.090
  24349417.590          38.300          38.100
 113918337.844 7  88767563.188 7  21677937.422    21677941.602
  21677941.953          47.300          46.800
 133000664.223 5 103636963.315 3  25309202.766    25309203.809
  25309207.305          31.900          22.600
 21  5 10  2 18 30.0000000  0 10G05G10G13G15G18G20G23G24G29G30
 117527260.409 7  91579722.396 7  22364683.117    22364686.516
  22364686.105          43.200          42.700
 132137088.746 6 102963986.276 6  25144850.867    25144858.789
  25144858.895          36.700          39.900
 110910071.654 8  86423479.81946  21105473.609
  21105476.465          48.300          38.100
 105109130.908 8  81903298.250 8  20001600.164    20001603.211
  20001603.125          48.500          50.700
 110010562.592 8  85722540.582 8  20934305.219    20934309.293
  20934309.313          48.000          50.700
 106719878.652 7  83158383.35746  20308106.789
  20308110.156          46.300          39.700
 116915386.020 7  91102938.591 7  22248248.477    22248252.238
  22248253.277          47.200          47.000
 127856047.591 6  99628107.778 6  24330194.516    24330202.359
  24330201.875          37.400          38.000
 113995365.925 7  88827585.058 7  21692595.664    21692599.652
  21692599.855          46.700          46.400
 133028617.976 5 103658745.413 5  25314520.680    25314528.922
  25314527.477          30.300          30.400
 21  5 10  2 19  0.0000000  0 10G05G10G13G15G18G20G23G24G29G30
 117602189.993 7  91638109.121 7  22378941.633    22378945.156
  22378945.414          44.400          44.100
 132056136.257 5 102900906.579 6  25129445.234    25129453.871
  25129453.969          34.600          39.500
 110955212.912 7  86458654.81446  21114063.961
  21114066.684          46.800          37.700
 105097455.476 7  81894200.526 8  19999378.367    19999381.238
  19999381.605          47.800          51.400
 109951497.036 8  85676515.511 8  20923065.898    20923069.680
  20923069.824          48.900          50.800
 106733564.387 7  83169047.57046  20310711.453
  20310714.336          46.800          41.200
 116850891.181 7  91052682.908 7  22235975.320    22235980.293
  22235979.125          46.800          45.700
 127755056.472 6  99549413.405 6  24310977.258    24310983.473
  24310983.250          39.400          38.400
 114072832.619 7  88887948.705 7  21707336.695    21707340.816
  21707341.078          45.800          46.700
 133057053.545 5 103680903.097 4  25319932.273    25319938.457
  25319939.488          32.000          29.500
 21  5 10  2 19 30.0000000  0  9G05G10G13G15G18G20G23G24G29
 117677231.639 7  91696583.154 7  22393221.867    22393225.082
  22393225.625          43.500          44.000
 131975245.913 6 102837875.214 6  25114052.641    25114061.137
  25114061.313          36.800          39.000
 111000905.756 7  86494259.61246  21122758.891
  21122761.703          47.200          37.000
 105086387.499 8  81885576.152 8  19997271.898    19997275.211
  19997275.340          48.400          51.000
 109892726.253 8  85630720.136 8  20911882.039    20911885.613
  20911885.703          48.100          49.900
 106747513.302 7  83179916.85546  20313365.805
  20313368.578          46.900          41.100
 116786581.761 7  91002571.702 7  22223737.906    22223742.137
  22223742.770          46.900          47.500
 127654056.070 6  99470711.908 6  24291756.953    24291764.273
  24291764.379          37.100          40.500
 114150735.237 7  88948652.042 7  21722160.977    21722165.480
  21722165.418          46.000          46.100
 21  5 10  2 20  0.0000000  0 10G05G10G13G15G18G20G23G24G29G30
 117752384.744 7  91755144.027 7  22407522.898    22407526.234
  22407526.156          44.500          44.100
 131894417.456 6 102774892.092 6  25098671.398    25098680.648
  25098679.680          38.100          36.300
 111047148.589 7  86530292.97546  21131559.234
  21131561.543          45.500          37.800
 105075926.867 8  81877425.027 8  19995281.867    19995284.461
  19995284.684          49.200          50.900
 109834252.208 8  85585155.975 8  20900755.133    20900758.176
  20900758.602          49.800          50.700
 106761724.952 7  83190990.87546  20316070.383
  20316072.746          47.200          41.600
 116722457.933 7  90952605.131 7  22211535.508    22211539.602
  22211539.570          46.700          46.500
 127553049.398 6  99392005.512 6  24272536.789    24272544.332
  24272543.711          38.600          39.900
 114229071.209 7  89009693.074 7  21737068.070    21737071.973
  21737071.688          46.200          45.500
 133115394.359 5 103726345.19742  25331028.625
  25331033.473          31.900          16.900
 21  5 10  2 20 30.0000000  0  9G05G10G13G15G18G20G23G24G29
 117827648.188 7  91813790.872 7  22421845.094    22421848.863
  22421848.656          45.100          44.600
 131813651.032 5 102711957.184 6  25083301.922    25083309.992
  25083310.703          34.100          36.200
 111093938.766 7  86566752.85646  21140462.922
  21140465.453          47.500          37.300
 105066073.060 8  81869746.762 8  19993406.203    19993409.375
  19993409.488          48.000          51.400
 109776076.341 8  85539824.173 8  20889685.102    20889687.742
  20889687.930          48.400          50.700
 106776198.711 8  83202269.14246  20318824.531
  20318826.883          48.000          40.400
 116658519.283 7  90902782.882 7  22199368.055    22199372.164
  22199372.422          46.700          47.000
 127452038.925 6  99313296.163 7  24253315.039    24253322.777
  24253321.695          36.400          42.600
 114307837.266 7  89071069.194 7  21752057.047    21752060.727
  21752061.023          45.600          46.000
 21  5 10  2 21  0.0000000  0 10G05G10G13G15G18G20G23G24G29G30
 117903021.212 7  91872523.090 7  22436187.828    22436191.777
  22436190.961          45.200          43.300
 131732946.532 6 102649070.654 5  25067944.188    25067952.563
  25067952.059          39.200          35.700
 111141274.288 7  86603637.67446  21149470.250
  21149473.500          46.600          37.800
 105056825.589 8  81862540.964 8  19991646.773    19991649.637
  19991649.941          49.200          51.200
 109718200.701 7  85494726.314 8  20878670.570    20878674.387
  20878674.211          47.500          50.100
 106790934.140 7  83213751.28946  20321628.891
  20321631.156          46.700          39.900
 116594766.025 7  90853105.053 7  22187236.336    22187241.203
  22187240.516          47.000          46.400
 127351027.634 5  99234586.182 7  24234093.023    24234100.547
  24234099.883          35.400          43.000
 114387030.923 7  89132778.586 7  21767126.539    21767130.801
  21767130.836          47.300          46.500
 133175626.059 4 103773282.631 4  25342489.570    25342495.344
  25342492.684          28.600          29.000
 21  5 10  2 21 30.0000000  0  9G05G10G13G15G18G20G23G24G29
 117978503.433 7  91931340.412 7  22450551.789    22450555.395
  22450555.945          44.900          45.500
 131652304.401 6 102586232.674 6  25052598.266    25052606.973
  25052607.293          39.800          38.600
 111189153.447 7  86640946.11846  21158580.891
  21158583.980          46.800          37.400
 105048184.337 7  81855807.531 8  19990002.406    19990005.773
  19990005.711          47.900          51.700
 109660627.659 7  85449864.258 8  20867715.086    20867718.625
  20867718.566          47.000          50.200
 106805931.763 7  83225437.72446  20324482.727
  20324485.695          46.800          39.800
 116531198.663 7  90803572.075 7  22175139.547    22175143.996
  22175144.379          47.100          47.400
 127250018.980 6  99155878.257 6  24214870.430    24214879.523
  24214878.414          36.900          36.900
 114466650.015 7  89194819.395 7  21782278.727    21782281.805
  21782281.949          46.100          46.300
 21  5 10  2 22  0.0000000  0  9G05G10G13G15G18G20G23G24G29
 118054093.495 7  91990241.766 7  22464935.742    22464939.270
  22464939.121          45.800          44.100
 131571724.490 6 102523443.193 6  25037265.375    25037273.770
  25037273.422          39.100          39.100
 111237574.011 7  86678676.44246  21167794.984
  21167797.957          47.000          36.400
 105040148.932 8  81849546.196 8  19988473.164    19988476.148
  19988476.082          48.400          50.900
 109603358.900 8  85405239.281 8  20856816.891    20856820.973
  20856821.234          48.000          50.800
 106821190.835 8  83237327.90146  20327386.000
  20327389.414          48.000          41.000
 116467817.126 7  90754183.882 7  22163079.102    22163083.223
  22163082.758          44.800          46.400
 127149015.791 6  99077174.475 6  24195651.438    24195658.207
  24195657.551          36.600          40.400
 114546691.041 7  89257189.027 7  21797509.023    21797513.027
  21797513.449          47.500          46.400
 21  5 10  2 22 30.0000000  0 10G05G10G13G15G18G20G23G24G29G30
 118129790.717 7  92049226.611 7  22479340.984    22479344.344
  22479345.148          46.000          46.000
 131491206.708 6 102460702.068 6  25021943.758    25021951.012
  25021951.582          38.800          38.600
 111286533.732 7  86716826.88346  21177111.828
  21177115.285          46.700          36.800
 105032718.659 8  81843756.394 8  19987058.922    19987061.953
  19987062.305          48.200          51.300
 109546396.121 8  85360852.722 8  20845977.648    20845980.770
  20845980.801          49.400          50.500
 106836710.503 8  83249421.17447  20330339.766
  20330342.633          48.800          42.600
 116404621.220 7  90704940.380 7  22151052.602    22151056.805
  22151057.094          45.700          47.000
 127048020.771 5  98998477.130 6  24176431.703    24176438.898
  24176438.852          35.700          40.800
 114627151.220 7  89319885.263 7  21812820.594    21812824.816
  21812824.297          46.300          45.100
 133269553.130 5                  25360366.797
                        30.300
