     2.11           OBSERVATION DATA    G (GPS)             RINEX VERSION / TYPE
teqc  2019Feb25     root                20210522 15:21:40UTCPGM / RUN BY / DATE
Linux 2.4.21-27.ELsmp|Opteron|gcc|Linux 64|=+               COMMENT
     2.11           OBSERVATION DATA    M (MIXED)           COMMENT
teqc  2019Feb25     NOAA/NOS/NGS/CORS   20210511 09:36:28UTCCOMMENT
teqc  2020Oct7      UNAVCO Archive Ops  20210511 00:14:50UTCCOMMENT
   0.000      (antenna height)                              COMMENT
 +68.62803447 (latitude)                                    COMMENT
-149.59542496 (longitude)                                   COMMENT
0728.611      (elevation)                                   COMMENT
BIT 2 OF LLI FLAGS DATA COLLECTED UNDER A/S CONDITION       COMMENT
TLK2 (COGO code)                                            COMMENT
RINEX file created by UNAVCO GPS Archive.                   COMMENT
For more information contact archive-gps@unavco.org         COMMENT
Monument ID: 25416                                          COMMENT
UNAVCO 4-char name:   TLK2                                  COMMENT
4-char name from Log or data file: TLK2                     COMMENT
Monument location: 68.628034 -149.595425 728.5926           COMMENT
Visit ID: 123504                                            COMMENT
                                                            COMMENT
Toolik Field Station dry well gps                           COMMENT
                                                            COMMENT
doi:10.7283/1G73-BB74                                       COMMENT
End of DB comments                                          COMMENT
input file: tlk2202105100000b.tgd                           COMMENT
 SNR is mapped to RINEX snr flag value [0-9]                COMMENT
  L1 & L2: min(max(int(snr_dBHz/6), 0), 9)                  COMMENT
teqc.e edited: all SBAS satellites excluded                 COMMENT
teqc.e edited: all QZSS satellites excluded                 COMMENT
TLK2                                                        MARKER NAME
Jason Stuckey       University of Alaska-Fairbanks          OBSERVER / AGENCY
5010K65996          TRIMBLE NETR8       48.01               REC # / TYPE / VERS
1441047119          TRM57971.00     NONE                    ANT # / TYPE
 -2010743.1500 -1179913.5190  5917656.2580                  APPROX POSITION XYZ
        0.0083        0.0000        0.0000                  ANTENNA: DELTA H/E/N
     1     1                                                WAVELENGTH FACT L1/2
     8    L1    L2    C1    C2    P1    P2    S1    S2      # / TYPES OF OBSERV
    30.0000                                                 INTERVAL
teqc.w windowed: start @ 2021 May 10 00:00:00.000           COMMENT
teqc.w windowed:  end  @ 2021 May 11 00:00:00.000           COMMENT
teqc.w edited: all GLONASS satellites excluded              COMMENT
  2021     5    10     0     0    0.0000000     GPS         TIME OF FIRST OBS
                                                            END OF HEADER
 21  5 10  0  0  0.0000000  0 11G02G18G29G31G25G26G04G09G16G05G20
 129739682.468 6 101095865.87444  24688638.289
  24688641.961          40.700          26.500
 119327331.231 7  92982367.623 7  22707233.383    22707238.531
  22707238.516          42.900          45.500
 108153372.107 8  84275381.036 8  20580896.227    20580900.016
  20580900.016          48.100          50.600
 125223094.899 7  97576468.150 6  23829165.328    23829169.266
  23829169.035          42.900          40.500
 126029909.088 6  98205142.912 7  23982694.477    23982702.125
  23982701.574          40.600          43.100
 113101434.609 7  88131037.065 8  21522486.180    21522493.109
  21522493.277          46.700          48.100
 129444279.046 6 100865687.316 6  24632426.344    24632432.145
  24632432.695          40.600          39.300
 125391308.770 7  97707546.381 7  23861172.945    23861180.023
  23861180.422          42.100          42.500
 120768513.577 6  94105358.14544  22981482.000
  22981485.621          41.700          26.800
 116359959.321 7  90670122.067 7  22142560.930    22142564.922
  22142564.848          47.400          45.600
 122596805.157 7  95530007.61044  23329395.180
  23329398.805          42.900          26.500
 21  5 10  0  0 30.0000000  0 11G02G18G29G31G25G26G04G09G16G05G20
 129835512.303 6 101170538.45244  24706874.234
  24706876.586          39.800          24.700
 119225462.268 7  92902989.258 7  22687848.469    22687854.379
  22687854.434          42.400          46.300
 108181026.078 8  84296929.584 8  20586158.273    20586162.504
  20586162.723          48.100          50.500
 125320385.551 7  97652278.997 6  23847679.898    23847683.406
  23847683.109          43.900          40.500
 126148536.136 6  98297579.504 7  24005267.578    24005276.543
  24005276.008          39.700          42.900
 113057950.841 7  88097153.616 8  21514211.344    21514218.012
  21514218.414          46.800          48.300
 129518609.881 6 100923607.493 6  24646570.898    24646576.500
  24646576.957          39.800          36.700
 125418219.914 7  97728516.137 7  23866293.953    23866300.570
  23866300.813          42.000          42.200
 120672760.187 6  94030745.14444  22963259.938
  22963263.492          40.600          27.000
 116310806.097 7  90631820.864 7  22133207.195    22133211.355
  22133211.238          47.000          45.200
 122498887.927 6  95453708.49644  23310761.867
  23310765.871          41.800          27.100
 21  5 10  0  1  0.0000000  0 11G02G18G29G31G25G26G04G09G16G05G20
 129931494.513 6 101245329.66443  24725137.789
  24725141.867          38.600          20.900
 119123882.284 7  92823836.072 7  22668519.188    22668523.531
  22668523.438          43.000          45.700
 108209220.716 7  84318899.422 8  20591523.781    20591527.637
  20591527.461          47.400          49.700
 125417960.582 7  97728311.508 6  23866246.195    23866251.430
  23866250.691          42.200          40.400
 126267304.523 6  98390126.206 7  24027868.266    24027877.059
  24027876.570          37.600          42.600
 113015020.116 7  88063701.111 7  21506042.156    21506048.965
  21506049.219          47.500          47.900
 129593357.642 6 100981852.501 5  24660795.117    24660799.828
  24660799.996          40.600          35.400
 125445732.319 6  97749954.395 7  23871529.070    23871536.414
  23871536.414          40.300          42.800
 120577368.306 7  93956413.83644  22945108.203
  22945111.543          42.100          27.200
 116262248.732 7  90593983.958 7  22123966.984    22123971.309
  22123971.414          45.400          45.500
 122401251.756 7  95377628.44344  23292182.797
  23292186.531          42.400          26.700
 21  5 10  0  1 30.0000000  0 11G02G18G29G31G25G26G04G09G16G05G20
 130027627.067 6 101320238.08144  24743431.219
  24743436.066          40.200          24.700
 119022593.146 7  92744909.527 7  22649244.250    22649248.906
  22649248.719          43.800          45.000
 108237954.755 7  84341289.579 8  20596991.734    20596995.996
  20596996.121          47.200          50.800
 125515816.888 7  97804563.081 7  23884868.117    23884873.336
  23884872.891          43.000          42.000
 126386211.419 6  98482780.829 6  24050495.445    24050504.590
  24050503.969          37.700          39.900
 112972643.597 7  88030680.446 8  21497977.953    21497984.594
  21497984.898          47.100          48.600
 129668519.289 6 101040420.038 6  24675098.078    24675103.480
  24675103.238          41.400          36.100
 125473844.494 6  97771860.003 7  23876878.563    23876886.328
  23876886.566          39.900          42.600
 120482340.112 7  93882365.91145  22927024.859
  22927028.441          42.100          30.000
 116214288.627 7  90556612.470 7  22114840.250    22114844.793
  22114844.797          46.900          46.300
 122303898.929 6  95301769.16144  23273656.664
  23273660.766          40.900          27.400
 21  5 10  0  2  0.0000000  0 11G02G18G29G31G25G26G04G09G16G05G20
 130123908.493 6 101395262.54844  24761753.086
  24761757.648          40.900          24.300
 118921597.547 7  92666211.690 7  22630024.969    22630030.375
  22630030.516          44.100          46.300
 108267228.157 7  84364100.018 8  20602562.117    20602566.086
  20602566.184          47.100          50.300
 125613952.070 7  97881031.957 6  23903542.672    23903547.297
  23903547.281          42.900          40.800
 126505255.070 6  98575542.051 6  24073149.461    24073156.984
  24073156.520          38.000          38.400
 112930823.234 7  87998093.159 8  21490019.781    21490026.406
  21490026.852          47.300          48.700
 129744092.723 6 101099308.487 5  24689478.664    24689485.637
  24689484.770          40.400          33.800
 125502555.782 6  97794232.405 7  23882342.914    23882349.656
  23882349.711          40.500          42.100
 120387678.701 7  93808603.84044  22909011.016
  22909014.766          42.700          29.000
 116166927.953 7  90519708.069 7  22105828.070    22105832.285
  22105832.230          45.800          45.300
 122206832.530 7  95226133.05944  23255185.258
  23255189.113          43.200          26.100
 21  5 10  0  2 30.0000000  0 11G02G18G29G31G25G26G04G09G16G05G20
 130220336.565 6 101470401.23643  24780104.070
  24780106.512          40.300          22.300
 118820897.357 7  92587744.056 7  22610862.609    22610867.316
  22610867.316          44.600          45.700
 108297039.451 7  84387329.590 8  20608234.984    20608239.379
  20608239.121          47.200          50.500
 125712362.877 6  97957715.701 6  23922269.531    23922275.090
  23922274.371          40.500          41.700
 126624432.711 6  98668407.708 6  24095828.672    24095835.578
  24095835.602          39.300          37.900
 112889560.122 7  87965940.095 8  21482167.719    21482174.699
  21482174.988          47.000          48.300
 129820074.942 6 101158515.388 6  24703938.031    24703944.094
  24703943.742          37.700          36.900
 125531864.762 6  97817070.537 7  23887919.625    23887926.840
  23887926.707          40.900          43.400
 120293386.290 7  93735129.25044  22891068.273
  22891071.664          43.100          27.800
 116120168.135 7  90483271.858 7  22096929.852    22096934.461
  22096934.680          45.500          45.200
 122110055.145 7  95150722.16644  23236769.586
  23236773.414          42.600          27.600
 21  5 10  0  3  0.0000000  0 11G02G18G29G31G25G26G04G09G16G05G20
 130316909.595 6 101545652.79544  24798481.656
  24798484.453          40.600          24.700
 118720494.775 7  92509508.333 7  22591756.992    22591761.652
  22591761.898          43.300          46.500
 108327387.861 7  84410977.694 8  20614009.664    20614013.398
  20614013.680          47.400          49.500
 125811046.532 6  98034611.997 6  23941049.461    23941053.590
  23941053.500          41.500          40.400
 126743742.059 6  98761376.021 6  24118532.328    24118539.801
  24118539.688          39.900          37.900
 112848855.760 7  87934222.408 8  21474422.102    21474428.762
  21474428.852          47.700          48.400
 129896463.246 6 101218038.699 6  24718474.000    24718479.824
  24718479.680          37.100          38.300
 125561770.145 6  97840373.359 7  23893610.797    23893617.570
  23893617.496          40.700          42.600
 120199465.775 7  93661944.45744  22873195.570
  22873199.324          42.200          29.300
 116074011.122 7  90447305.355 7  22088146.797    22088150.121
  22088150.277          46.000          45.200
 122013569.435 7  95075538.53944  23218408.805
  23218412.594          43.400          29.000
 21  5 10  0  3 30.0000000  0 11G02G18G29G31G25G26G04G09G16G05G20
 130413625.938 7 101621016.12844  24816886.531
  24816888.418          42.600          25.400
 118620392.059 7  92431506.268 7  22572707.320    22572712.863
  22572713.305          44.600          47.000
 108358272.635 8  84435043.747 8  20619887.625    20619891.590
  20619891.535          48.000          49.800
 125909999.870 6  98111718.456 6  23959878.641    23959883.828
  23959883.730          40.400          41.300
 126863180.795 6  98854445.125 6  24141260.977    24141268.750
  24141268.113          39.900          40.200
 112808711.645 7  87902941.283 8  21466782.625    21466789.637
  21466789.898          47.300          48.200
 129973255.034 5 101277876.463 6  24733086.969    24733093.121
  24733093.117          34.100          40.200
 125592270.971 6  97864140.232 7  23899415.258    23899421.875
  23899421.797          41.600          44.000
 120105919.520 7  93589051.29644  22855394.234
  22855397.512          42.600          28.900
 116028458.418 7  90411809.760 7  22079478.477    22079482.137
  22079482.164          45.800          45.200
 121917378.159 7  95000584.30744  23200104.672
  23200107.852          44.500          27.800
 21  5 10  0  4  0.0000000  0 11G02G18G29G31G25G26G04G09G16G05G20
 130510483.465 7 101696489.46744  24835318.117
  24835319.691          42.600          26.000
 118520591.436 7  92353739.597 7  22553716.242    22553721.176
  22553721.063          45.000          46.700
 108389693.065 8  84459527.203 8  20625866.547    20625870.336
  20625870.246          49.000          49.600
 126009220.170 7  98189032.884 6  23978759.664    23978765.008
  23978764.543          42.500          40.100
 126982746.786 6  98947613.359 6  24164012.766    24164021.797
  24164021.273          39.400          41.900
 112769129.168 7  87872097.807 8  21459250.477    21459257.262
  21459257.543          47.300          48.100
 130050447.643 5 101338026.492 6  24747775.086    24747783.000
  24747783.039          32.600          40.500
 125623365.950 6  97888370.077 7  23905332.117    23905338.813
  23905339.156          41.700          43.000
 120012750.195 7  93516451.85544  22837664.539
  22837668.188          42.600          27.800
 115983511.738 7  90376786.372 7  22070925.047    22070929.078
  22070929.145          46.300          45.200
 121821484.027 7  94925861.65644  23181855.883
  23181859.859          43.500          27.900
 21  5 10  0  4 30.0000000  0 11G02G18G29G31G25G26G04G09G16G05G20
 130607480.930 7 101772071.72244  24853776.734
  24853779.152          42.900          24.600
 118421095.360 7  92276210.244 7  22534782.891    22534787.590
  22534787.801          44.300          46.600
 108421648.477 8  84484427.521 8  20631947.719    20631951.723
  20631951.707          48.200          50.200
 126108704.700 7  98266553.237 6  23997692.086    23997696.500
  23997695.809          43.000          41.800
 127102437.754 6  99040878.959 6  24186789.813    24186798.441
  24186797.832          38.300          41.600
 112730110.018 8  87841693.281 8  21451825.258    21451832.180
  21451832.559          48.000          48.000
 130128038.494 5 101398486.864 7  24762540.703    24762547.566
  24762547.629          35.000          43.200
 125655054.072 7  97913062.073 7  23911363.227    23911369.293
  23911369.340          42.000          42.200
 119919960.454 6  93444148.19844  22820006.578
  22820010.098          41.800          26.300
 115939173.273 7  90342236.914 7  22062487.938    22062492.074
  22062491.719          46.300          44.500
 121725889.841 7  94851372.71044  23163665.219
  23163668.707          43.000          27.500
 21  5 10  0  5  0.0000000  0 10G02G18G29G31G25G26G09G16G05G20
 130704616.402 6 101847761.69144  24872259.313
  24872263.699          41.100          27.100
 118321905.696 7  92198919.648 7  22515907.844    22515912.781
  22515913.113          44.500          47.200
 108454137.685 8  84509743.774 8  20638130.266    20638133.883
  20638133.859          48.300          50.400
 126208450.462 7  98344277.169 6  24016673.016    24016677.176
  24016676.875          43.300          40.600
 127222251.141 6  99134239.946 7  24209588.734    24209597.723
  24209597.875          37.100          42.100
 112691655.277 8  87811728.542 8  21444507.773    21444514.461
  21444514.488          48.100          48.600
 125687333.816 6  97938215.092 7  23917505.070    23917511.457
  23917511.559          41.400          43.900
 119827553.040 7  93372142.43944  22802422.305
  22802426.520          42.900          28.500
 115895444.299 7  90308162.401 7  22054166.594    22054170.371
  22054170.250          47.200          44.800
 121630597.797 7  94777119.22144  23145531.305
  23145534.629          42.400          25.600
 21  5 10  0  5 30.0000000  0 10G02G18G29G31G25G26G09G16G05G20
 130801888.113 6 101923557.81443  24890769.281
  24890772.953          39.200          22.800
 118223024.821 7  92121869.640 7  22497090.977    22497095.652
  22497095.668          43.800          46.600
 108487159.940 8  84535475.399 8  20644413.664    20644417.957
  20644417.941          49.000          50.000
 126308454.872 6  98422202.607 6  24035703.023    24035707.367
  24035706.953          41.600          39.800
 127342184.869 6  99227694.677 6  24232411.883    24232420.461
  24232419.984          36.800          41.300
 112653766.446 7  87782204.781 8  21437297.648    21437304.309
  21437304.805          47.300          48.900
 125720204.115 7  97963828.325 7  23923759.984    23923766.762
  23923766.625          42.200          42.700
 119735530.665 7  93300436.72744  22784911.492
  22784915.164          42.900          28.300
 115852326.690 7  90274564.264 7  22045961.727    22045965.281
  22045965.203          46.700          44.900
 121535610.908 7  94703103.49544  23127456.008
  23127459.461          42.200          27.900
 21  5 10  0  6  0.0000000  0 10G02G18G29G31G25G26G09G16G05G20
 130899293.847 6 101999458.30543  24909304.461
  24909309.637          39.000          22.900
 118124454.824 7  92045061.895 7  22478333.492    22478338.801
  22478338.859          44.000          46.100
 108520714.287 8  84561621.638 8  20650799.086    20650803.359
  20650803.266          48.700          50.300
 126408715.133 7  98500327.429 6  24054782.414    24054786.445
  24054785.930          42.700          41.300
 127462236.431 6  99321241.277 6  24255257.117    24255265.305
  24255265.184          37.100          40.400
 112616444.867 7  87753123.032 8  21430195.672    21430202.496
  21430202.457          47.200          48.800
 125753663.444 7  97989900.484 6  23930127.477    23930133.762
  23930134.063          42.000          41.800
 119643895.388 7  93229032.64844  22767473.977
  22767477.727          42.900          29.100
 115809821.978 7  90241443.715 7  22037872.766    22037876.695
  22037876.598          46.400          44.500
 121440931.766 7  94629327.57944  23109439.406
  23109442.797          42.200          27.300
 21  5 10  0  6 30.0000000  0 10G02G18G29G31G25G26G09G16G05G20
 130996832.434 6 102075462.31444  24927866.523
  24927870.457          41.400          26.700
 118026198.062 7  91968498.224 7  22459635.883    22459641.270
  22459641.250          44.100          47.000
 108554799.844 8  84588181.806 8  20657285.539    20657289.535
  20657289.398          48.600          50.600
 126509228.002 7  98578649.087 6  24073907.789    24073913.539
  24073913.012          42.300          41.800
 127582403.715 6  99414878.038 6  24278124.875    24278132.102
  24278132.168          38.800          38.900
 112579691.900 7  87724484.359 8  21423201.750    21423208.973
  21423209.309          46.800          49.300
 125787710.781 6  98016430.887 7  23936606.461    23936612.625
  23936613.102          41.600          42.800
 119552650.207 7  93157932.54744  22750110.297
  22750114.098          43.100          28.600
 115767931.488 7  90208801.779 7  22029901.406    22029905.555
  22029905.379          45.800          44.900
 121346563.209 6  94555793.67644  23091481.766
  23091484.961          41.700          26.200
 21  5 10  0  7  0.0000000  0 10G02G18G29G31G25G26G09G16G05G20
 131094501.659 6 102151568.11244  24946453.070
  24946455.281          41.200          26.000
 117928256.323 7  91892180.028 7  22440998.055    22441003.098
  22441002.891          44.100          46.400
 108589415.419 8  84615154.979 8  20663872.328    20663876.434
  20663876.359          48.400          50.000
 126609990.496 7  98657165.230 6  24093083.789    24093088.109
  24093087.844          43.200          41.300
 127702684.010 6  99508602.923 6  24301014.203    24301020.445
  24301019.961          39.200          37.700
 112543508.626 7  87696289.610 8  21416316.328    21416323.242
  21416323.379          46.800          49.000
 125822344.301 6  98043418.023 7  23943196.141    23943203.652
  23943203.730          40.000          42.500
 119461797.540 7  93087138.28244  22732821.609
  22732825.719          42.100          28.700
 115726656.931 7  90176639.788 7  22022047.063    22022051.188
  22022050.879          46.500          45.200
 121252507.576 6  94482503.62244  23073582.609
  23073586.438          41.200          26.500
 21  5 10  0  7 30.0000000  0 10G02G18G29G31G25G26G09G16G05G20
 131192299.987 6 102227774.49544  24965063.977
  24965067.918          41.400          26.200
 117830631.941 7  91816109.122 7  22422421.195    22422425.953
  22422426.277          44.400          47.200
 108624560.344 8  84642540.634 8  20670560.742    20670564.473
  20670564.473          48.700          49.700
 126710999.600 7  98735873.591 6  24112305.203    24112309.387
  24112309.305          43.300          41.400
 127823075.211 6  99602414.225 6  24323922.625    24323930.406
  24323929.855          39.800          37.600
 112507896.449 7  87668539.867 8  21409539.820    21409546.504
  21409546.637          46.400          49.000
 125857562.864 6  98070861.042 6  23949897.813    23949905.168
  23949905.484          39.500          41.300
 119371340.238 7  93016652.09044  22715608.891
  22715611.852          44.000          29.900
 115685999.679 7  90144958.810 7  22014310.422    22014314.285
  22014314.246          46.400          44.700
 121158767.680 7  94409459.61144  23055745.102
  23055748.617          42.100          25.500
 21  5 10  0  8  0.0000000  0 10G02G18G29G31G25G26G09G16G05G20
 131290225.855 6 102304080.36843  24983698.242
  24983701.074          38.600          23.500
 117733327.620 7  91740287.623 7  22403904.383    22403909.930
  22403909.762          43.900          46.900
 108660233.946 8  84670338.242 8  20677348.867    20677352.777
  20677352.660          48.800          50.000
 126812253.172 7  98814772.431 6  24131572.977    24131577.359
  24131577.563          42.700          40.300
 127943575.515 6  99696310.515 6  24346853.547    24346861.422
  24346860.703          39.100          39.500
 112472857.158 7  87641236.527 8  21402871.898    21402878.980
  21402879.023          46.400          48.100
 125893365.574 6  98098759.224 6  23956710.578    23956718.148
  23956718.250          38.300          41.200
 119281280.881 7  92946475.99344  22698470.844
  22698474.422          44.100          29.600
 115645961.769 7  90113760.436 7  22006691.672    22006695.816
  22006696.004          46.700          45.800
 121065346.670 7  94336664.04844  23037967.188
  23037970.691          42.500          27.600
 21  5 10  0  8 30.0000000  0 10G02G18G29G31G25G26G09G16G05G20
 131388276.903 6 102380483.70943  25002354.852
  25002359.590          38.000          21.800
 117636344.806 7  91664716.637 7  22385449.648    22385454.461
  22385454.656          44.000          47.300
 108696434.536 8  84698546.480 8  20684237.438    20684241.477
  20684241.691          49.200          50.200
 126913747.821 7  98893859.133 6  24150886.758    24150891.176
  24150891.113          42.600          41.000
 128064181.887 6  99790289.445 6  24369803.836    24369812.246
  24369811.363          38.600          39.800
 112438391.291 7  87614380.021 8  21396312.906    21396319.691
  21396319.883          46.200          48.300
 125929750.193 6  98127110.831 6  23963635.648    23963642.293
  23963642.156          39.300          41.700
 119191621.373 7  92876611.44144  22681408.805
  22681411.934          42.900          27.800
 115606544.269 7  90083045.508 7  21999190.422    21999195.082
  21999195.301          46.700          45.400
 120972246.461 7  94264118.46344  23020251.438
  23020254.684          43.300          28.500
 21  5 10  0  9  0.0000000  0 10G02G18G29G31G25G26G09G16G05G20
 131486452.146 6 102456983.82243  25021038.172
  25021041.430          40.200          22.300
 117539686.155 7  91589398.241 7  22367055.953    22367060.988
  22367061.285          43.400          47.600
 108733161.884 8  84727165.186 8  20691226.695    20691230.391
  20691230.418          48.200          50.700
 127015481.087 6  98973131.691 6  24170245.289    24170250.430
  24170250.523          40.400          39.900
 128184892.532 6  99884349.594 6  24392774.273    24392783.316
  24392782.973          38.400          41.400
 112404500.663 7  87587971.736 8  21389863.805    21389870.559
  21389870.586          46.400          48.500
 125966715.888 6  98155915.300 6  23970669.625    23970676.141
  23970676.098          41.300          41.300
 119102364.985 6  92807061.04644  22664423.609
  22664427.715          41.700          29.000
 115567749.047 7  90052815.474 7  21991808.336    21991811.992
  21991812.227          46.300          45.700
 120879470.346 7  94191825.43044  23002596.039
  23002600.129          43.200          28.700
 21  5 10  0  9 30.0000000  0 10G02G18G29G31G25G26G09G16G05G20
 131584749.319 6 102533578.92943  25039744.211
  25039746.723          41.600          21.700
 117443353.699 7  91514334.025 7  22348724.391    22348729.270
  22348729.527          42.900          46.700
 108770414.447 8  84756193.160 8  20698315.672    20698319.496
  20698319.484          48.700          50.300
 127117449.628 6  99052587.659 6  24189648.813    24189653.984
  24189654.184          40.200          38.200
 128305705.074 6  99978489.149 6  24415764.594    24415772.898
  24415772.707          38.000          41.400
 112371186.293 7  87562012.497 8  21383524.320    21383530.965
  21383531.211          46.300          48.700
 126004261.054 6  98185171.257 6  23977813.898    23977820.789
  23977821.172          39.900          40.400
 119013514.196 7  92737826.68344  22647516.117
  22647519.984          42.300          28.500
 115529577.303 7  90023071.266 7  21984544.570    21984548.645
  21984548.664          47.200          46.400
 120787020.446 7  94119786.58044  22985003.969
  22985007.234          42.900          28.800
 21  5 10  0 10  0.0000000  0 10G02G18G29G31G25G26G09G16G05G20
 131683166.786 6 102610267.75743  25058472.719
  25058475.254          41.600          22.500
 117347349.544 7  91439525.652 7  22330455.086    22330459.895
  22330460.672          43.100          47.300
 108808191.531 8  84785629.842 8  20705504.000    20705507.961
  20705508.090          48.800          50.000
 127219650.660 6  99132224.782 6  24209097.047    24209102.320
  24209102.148          41.600          40.200
 128426617.086 6 100072706.216 6  24438773.211    24438781.852
  24438781.398          37.900          40.000
 112338449.397 7  87536503.234 8  21377295.016    21377302.055
  21377302.023          47.000          48.600
 126042384.161 6  98214877.580 6  23985068.781    23985074.875
  23985074.758          40.400          39.000
 118925071.488 7  92668910.33144  22630685.320
  22630689.762          42.600          28.100
 115492030.324 7  89993813.891 7  21977399.086    21977403.320
  21977403.508          46.700          46.000
 120694899.695 7  94048004.21444  22967474.117
  22967477.637          42.800          28.600
 21  5 10  0 10 30.0000000  0 10G02G18G29G31G25G26G09G16G05G20
 131781702.764 6 102687049.04643  25077222.984
  25077225.762          40.300          23.000
 117251675.860 7  91364974.774 7  22312248.773    22312254.094
  22312254.813          43.700          47.200
 108846492.108 8  84815474.440 8  20712792.438    20712796.367
  20712796.473          48.600          49.500
 127322081.508 6  99212040.923 6  24228589.641    24228594.301
  24228594.145          40.300          38.900
 128547626.293 6 100166999.037 6  24461800.781    24461809.414
  24461808.777          37.500          39.900
 112306291.154 7  87511444.867 8  21371175.289    21371182.488
  21371182.480          47.000          49.000
 126081083.750 7  98245033.045 6  23992433.938    23992439.156
  23992439.551          42.500          38.500
 118837039.562 7  92600314.04744  22613934.336
  22613937.734          42.600          28.700
 115455109.648 7  89965044.533 7  21970373.758    21970377.988
  21970378.020          46.600          45.600
 120603110.551 7  93976480.25844  22950006.000
  22950010.227          42.300          27.300
 21  5 10  0 11  0.0000000  0 10G02G18G29G31G25G26G09G16G05G20
 131880355.705 6 102763921.35643  25095996.367
  25095998.824          40.700          20.600
 117156335.089 7  91290683.277 7  22294106.586    22294111.457
  22294111.371          44.400          46.900
 108885315.438 8  84845726.376 8  20720180.531    20720184.207
  20720184.246          48.300          49.600
 127424739.096 7  99292033.838 6  24248125.109    24248129.695
  24248129.770          42.600          38.600
 128668730.745 5 100261366.051 6  24484845.953    24484855.074
  24484854.473          35.800          40.000
 112274713.068 7  87486838.568 8  21365166.117    21365172.961
  21365173.262          47.200          49.100
 126120358.462 6  98275636.723 6  23999906.664    23999913.262
  23999913.258          41.500          39.900
 118749421.011 7  92532039.87244  22597260.953
  22597264.434          44.100          29.800
 115418817.163 7  89936764.687 7  21963467.227    21963471.500
  21963471.645          46.500          46.700
 120511656.024 7  93905217.03944  22932603.234
  22932606.922          42.500          28.000
 21  5 10  0 11 30.0000000  0 10G02G18G29G31G25G26G09G16G05G20
 131979123.617 6 102840883.22944  25114791.773
  25114795.762          41.600          25.700
 117061329.001 7  91216652.600 7  22276027.164    22276032.227
  22276031.898          43.900          46.600
 108924659.852 8  84876384.361 8  20727667.578    20727671.246
  20727671.375          48.200          49.800
 127527620.570 7  99372201.190 6  24267703.203    24267707.820
  24267707.316          44.000          40.900
 128789927.763 6 100355805.207 6  24507909.086    24507917.785
  24507917.336          36.100          40.100
 112243715.844 7  87462684.902 8  21359267.672    21359274.371
  21359274.793          45.900          49.000
 126160206.504 6  98306687.172 6  24007489.930    24007496.781
  24007497.086          40.200          40.100
 118662218.101 7  92464089.57044  22580666.633
  22580670.188          44.500          29.800
 115383153.764 7  89908975.032 7  21956681.141    21956685.387
  21956685.461          46.900          46.400
 120420538.469 6  93834216.39244  22915264.188
  22915267.895          41.800          26.800
 21  5 10  0 12  0.0000000  0 10G02G18G29G31G25G26G09G16G05G20
 132078005.507 6 102917934.00343  25133607.023
  25133610.980          37.500          21.700
 116966660.138 7  91142884.707 7  22258012.445    22258016.719
  22258016.844          43.400          46.700
 108964524.662 8  84907447.853 8  20735253.414    20735257.371
  20735257.434          49.000          49.100
 127630723.554 7  99452541.072 7  24287323.617    24287328.273
  24287327.789          42.400          42.100
 128911215.461 6 100450315.012 6  24530989.438    24530997.895
  24530997.398          37.100          39.900
 112213301.107 7  87438985.117 8  21353479.383    21353486.551
  21353486.711          46.500          49.000
 126200626.627 7  98338183.348 6  24015182.539    24015187.672
  24015187.801          42.500          39.500
 118575433.788 7  92396465.45145  22564151.984
  22564155.949          43.600          30.800
 115348120.899 7  89881676.700 7  21950014.195    21950018.559
  21950018.371          46.500          46.300
 120329760.745 7  93763480.54844  22897988.984
  22897993.301          42.400          29.400
 21  5 10  0 12 30.0000000  0 10G02G18G29G31G25G26G09G16G05G20
 132176998.915 6 102995071.58743  25152444.945
  25152449.586          37.700          21.500
 116872330.639 7  91069381.226 7  22240061.547    22240066.891
  22240066.848          43.400          47.300
 109004908.975 7  84938916.141 8  20742938.367    20742942.258
  20742942.117          47.500          49.300
 127734044.865 6  99533051.120 6  24306984.250    24306989.352
  24306989.285          41.000          41.400
 129032591.563 6 100544893.720 6  24554086.688    24554094.781
  24554094.738          38.400          40.000
 112183469.960 7  87415740.079 8  21347803.297    21347809.789
  21347810.020          47.000          48.800
 126241617.365 6  98370124.208 6  24022980.961    24022988.000
  24022988.473          39.400          40.800
 118489070.662 7  92329169.52045  22547718.031
  22547721.039          45.100          31.000
 115313720.163 7  89854870.942 7  21943468.086    21943472.027
  21943472.156          45.300          46.400
 120239325.284 7  93693011.38444  22880780.797
  22880784.422          42.600          28.200
 21  5 10  0 13  0.0000000  0 10G02G18G29G31G25G26G09G16G05G20
 132276102.497 6 103072295.10844  25171305.094
  25171308.184          41.800          25.300
 116778342.411 7  90996143.692 7  22222176.336    22222181.871
  22222181.453          44.000          47.100
 109045811.572 8  84970788.289 8  20750721.656    20750725.949
  20750726.090          48.500          49.600
 127837581.672 6  99613729.108 6  24326686.477    24326691.645
  24326691.273          41.100          40.500
 129154053.553 6 100639539.355 6  24577200.102    24577208.391
  24577208.336          39.800          40.400
 112154223.262 7  87392950.451 8  21342237.820    21342244.496
  21342244.922          46.500          48.500
 126283176.814 6  98402508.164 6  24030890.320    24030896.137
  24030896.551          39.600          39.900
 118403131.146 7  92262203.70745  22531363.766
  22531367.398          44.000          30.400
 115279952.477 7  89828558.471 7  21937042.078    21937046.504
  21937046.254          46.100          46.300
 120149234.808 7  93622811.05644  22863636.914
  22863640.625          42.600          28.500
 21  5 10  0 13 30.0000000  0 10G02G18G29G31G25G26G09G16G05G20
 132375314.263 6 103149602.79743  25190184.039
  25190187.844          40.200          23.500
 116684697.434 7  90923173.648 7  22204356.305    22204361.598
  22204361.188          44.300          47.200
 109087231.250 8  85003063.358 8  20758603.805    20758607.441
  20758607.770          48.800          49.600
 127941330.764 6  99694572.484 6  24346429.047    24346434.152
  24346434.605          40.400          40.000
 129275599.018 6 100734250.041 6  24600329.477    24600338.184
  24600337.828          39.600          39.900
 112125561.994 7  87370617.003 8  21336783.547    21336790.367
  21336790.676          46.800          49.100
 126325303.237 6  98435333.937 6  24038905.570    24038913.441
  24038913.645          38.600          41.100
 118317617.505 7  92195569.72545  22515091.242
  22515095.094          44.100          31.000
 115246819.442 7  89802740.519 7  21930737.289    21930741.566
  21930741.270          46.600          46.800
 120059491.879 7  93552881.54244  22846559.422
  22846562.941          42.800          28.400
 21  5 10  0 14  0.0000000  0 10G02G18G29G31G25G26G09G16G05G20
 132474632.599 6 103226993.70443  25209082.734
  25209087.078          37.300          20.600
 116591398.113 7  90850472.925 7  22186602.063    22186607.289
  22186607.242          44.000          47.300
 109129166.993 8  85035740.557 8  20766583.867    20766587.910
  20766588.004          48.500          49.500
 128045289.591 6  99775579.249 6  24366211.875    24366217.098
  24366216.902          39.500          39.400
 129397226.053 6 100829024.303 6  24623474.070    24623482.840
  24623482.750          36.400          39.000
 112097487.496 7  87348740.766 8  21331441.375    21331447.867
  21331448.004          47.500          49.000
 126367995.215 6  98468600.379 6  24047030.344    24047037.387
  24047037.586          39.100          40.200
 118232532.668 7  92129269.87545  22498900.383
  22498903.637          44.500          30.000
 115214322.019 7  89777417.862 7  21924553.000    21924557.457
  21924557.438          46.200          46.400
 119970099.198 7  93483224.96244  22829548.148
  22829551.723          42.300          28.900
 21  5 10  0 14 30.0000000  0 10G02G18G29G31G25G26G09G16G05G20
 132574055.926 6 103304466.25044  25228003.383
  25228007.551          40.300          24.200
 116498446.233 7  90778042.924 7  22168914.242    22168918.961
  22168918.926          43.000          47.600
 109171617.446 8  85068818.824 8  20774661.766    20774665.953
  20774665.980          48.000          49.800
 128149454.908 6  99856746.974 6  24386033.555    24386039.363
  24386039.047          39.400          38.700
 129518931.982 6 100923859.992 6  24646634.813    24646642.570
  24646642.293          36.300          38.900
 112070000.485 7  87327322.327 8  21326210.445    21326217.199
  21326217.344          47.900          48.700
 126411250.839 6  98502306.055 6  24055261.602    24055268.504
  24055269.137          39.400          41.100
 118147878.716 7  92063305.78844  22482790.664
  22482794.383          42.600          28.800
 115182460.774 7  89752590.939 7  21918489.891    21918494.133
  21918494.402          45.700          46.700
 119881058.939 7  93413842.98544  22812604.203
  22812607.883          42.900          29.100
 21  5 10  0 15  0.0000000  0 10G02G18G29G31G25G26G09G16G05G20
 132673582.319 6 103382019.20443  25246943.266
  25246946.809          39.000          23.200
 116405844.277 7  90705885.597 7  22151292.219    22151297.168
  22151297.105          44.100          46.600
 109214581.756 8  85102297.498 8  20782837.844    20782841.770
  20782842.012          48.600          50.000
 128253824.175 6  99938073.620 6  24405895.531    24405900.230
  24405899.828          40.000          38.900
 129640714.911 5 101018755.697 6  24669808.672    24669817.055
  24669816.578          35.700          37.900
 112043102.344 7  87306362.746 8  21321092.047    21321098.934
  21321098.879          46.900          48.300
 126455068.642 6  98536449.748 6  24063600.398    24063606.301
  24063606.680          40.900          41.000
 118063658.641 7  91997679.76544  22466764.266
  22466767.723          42.000          28.700
 115151237.669 7  89728261.261 7  21912548.609    21912552.859
  21912553.055          45.900          46.600
 119792374.012 7  93344737.89344  22795727.883
  22795731.727          42.600          29.200
 21  5 10  0 15 30.0000000  0 10G02G18G29G31G25G26G09G16G05G20
 132773209.925 6 103459650.96543  25265900.680
  25265905.809          37.800          22.000
 116313594.351 7  90634002.592 7  22133737.336    22133742.410
  22133742.082          43.800          46.800
 109258058.674 8  85136175.608 8  20791111.250    20791114.707
  20791114.906          49.000          49.400
 128358394.460 6 100019556.891 6  24425793.688    24425798.227
  24425798.273          40.900          38.600
 129762572.635 5 101113709.676 6  24692997.117    24693005.688
  24693005.676          32.400          36.900
 112016794.090 7  87285862.808 8  21316085.711    21316092.801
  21316092.625          46.500          48.800
 126499447.051 6  98571030.326 6  24072045.352    24072051.750
  24072051.613          40.000          41.200
 117979874.669 7  91932393.58545  22450820.789
  22450824.137          44.100          30.400
 115120654.045 7  89704429.875 7  21906728.727    21906733.602
  21906733.750          45.400          47.200
 119704047.218 7  93275911.86844  22778920.227
  22778923.512          43.600          29.400
 21  5 10  0 16  0.0000000  0 10G02G18G29G31G25G26G09G16G05G20
 132872937.696 6 103537360.89843  25284879.391
  25284881.660          41.500          23.900
 116221698.516 7  90562395.487 7  22116250.391    22116254.945
  22116255.387          43.500          47.300
 109302047.317 8  85170452.471 8  20799482.086    20799485.816
  20799486.016          49.500          50.000
 128463162.974 7 100101194.649 6  24445731.883    24445736.063
  24445735.566          44.600          38.300
 129884502.846 5 101208720.148 6  24716200.211    24716209.027
  24716208.348          33.700          37.200
 111991076.664 7  87265823.255 8  21311192.203    21311198.449
  21311198.500          47.500          48.700
 126544384.257 6  98606046.310 6  24080597.258    24080602.828
  24080603.117          41.600          41.600
 117896529.437 7  91867449.27945  22434960.633
  22434964.246          43.700          30.600
 115090711.171 7  89681097.779 7  21901030.430    21901034.801
  21901034.852          44.700          46.200
 119616080.908 7  93207366.72144  22762180.641
  22762184.223          42.600          29.100
 21  5 10  0 16 30.0000000  0  9G18G29G31G25G26G09G16G05G20
 116130158.696 7  90491065.789 7  22098831.102    22098835.398
  22098835.992          44.700          47.900
 109346546.228 8  85205126.945 8  20807949.773    20807953.797
  20807953.547          49.000          49.300
 128568126.671 7 100182984.504 6  24465705.141    24465710.094
  24465709.961          43.400          37.900
 130006502.980 6 101303785.105 6  24739415.828    24739424.883
  24739425.047          36.900          37.400
 111965950.926 7  87246244.761 8  21306410.555    21306417.449
  21306417.531          47.900          48.400
 126589878.299 7  98641496.227 7  24089253.805    24089260.320
  24089260.383          42.200          42.000
 117813625.375 7  91802848.71845  22419185.055
  22419188.039          43.400          30.500
 115061409.407 7  89658265.230 7  21895455.164    21895459.289
  21895459.281          45.600          46.900
 119528477.597 7  93139104.43844  22745509.805
  22745513.832          42.700          28.900
 21  5 10  0 17  0.0000000  0  9G18G29G31G25G26G09G16G05G20
 116038977.022 7  90420015.172 7  22081479.750    22081484.309
  22081484.754          44.000          47.100
 109391554.235 8  85240198.108 8  20816514.453    20816518.551
  20816518.570          48.400          49.800
 128673282.585 6 100264924.090 6  24485716.242    24485720.734
  24485720.488          41.600          37.200
 130128570.971 6 101398902.964 6  24762645.070    24762653.520
  24762652.777          37.800          37.900
 111941417.812 7  87227128.047 8  21301741.875    21301748.867
  21301749.105          47.700          49.200
 126635927.516 6  98677378.744 6  24098017.203    24098023.594
  24098023.617          41.000          41.800
 117731165.189 7  91738594.04945  22403493.406
  22403496.297          44.300          30.200
 115032749.967 7  89635933.211 7  21890001.234    21890005.555
  21890005.449          45.800          46.100
 119441239.842 7  93071127.01044  22728909.555
  22728912.824          42.400          29.100
 21  5 10  0 17 30.0000000  0  9G18G29G31G25G26G09G16G05G20
 115948155.740 7  90349245.386 7  22064197.031    22064201.652
  22064201.746          44.700          47.900
 109437070.141 8  85275665.044 8  20825176.156    20825180.168
  20825180.363          48.800          49.500
 128778628.055 7 100347011.412 6  24505761.922    24505766.652
  24505766.945          42.200          36.000
 130250704.709 6 101494072.061 6  24785886.680    24785895.520
  24785894.910          38.700          38.400
 111917478.429 7  87208473.989 8  21297186.969    21297193.789
  21297193.910          47.700          49.100
 126682530.302 6  98713692.578 6  24106885.109    24106891.043
  24106891.582          41.600          41.500
 117649151.251 7  91674687.10445  22387886.125
  22387889.254          44.200          32.000
 115004734.432 7  89614102.934 7  21884670.164    21884673.898
  21884673.961          46.100          46.300
 119354370.469 7  93003436.63044  22712378.688
  22712382.145          43.100          29.600
 21  5 10  0 18  0.0000000  0  8G18G29G31G26G09G16G05G20
 115857697.542 7  90278758.540 7  22046983.492    22046987.953
  22046988.355          44.200          47.600
 109483093.793 8  85311527.621 8  20833934.070    20833938.113
  20833937.984          48.400          49.300
 128884160.934 6 100429244.800 6  24525844.289    24525849.266
  24525848.961          41.400          38.300
 111894134.316 7  87190283.769 8  21292744.438    21292750.859
  21292751.109          47.800          49.400
 126729685.391 6  98750436.796 7  24115858.305    24115865.059
  24115865.473          40.400          42.600
 117567586.490 7  91611130.17245  22372364.922
  22372368.418          44.100          31.500
 114977363.969 7  89592775.313 7  21879461.492    21879465.582
  21879465.480          46.000          46.400
 119267872.441 7  92936035.61244  22695919.047
  22695922.246          43.800          29.700
 21  5 10  0 18 30.0000000  0  8G18G29G31G26G09G16G05G20
 115767603.752 7  90208555.609 8  22029839.141    22029843.582
  22029844.047          45.500          48.300
 109529622.786 8  85347783.965 8  20842788.086    20842792.016
  20842791.926          48.000          48.900
 128989877.523 6 100511621.319 6  24545961.063    24545967.035
  24545966.777          39.200          41.300
 111871385.584 7  87172557.493 8  21288415.789    21288422.246
  21288422.563          47.200          49.200
 126777390.202 6  98787609.337 7  24124936.039    24124943.371
  24124943.477          39.000          42.600
 117486472.903 7  91547924.78845  22356930.055
  22356932.762          45.000          31.600
 114950639.405 7  89571950.991 7  21874375.742    21874380.457
  21874380.102          46.000          46.100
 119181747.623 7  92868925.39645  22679529.727
  22679532.699          44.700          30.200
 21  5 10  0 19  0.0000000  0  8G18G29G31G26G09G16G05G20
 115677876.490 7  90138638.315 7  22012764.547    22012769.777
  22012769.992          44.200          47.800
 109576656.168 8  85384433.349 8  20851738.273    20851742.363
  20851742.230          48.200          48.300
 129095774.970 6 100594138.672 7  24566112.625    24566118.840
  24566118.492          38.300          42.300
 111849233.181 7  87155295.878 8  21284200.031    21284207.102
  21284207.121          47.200          49.500
 126825643.071 6  98825208.977 7  24134118.992    24134126.023
  24134126.078          39.800          42.900
 117405812.904 7  91485072.86745  22341580.594
  22341583.848          45.000          31.600
 114924561.592 7  89551630.625 7  21869413.367    21869417.621
  21869417.555          46.300          46.000
 119095998.689 7  92802108.05944  22663212.625
  22663215.953          44.600          29.300
 21  5 10  0 19 30.0000000  0  8G18G29G31G26G09G16G05G20
 115588517.930 7  90069008.311 7  21995760.234    21995764.527
  21995764.887          45.000          47.600
 109624192.657 8  85421474.776 8  20860784.188    20860787.797
  20860787.676          48.900          48.700
 129201850.480 6 100676794.824 6  24586299.180    24586303.949
  24586304.082          40.500          41.100
 111827678.098 7  87138499.712 8  21280098.672    21280105.215
  21280105.348          46.700          49.300
 126874442.114 6  98863234.212 7  24143404.875    24143412.535
  24143412.047          40.700          43.900
 117325609.017 7  91422576.35345  22326318.492
  22326321.367          43.300          31.200
 114899131.634 7  89531815.083 7  21864574.453    21864578.867
  21864578.520          46.800          46.500
 119010628.262 7  92735585.67644  22646966.859
  22646970.531          45.000          29.800
 21  5 10  0 20  0.0000000  0  8G18G29G31G26G09G16G05G20
 115499530.290 7  89999667.323 7  21978826.508    21978831.141
  21978831.227          44.900          47.700
 109672231.326 8  85458907.499 8  20869925.695    20869929.789
  20869929.355          48.400          48.600
 129308101.367 6 100759587.666 6  24606516.539    24606522.898
  24606522.906          37.700          41.100
 111806721.287 7  87122169.727 8  21276110.344    21276117.133
  21276117.164          47.800          49.000
 126923785.640 6  98901683.642 7  24152794.375    24152801.215
  24152801.727          40.900          43.000
 117245864.151 7  91360437.52545  22311142.914
  22311146.730          43.600          31.100
 114874350.195 7  89512504.881 7  21859858.859    21859862.512
  21859862.512          47.600          45.200
 118925638.783 7  92669360.13445  22630793.836
  22630797.402          44.400          31.500
 21  5 10  0 20 30.0000000  0  8G18G29G31G26G09G16G05G20
 115410915.288 7  89930616.717 7  21961963.500    21961967.961
  21961968.172          45.300          47.500
 109720770.511 8  85496730.222 8  20879161.977    20879166.234
  20879166.461          48.600          48.800
 129414524.404 6 100842514.554 6  24626768.844    24626774.551
  24626774.902          38.800          39.200
 111786363.264 7  87106306.335 8  21272236.148    21272243.211
  21272243.375          47.300          49.300
 126973671.431 6  98940555.674 7  24162287.664    24162294.262
  24162294.516          40.900          43.000
 117166580.367 7  91298657.98645  22296055.875
  22296059.668          43.600          30.700
 114850218.363 7  89493700.857 7  21855266.586    21855270.793
  21855270.809          47.300          45.600
 118841032.780 7  92603433.40545  22614693.648
  22614697.582          44.700          31.500
 21  5 10  0 21  0.0000000  0  8G18G29G31G26G09G16G05G20
 115322675.375 7  89861858.393 7  21945171.789    21945176.262
  21945176.473          45.100          47.100
 109769809.227 8  85534942.204 8  20888494.125    20888498.156
  20888498.203          48.600          49.100
 129521117.132 6 100925573.750 6  24647053.766    24647058.992
  24647058.352          39.900          38.600
 111766605.178 7  87090910.433 8  21268476.055    21268483.336
  21268483.516          47.000          49.500
 127024097.840 6  98979848.954 7  24171883.109    24171889.785
  24171890.027          40.900          42.000
 117087759.976 7  91237239.52445  22281057.148
  22281060.535          44.300          31.600
 114826737.013 7  89475403.722 7  21850797.617    21850802.309
  21850802.145          46.300          45.900
 118756813.072 7  92537807.68545  22598667.320
  22598670.605          43.900          30.700
 21  5 10  0 21 30.0000000  0  8G18G29G31G26G09G16G05G20
 115234812.113 7  89793393.551 7  21928452.133    21928456.227
  21928456.301          46.000          47.500
 109819345.848 7  85573542.165 8  20897920.563    20897924.156
  20897924.285          47.900          48.700
 129627876.276 7 101008762.646 6  24667369.258    24667373.977
  24667374.098          42.300          37.500
 111747447.389 7  87075982.290 8  21264830.664    21264837.398
  21264837.586          47.900          49.500
 127075062.659 6  99019561.835 7  24181582.141    24181588.766
  24181588.500          37.500          42.500
 117009405.462 7  91176184.07945  22266146.352
  22266149.715          44.100          30.700
 114803907.076 7  89457614.176 7  21846453.617    21846457.863
  21846457.883          46.700          45.800
 118672981.762 7  92472484.60645  22582714.578
  22582717.875          43.900          30.000
 21  5 10  0 22  0.0000000  0  8G18G29G31G26G09G16G05G20
 115147327.756 7  89725223.971 8  21911804.281    21911808.402
  21911808.688          46.300          48.300
 109869379.365 8  85612529.310 8  20907441.813    20907446.023
  20907445.902          48.800          49.100
 129734799.093 7 101092079.145 5  24687715.961    24687720.859
  24687720.273          42.100          34.300
 111728890.829 7  87061522.633 8  21261299.398    21261306.473
  21261306.391          46.000          49.600
 127126564.160 6  99059692.830 6  24191382.133    24191388.996
  24191389.031          39.300          41.500
 116931519.512 7  91115493.73445  22251325.383
  22251328.602          44.700          31.200
 114781728.865 7  89440332.457 7  21842233.273    21842237.340
  21842237.094          44.900          45.200
 118589541.408 7  92407466.18845  22566836.281
  22566840.152          43.800          30.300
 21  5 10  0 22 30.0000000  0  8G18G29G31G26G09G16G05G20
 115060224.604 7  89657351.422 8  21895229.047    21895233.730
  21895233.910          45.500          48.500
 109919908.580 7  85651902.715 8  20917057.234    20917061.316
  20917061.184          47.900          49.200
 129841883.186 6 101175521.243 5  24708092.938    24708098.055
  24708097.789          40.900          35.800
 111710936.487 8  87047532.236 8  21257883.164    21257890.004
  21257889.961          48.100          49.100
 127178600.500 5  99100240.626 6  24201283.453    24201291.188
  24201291.090          35.000          41.600
 116854104.550 7  91055170.39945  22236593.914
  22236596.906          44.700          31.800
 114760203.788 7  89423559.671 7  21838137.508    21838140.887
  21838140.996          47.100          45.400
 118506494.938 7  92342754.70245  22551033.531
  22551036.910          44.400          30.500
 21  5 10  0 23  0.0000000  0  8G18G29G31G26G09G16G05G20
 114973504.401 7  89589777.267 8  21878726.734    21878731.523
  21878731.250          45.700          48.100
 109970932.143 8  85691661.332 8  20926766.750    20926770.277
  20926770.203          48.200          48.800
 129949125.353 6 101259086.512 6  24728500.891    24728506.262
  24728505.680          39.500          37.300
 111693584.906 8  87034011.525 8  21254581.367    21254587.785
  21254587.934          48.400          49.800
 127231169.509 6  99141203.418 6  24211288.602    24211294.688
  24211294.840          39.100          40.000
 116777162.909 7  90995215.89045  22221952.523
  22221956.051          44.100          31.500
 114739332.637 7  89407296.447 7  21834166.023    21834169.801
  21834169.574          46.200          45.200
 118423844.463 7  92278351.74545  22535305.617
  22535308.723          44.900          30.900
 21  5 10  0 23 30.0000000  0  8G18G29G31G26G09G16G05G20
 114887169.759 7  89522503.544 7  21862297.875    21862302.762
  21862302.559          45.900          47.600
 110022449.190 7  85731804.484 8  20936569.938    20936574.180
  20936573.773          47.800          48.300
 130056523.137 6 101342772.995 6  24748938.406    24748943.086
  24748942.977          39.400          38.100
 111676837.334 7  87020961.472 8  21251394.258    21251400.914
  21251401.000          47.800          49.500
 127284269.759 6  99182580.283 6  24221391.070    24221399.309
  24221399.293          36.700          41.400
 116700697.506 7  90935632.48145  22207401.422
  22207405.102          44.600          32.800
 114719116.585 7  89391543.674 7  21830318.734    21830322.648
  21830322.449          46.600          45.900
 118341592.488 7  92214259.32545  22519653.719
  22519656.797          44.600          30.800
 21  5 10  0 24  0.0000000  0  8G18G29G31G26G09G16G05G20
 114801222.280 7  89455531.504 7  21845942.148    21845946.984
  21845946.992          46.000          47.800
 110074458.271 8  85772331.036 8  20946466.711    20946470.926
  20946470.867          49.100          48.800
 130164073.625 6 101426578.487 6  24769403.766    24769409.723
  24769409.559          38.600          39.500
 111660693.990 8  87008382.257 8  21248322.047    21248328.836
  21248328.594          48.200          49.100
 127337898.688 6  99224369.001 6  24231596.828    24231604.000
  24231604.172          38.000          40.400
 116624710.320 7  90876421.72145  22192940.992
  22192944.867          44.900          31.500
 114699555.966 7  89376301.651 7  21826596.094    21826600.359
  21826600.512          46.900          45.800
 118259741.762 7  92150479.56045  22504077.469
  22504080.348          44.600          30.300
 21  5 10  0 24 30.0000000  0  8G18G29G31G26G09G16G05G20
 114715663.822 7  89388862.581 7  21829661.328    21829665.230
  21829665.918          46.400          47.800
 110126957.359 7  85813239.412 8  20956456.789    20956461.219
  20956461.441          47.300          48.600
 130271773.442 6 101510500.345 6  24789897.805    24789904.363
  24789904.000          36.300          37.900
 111645155.427 8  86996274.285 8  21245365.297    21245372.148
  21245372.422          48.400          49.300
 127392054.279 6  99266568.170 6  24241902.008    24241909.797
  24241910.230          36.300          39.800
 116549203.595 7  90817585.32945  22178572.586
  22178576.168          43.800          31.900
 114680651.176 7  89361570.642 7  21822999.109    21823003.262
  21823002.965          46.700          45.900
 118178294.713 7  92087014.35145  22488578.953
  22488582.074          44.300          30.900
 21  5 10  0 25  0.0000000  0  8G18G29G31G26G09G16G05G20
 114630496.591 7  89322498.509 8  21813454.625    21813458.645
  21813458.934          46.000          48.200
 110179945.511 7  85854528.869 8  20966540.117    20966544.590
  20966544.520          47.900          48.800
 130379620.142 6 101594536.636 6  24810421.156    24810426.754
  24810426.332          38.400          40.200
 111630222.432 7  86984638.185 8  21242523.367    21242530.398
  21242530.445          47.800          49.500
 127446734.642 6  99309176.177 6  24252307.844    24252315.145
  24252315.301          37.600          40.500
 116474179.975 7  90759125.38445  22164296.359
  22164299.801          44.400          31.600
 114662403.120 7  89347351.389 7  21819526.727    21819530.316
  21819530.211          46.400          45.600
 118097253.757 7  92023865.58045  22473157.109
  22473160.570          44.100          30.200
 21  5 10  0 25 30.0000000  0  8G18G29G31G26G09G16G05G20
 114545722.550 7  89256440.829 7  21797322.164    21797326.805
  21797326.809          47.200          47.200
 110233421.373 7  85896198.363 8  20976716.609    20976720.801
  20976720.676          47.800          48.500
 130487610.693 6 101678685.035 6  24830971.555    24830977.344
  24830977.223          40.400          39.900
 111615895.618 7  86973474.440 8  21239797.078    21239804.430
  21239804.645          47.600          50.000
 127501937.560 6  99352191.451 6  24262812.969    24262820.320
  24262820.668          39.800          40.800
 116399641.634 7  90701043.58745  22150111.938
  22150115.668          44.000          32.400
 114644812.604 7  89333644.497 7  21816179.023    21816182.941
  21816182.727          45.900          46.400
 118016621.181 7  91961035.02745  22457813.281
  22457816.594          45.100          30.900
 21  5 10  0 26  0.0000000  0  8G18G29G31G26G09G16G05G20
 114461343.776 7  89190691.152 7  21781265.680    21781270.070
  21781270.133          46.700          47.800
 110287383.623 8  85938246.854 8  20986985.164    20986988.910
  20986989.063          48.100          48.800
 130595742.552 6 101762943.570 6  24851549.250    24851553.609
  24851553.176          41.600          40.000
 111602175.705 7  86962783.595 8  21237186.523    21237193.527
  21237193.777          45.700          49.900
 127557661.171 6  99395612.400 6  24273416.422    24273423.059
  24273423.461          39.600          38.500
 116325590.991 7  90643341.80545  22136020.813
  22136023.887          45.200          31.800
 114627880.098 7  89320450.339 7  21812957.000    21812960.656
  21812960.613          44.600          45.900
 117936399.626 7  91898524.75445  22442547.211
  22442550.805          44.400          31.200
 21  5 10  0 26 30.0000000  0  8G18G29G31G26G09G16G05G20
 114377362.122 7  89125250.926 7  21765284.625    21765288.910
  21765289.215          46.400          47.900
 110341830.950 7  85980673.339 8  20997346.375    20997350.602
  20997350.719          47.400          48.800
 130704012.835 6 101847309.876 6  24872151.883    24872157.703
  24872157.520          40.200          40.300
 111589063.083 8  86952565.976 8  21234690.813    21234698.543
  21234698.637          48.200          49.600
 127613903.223 6  99439437.376 6  24284119.070    24284125.914
  24284125.961          39.200          38.800
 116252030.525 7  90586021.97445  22122022.984
  22122026.199          44.500          32.300
 114611606.236 7  89307769.422 7  21809859.938    21809863.887
  21809864.047          46.400          46.000
 117856591.328 7  91836336.51145  22427360.547
  22427363.891          45.200          31.900
 21  5 10  0 27  0.0000000  0  8G18G29G31G26G09G16G05G20
 114293779.775 7  89060121.847 8  21749379.492    21749383.793
  21749384.281          45.600          48.700
 110396761.779 7  86023476.575 8  21007799.477    21007803.516
  21007803.305          47.900          48.400
 130812418.788 6 101931781.952 6  24892780.164    24892786.160
  24892786.043          38.900          38.900
 111576558.567 8  86942822.198 8  21232311.539    21232318.418
  21232318.578          48.300          49.900
 127670661.765 6  99483664.823 6  24294920.023    24294926.742
  24294926.930          39.600          39.000
 116178962.515 7  90529085.87845  22108118.422
  22108121.770          45.000          32.400
 114595991.593 7  89295602.165 7  21806888.641    21806893.094
  21806892.730          46.400          45.800
 117777198.796 7  91774472.23045  22412252.484
  22412256.102          44.700          31.700
 21  5 10  0 27 30.0000000  0  8G18G29G31G26G09G16G05G20
 114210598.645 7  88995305.419 8  21733550.164    21733555.152
  21733555.336          46.300          48.800
 110452175.033 8  86066655.730 8  21018344.164    21018348.371
  21018348.340          48.000          48.500
 130920957.502 6 102016357.492 6  24913434.633    24913440.746
  24913440.543          40.000          38.300
 111564662.636 7  86933552.641 8  21230047.734    21230054.152
  21230054.652          47.700          50.000
 127727934.622 6  99528293.005 6  24305818.883    24305825.527
  24305825.949          37.900          40.100
 116106389.631 7  90472535.59545  22094308.055
  22094311.465          44.700          33.100
 114581037.233 7  89283949.426 7  21804042.938    21804046.961
  21804046.848          46.500          46.300
 117698224.656 7  91712933.98045  22397224.508
  22397228.195          45.800          32.700
 21  5 10  0 28  0.0000000  0  8G18G29G31G26G09G16G05G20
 114127820.524 7  88930803.022 8  21717798.352    21717802.824
  21717803.117          46.700          49.300
 110508069.166 8  86110209.592 8  21028980.688    21028984.215
  21028984.313          48.400          48.400
 131029625.904 7 102101034.100 5  24934115.039    24934119.832
  24934119.801          42.000          35.200
 111553375.563 7  86924757.526 8  21227900.109    21227906.793
  21227907.211          47.900          50.200
 127785719.458 6  99573320.128 6  24316815.727    24316822.098
  24316822.121          40.200          40.700
 116034313.840 7  90416372.66445  22080592.148
  22080595.895          44.500          32.300
 114566742.833 7  89272810.934 7  21801322.609    21801326.676
  21801326.539          46.600          46.200
 117619670.999 7  91651723.37145  22382276.000
  22382279.727          44.600          31.400
 21  5 10  0 28 30.0000000  0  8G18G29G31G26G09G16G05G20
 114045447.589 7  88866616.349 8  21702123.391    21702127.809
  21702128.129          46.600          49.000
 110564442.591 8  86154136.922 8  21039707.758    21039712.031
  21039711.918          48.200          48.200
 131138421.479 6 102185809.966 5  24954817.352    24954820.230
  24954821.715          38.400          32.600
 111542698.159 7  86916437.467 8  21225867.969    21225874.941
  21225875.375          47.800          50.200
 127844014.396 6  99618744.712 6  24327908.531    24327914.980
  24327915.199          37.000          40.500
 115962737.575 7  90360598.95845  22066971.859
  22066974.898          43.000          31.500
 114553109.246 7  89262187.363 7  21798728.516    21798732.207
  21798732.125          46.600          45.600
 117541540.635 7  91590842.60045  22367408.422
  22367411.633          45.000          31.200
 21  5 10  0 29  0.0000000  0  8G18G29G31G26G09G16G05G20
 113963482.000 7  88802747.102 8  21686525.898    21686530.402
  21686530.457          47.500          49.600
 110621294.209 7  86198436.878 8  21050526.211    21050530.492
  21050530.234          47.300          48.500
 131247341.648 5 102270682.785 6  24975543.039    24975549.285
  24975548.855          34.700          37.800
 111532631.055 7  86908592.978 8  21223952.367    21223959.465
  21223959.742          47.300          49.400
 127902817.383 6  99664565.185 6  24339098.609    24339104.348
  24339104.449          37.600          40.100
 115891663.452 7  90305216.52845  22053446.750
  22053450.086          44.000          32.800
 114540137.381 7  89252079.410 7  21796260.008    21796263.914
  21796264.090          46.700          46.500
 117463835.816 7  91530293.42245  22352621.164
  22352625.035          45.100          32.100
 21  5 10  0 29 30.0000000  0  7G18G29G26G09G16G05G20
 113881925.988 7  88739196.989 8  21671005.906    21671010.852
  21671010.738          47.000          49.100
 110678623.191 7  86243108.804 8  21061435.625    21061439.586
  21061439.820          47.100          48.600
 111523175.063 7  86901224.673 8  21222152.711    21222159.703
  21222159.980          47.700          49.700
 127962126.599 6  99710780.114 7  24350384.969    24350391.281
  24350391.363          37.700          42.200
 115821094.395 7  90250227.68245  22040018.203
  22040021.320          43.500          32.700
 114527827.995 7  89242487.673 7  21793917.977    21793921.594
  21793921.426          45.800          46.100
 117386559.754 7  91470078.34445  22337916.547
  22337920.188          45.300          32.000
 21  5 10  0 30  0.0000000  0  7G18G29G26G09G16G05G20
 113800781.122 7  88675967.234 8  21655564.391    21655569.242
  21655569.277          46.700          48.500
 110736427.560 7  86288151.157 8  21072435.313    21072439.691
  21072439.605          47.600          48.300
 111514330.250 7  86894332.614 8  21220470.016    21220477.199
  21220477.172          47.000          49.900
 128021939.386 6  99757387.468 6  24361766.461    24361773.117
  24361773.570          36.900          41.800
 115751031.978 7  90195633.60445  22026685.297
  22026688.992          44.300          33.100
 114516180.986 7  89233412.092 7  21791701.008    21791705.910
  21791705.762          46.500          46.400
 117309713.962 7  91410198.53345  22323293.102
  22323296.715          46.000          32.200
 21  5 10  0 30 30.0000000  0  7G18G29G26G09G16G05G20
 113720049.237 7  88613059.302 8  21640201.844    21640206.621
  21640206.785          47.200          48.300
 110794705.780 8  86333562.747 7  21083525.727    21083529.582
  21083529.410          48.000          47.700
 111506096.804 7  86887916.946 8  21218903.055    21218910.227
  21218910.504          46.100          49.700
 128082253.424 6  99804385.390 7  24373243.813    24373250.344
  24373250.742          39.700          42.800
 115681477.992 7  90141435.71445  22013450.180
  22013453.371          44.000          31.800
 114505196.665 7  89224852.887 7  21789611.031    21789615.055
  21789614.992          45.900          46.400
 117233300.689 7  91350655.74345  22308752.430
  22308755.691          45.500          31.700
 21  5 10  0 31  0.0000000  0  7G18G29G26G09G16G05G20
 113639731.871 7  88550474.357 7  21624917.719    21624922.273
  21624922.332          46.000          47.900
 110853455.923 7  86379342.077 7  21094705.133    21094709.422
  21094709.316          47.800          47.500
 111498474.847 7  86881977.755 8  21217453.359    21217459.793
  21217460.281          47.800          50.000
 128143066.132 6  99851771.842 7  24384815.570    24384823.066
  24384823.602          39.400          43.000
 115612434.904 7  90087635.92945  22000311.070
  22000315.473          43.900          32.600
 114494875.110 7  89216810.114 7  21787646.805    21787650.984
  21787650.984          47.200          46.400
 117157322.319 7  91291451.83745  22294294.047
  22294297.887          45.800          32.300
 21  5 10  0 31 30.0000000  0  7G18G29G26G09G16G05G20
 113559831.350 7  88488214.224 7  21609713.414    21609717.887
  21609717.785          46.300          47.500
 110912676.921 8  86425488.301 8  21105974.641    21105978.441
  21105978.504          48.300          48.200
 111491465.142 7  86876515.656 8  21216119.102    21216125.875
  21216126.191          47.900          50.400
 128204375.675 6  99899545.484 6  24396483.188    24396490.051
  24396490.453          39.200          41.600
 115543905.235 7  90034236.20345  21987270.867
  21987274.188          43.800          32.500
 114485217.001 7  89209284.328 7  21785808.914    21785813.281
  21785813.246          47.000          46.300
 117081781.623 7  91232588.97345  22279918.766
  22279922.309          45.400          31.300
 21  5 10  0 32  0.0000000  0  7G18G29G26G09G16G05G20
 113480349.500 7  88426280.329 8  21594588.531    21594593.117
  21594593.152          46.800          48.300
 110972367.258 8  86472000.230 8  21117333.875    21117337.602
  21117337.648          48.000          48.100
 111485067.952 7  86871530.830 8  21214901.531    21214908.445
  21214908.844          46.300          50.000
 128266179.720 6  99947704.411 7  24408244.594    24408250.723
  24408251.250          39.400          42.200
 115475891.394 7  89981238.41745  21974328.094
  21974331.684          44.900          33.600
 114476222.524 7  89202275.654 7  21784097.781    21784101.922
  21784102.070          45.900          46.400
 117006680.174 7  91174068.37945  22265627.563
  22265631.309          45.800          31.500
 21  5 10  0 32 30.0000000  0  7G18G29G26G09G16G05G20
 113401288.456 7  88364674.336 8  21579543.328    21579548.066
  21579548.391          46.600          48.300
 111032525.981 7  86518877.152 8  21128781.258    21128785.422
  21128785.633          47.200          48.000
 111479283.841 7  86867023.729 8  21213800.797    21213807.801
  21213807.871          47.000          49.800
 128328476.203 6  99996247.102 6  24420098.570    24420105.441
  24420105.441          39.200          40.800
 115408395.672 7  89928644.36945  21961484.445
  21961487.297          44.600          33.400
 114467892.749 7  89195784.920 7  21782512.570    21782516.469
  21782516.246          46.900          46.400
 116932020.915 7  91115892.35445  22251420.211
  22251423.813          45.400          32.200
 21  5 10  0 33  0.0000000  0  7G18G29G26G09G16G05G20
 113322649.859 7  88303397.511 8  21564579.070    21564583.680
  21564584.145          47.500          48.000
 111093151.077 7  86566117.472 7  21140317.711    21140321.715
  21140321.770          47.900          47.600
 111474112.902 7  86862994.418 8  21212816.859    21212823.656
  21212823.926          47.600          49.900
 128391262.570 6 100045171.511 6  24432046.398    24432053.367
  24432053.305          38.900          41.800
 115341419.795 7  89876455.38145  21948739.141
  21948741.961          45.600          33.300
 114460227.076 7  89189811.669 7  21781053.055    21781057.832
  21781057.531          47.100          46.300
 116857806.064 7  91058062.62045  22237297.672
  22237301.508          45.000          32.100
 21  5 10  0 33 30.0000000  0  7G18G29G26G09G16G05G20
 113244435.475 7  88242451.248 8  21549695.633    21549699.992
  21549700.203          47.000          48.800
 111154240.714 7  86613719.783 7  21151942.406    21151946.512
  21151946.461          46.900          47.700
 111469555.238 7  86859442.999 8  21211949.414    21211956.500
  21211956.613          46.900          49.500
 128454536.367 5 100094475.771 6  24444085.422    24444094.059
  24444094.359          34.400          41.300
 115274966.086 7  89824673.27745  21936093.477
  21936096.430          45.900          32.600
 114453226.060 7  89184356.334 7  21779721.242    21779725.344
  21779725.273          46.600          46.800
 116784037.763 7  91000580.85145  22223260.039
  22223263.371          45.300          31.700
 21  5 10  0 34  0.0000000  0  7G18G29G26G09G16G05G20
 113166647.036 7  88181836.906 8  21534892.773    21534897.480
  21534897.457          47.600          49.700
 111215793.299 7  86661682.829 7  21163656.156    21163659.586
  21163659.664          47.600          47.700
 111465610.995 7  86856369.558 8  21211199.297    21211205.988
  21211206.309          46.500          49.500
 128518295.147 6 100144157.835 6  24456220.203    24456226.742
  24456226.938          38.700          40.900
 115209036.737 7  89773299.76245  21923547.094
  21923550.344          44.700          33.000
 114446889.158 7  89179418.497 7  21778515.336    21778519.473
  21778519.484          46.700          46.400
 116710718.510 7  90943449.00045  22209307.492
  22209311.922          45.200          32.400
 21  5 10  0 34 30.0000000  0  7G18G29G26G09G16G05G20
 113089286.885 7  88121556.313 8  21520171.789    21520176.285
  21520176.523          47.200          49.500
 111277807.911 7  86710005.894 7  21175457.195    21175460.789
  21175460.840          47.900          47.300
 111462280.877 7  86853774.665 8  21210565.305    21210572.281
  21210572.293          45.900          50.300
 128582537.073 6 100194216.476 6  24468442.938    24468451.090
  24468451.867          36.900          40.500
 115143634.198 7  89722336.76045  21911101.617
  21911104.535          44.500          33.400
 114441217.024 7  89174998.651 7  21777435.969    21777440.230
  21777440.156          45.700          45.500
 116637850.314 7  90886668.62545  22195441.375
  22195445.113          45.400          32.300
 21  5 10  0 35  0.0000000  0  7G18G29G26G09G16G05G20
 113012356.819 7  88061610.854 8  21505532.250    21505536.809
  21505537.023          47.500          49.500
 111340283.200 8  86758687.934 8  21187345.438    21187349.406
  21187349.441          48.100          48.300
 111459565.089 7  86851658.472 8  21210048.367    21210055.355
  21210055.660          46.900          50.300
 128647259.608 6 100244649.536 6  24480761.570    24480768.492
  24480769.434          40.000          40.100
 115078760.490 7  89671785.81945  21898756.523
  21898759.504          44.900          33.000
 114436210.104 7  89171097.148 7  21776483.172    21776487.367
  21776487.449          46.900          46.200
 116565435.752 7  90830241.71045  22181661.563
  22181665.242          45.600          33.300
 21  5 10  0 35 30.0000000  0  7G18G29G26G09G16G05G20
 112935858.579 7  88002001.863 8  21490975.352    21490979.719
  21490979.945          46.800          49.100
 111403217.159 8  86807727.371 7  21199321.477    21199325.438
  21199325.449          48.200          47.400
 111457463.753 7  86850021.060 8  21209648.695    21209655.398
  21209655.711          47.000          49.300
 128712460.461 6 100295455.420 6  24493167.852    24493175.605
  24493176.086          38.900          38.700
 115014417.988 7  89621648.82445  21886512.898
  21886516.313          45.200          33.300
 114431868.452 7  89167714.043 7  21775657.016    21775661.016
  21775660.816          47.500          45.900
 116493477.020 7  90774169.99745  22167968.438
  22167971.789          45.200          33.100
 21  5 10  0 36  0.0000000  0  7G18G29G26G09G16G05G20
 112859793.911 7  87942730.722 8  21476500.266    21476505.145
  21476505.305          47.300          49.100
 111466608.350 8  86857123.095 8  21211384.586    21211388.230
  21211388.367          48.200          48.200
 111455976.873 7  86848862.461 8  21209365.266    21209372.480
  21209372.621          44.900          49.300
 128778137.086 6 100346632.039 6  24505665.711    24505673.402
  24505673.512          39.200          40.900
 114950608.558 7  89571927.21845  21874369.891
  21874373.406          44.800          34.200
 114428192.143 7  89164849.378 7  21774957.102    21774961.227
  21774960.922          44.400          46.000
 116421975.995 7  90718454.93545  22154361.688
  22154365.379          46.300          32.900
 21  5 10  0 36 30.0000000  0  7G18G29G26G09G16G05G20
 112784164.805 7  87883798.976 8  21462108.914    21462113.465
  21462113.848          47.200          49.100
 111530455.175 8  86906873.859 8  21223534.195    21223538.426
  21223538.488          48.600          48.700
 111455104.869 7  86848182.975 8  21209199.648    21209206.504
  21209206.547          45.500          49.100
 128844287.318 6 100398177.588 6  24518254.469    24518261.008
  24518261.387          40.400          39.400
 114887334.881 7  89522623.07645  21862329.430
  21862333.207          45.100          34.700
 114425181.228 7  89162503.212 7  21774384.242    21774388.750
  21774388.711          44.600          45.900
 116350935.341 7  90663098.60545  22140842.930
  22140847.461          46.400          32.600
 21  5 10  0 37  0.0000000  0  7G18G29G26G09G16G05G20
 112708973.259 7  87825208.177 8  21447799.977    21447804.699
  21447804.867          46.000          49.000
 111594756.561 7  86956978.818 8  21235770.086    21235774.590
  21235774.883          47.900          48.100
 111454847.949 7  86847982.782 8  21209150.742    21209157.801
  21209157.875          45.800          49.900
 128910908.771 6 100450090.482 6  24530931.344    24530939.039
  24530938.410          39.900          38.500
 114824598.862 7  89473737.87945  21850391.141
  21850394.930          45.600          34.700
 114422835.757 7  89160675.570 7  21773937.789    21773942.219
  21773942.293          44.700          45.700
 116280357.339 7  90608102.77945  22127412.734
  22127416.500          45.400          32.700
 21  5 10  0 37 30.0000000  0  7G18G29G26G09G16G05G20
 112634221.017 7  87766959.694 8  21433575.305    21433579.715
  21433579.734          46.300          48.800
 111659510.661 8  87007436.538 7  21248092.555    21248097.055
  21248096.848          48.300          47.600
 111455206.209 7  86848261.948 8  21209218.586    21209225.871
  21209226.121          46.800          50.300
 128977999.042 6 100502368.616 6  24543697.719    24543705.859
  24543705.578          38.700          39.500
 114762402.702 7  89425273.35345  21838556.078
  21838559.344          45.700          34.800
 114421156.134 7  89159366.771 7  21773618.336    21773622.473
  21773622.621          46.500          46.000
 116210244.181 7  90553469.16745  22114070.852
  22114074.133          45.800          33.200
 21  5 10  0 38  0.0000000  0  7G18G29G26G09G16G05G20
 112559909.704 7  87709054.799 8  21419434.273    21419438.848
  21419438.875          47.200          49.200
 111724715.814 8  87058245.749 7  21260500.828    21260504.750
  21260504.988          48.100          47.800
 111456179.533 7  86849020.371 8  21209404.328    21209411.059
  21209411.305          46.300          49.500
 129045555.498 6 100555009.907 6  24556554.563    24556560.984
  24556561.270          40.000          39.600
 114700748.368 7  89377231.02945  21826823.328
  21826827.035          45.200          34.800
 114420141.759 7  89158576.336 7  21773425.461    21773429.328
  21773429.344          47.000          45.500
 116140598.041 7  90499199.47145  22100817.586
  22100820.590          47.000          33.200
 21  5 10  0 38 30.0000000  0  7G18G29G26G09G16G05G20
 112486041.100 7  87651494.868 8  21405377.602    21405382.137
  21405382.449          47.500          49.100
 111790370.463 7  87109405.198 7  21272994.414    21272998.477
  21272998.582          47.900          47.900
 111457768.009 7  86850258.147 8  21209706.422    21209713.918
  21209713.879          46.300          49.300
 129113575.771 6 100608012.724 6  24569498.820    24569504.555
  24569504.879          40.400          38.900
 114639637.695 7  89329612.34245  21815194.305
  21815197.730          44.500          34.600
 114419793.124 7  89158304.688 7  21773359.023    21773362.531
  21773362.688          46.000          46.300
 116071420.723 7  90445295.07945  22087653.289
  22087656.734          45.700          33.000
 21  5 10  0 39  0.0000000  0  7G18G29G26G09G16G05G20
 112412617.171 8  87594281.443 8  21391405.578    21391409.848
  21391410.113          48.000          49.500
 111856472.861 7  87160913.543 7  21285573.336    21285577.125
  21285577.164          47.800          47.800
 111459971.842 7  86851975.408 8  21210125.961    21210132.605
  21210132.801          46.500          49.800
 129182057.466 6 100661375.112 6  24582529.234    24582537.160
  24582537.023          39.200          40.500
 114579073.150 7  89282419.21245  21803668.977
  21803672.816          44.500          34.400
 114420110.371 7  89158551.889 7  21773419.445    21773423.266
  21773423.402          46.500          46.000
 116002714.755 7  90391757.99845  22074578.836
  22074582.457          46.400          32.100
 21  5 10  0 39 30.0000000  0  7G18G29G26G09G16G05G20
 112339640.027 7  87537416.158 8  21377518.367    21377522.844
  21377523.215          47.300          50.000
 111923022.040 7  87212770.031 7  21298236.883    21298241.117
  21298240.824          46.800          47.500
 111462791.352 7  86854172.437 8  21210662.492    21210669.395
  21210669.430          47.500          49.300
 129250998.494 5 100715095.387 6  24595648.320    24595656.359
  24595656.313          35.500          39.800
 114519056.924 7  89235653.35145  21792248.039
  21792252.027          45.100          34.900
 114421092.960 7  89159317.541 7  21773606.344    21773610.578
  21773610.578          47.000          46.300
 115934482.814 7  90338590.27845  22061594.883
  22061597.848          46.000          32.400
 21  5 10  0 40  0.0000000  0  7G18G29G26G09G16G05G20
 112267110.748 7  87480899.859 8  21363716.664    21363721.676
  21363721.652          46.400          49.600
 111990015.681 8  87264972.863 7  21310986.078    21310989.520
  21310989.656          48.700          47.700
 111466225.923 7  86856848.719 8  21211316.367    21211323.133
  21211323.313          45.500          49.500
 129320395.697 6 100769171.084 6  24608854.148    24608862.352
  24608862.500          36.700          41.700
 114459590.736 7  89189316.06845  21780932.828
  21780935.715          44.600          34.400
 114422740.215 7  89160601.114 7  21773919.953    21773923.918
  21773924.074          44.600          45.700
 115866726.292 7  90285793.00445  22048701.477
  22048704.457          45.600          33.300
 21  5 10  0 40 30.0000000  0  7G18G29G26G09G16G05G20
 112195031.746 7  87424734.425 8  21350000.234    21350004.695
  21350004.844          47.100          49.900
 112057452.760 7  87317521.225 7  21323818.656    21323822.676
  21323822.508          47.500          47.100
 111470276.188 7  86860004.773 8  21212086.789    21212093.797
  21212094.051          47.300          49.900
 129390247.228 6 100823600.833 6  24622145.500    24622154.152
  24622154.430          36.500          40.700
 114400677.272 7  89143409.49745  21769721.680
  21769724.949          45.500          34.600
 114425052.950 7  89162403.248 7  21774360.141    21774363.531
  21774363.797          46.100          46.300
 115799447.977 7  90233368.35345  22035898.820
  22035901.961          46.400          33.600
 21  5 10  0 41  0.0000000  0  7G18G29G26G09G16G05G20
 112123404.252 7  87368920.814 8  21336370.117    21336374.387
  21336374.453          47.500          49.400
 112125331.047 7  87370413.377 7  21336735.102    21336739.625
  21336739.383          47.600          47.000
 111474941.552 7  86863640.122 8  21212974.617    21212981.207
  21212981.496          46.700          49.800
 129460550.060 6 100878382.180 6  24635525.266    24635532.715
  24635532.613          37.300          41.100
 114342317.818 7  89097934.58145  21758616.211
  21758619.195          44.500          34.200
 114428030.969 7  89164723.769 7  21774926.781    21774931.066
  21774931.168          46.200          45.700
 115732649.511 7  90181317.61245  22023187.305
  22023191.215          46.400          34.100
 21  5 10  0 41 30.0000000  0  7G18G29G26G09G16G05G20
 112052230.210 7  87313460.538 8  21322826.203    21322830.789
  21322830.578          47.000          49.600
 112193649.235 8  87423648.315 7  21349735.719    21349739.535
  21349739.500          48.000          47.200
 111480222.208 7  86867754.915 8  21213979.656    21213986.141
  21213986.367          47.600          49.900
 129531301.917 6 100933513.420 6  24648989.430    24648995.949
  24648996.363          38.400          40.800
 114284514.658 7  89052893.17845  21747616.375
  21747619.891          44.600          34.900
 114431673.523 7  89167562.125 7  21775620.148    21775624.227
  21775624.141          46.000          45.900
 115666333.391 7  90129642.73645  22010567.891
  22010571.531          45.900          33.700
 21  5 10  0 42  0.0000000  0  7G18G29G26G09G16G05G20
 111981511.568 7  87258355.124 8  21309368.656    21309373.641
  21309373.398          47.600          49.600
 112262406.020 7  87477225.023 7  21362820.273    21362823.488
  21362823.742          47.600          47.800
 111486118.235 7  86872349.216 8  21215101.602    21215108.520
  21215108.980          47.200          50.500
 129602500.462 6 100988992.816 6  24662538.461    24662544.449
  24662544.695          39.200          40.600
 114227270.050 7  89008286.99545  21736723.344
  21736726.105          44.900          33.900
 114435980.919 7  89170918.547 7  21776439.383    21776443.355
  21776443.430          46.400          46.300
 115600501.261 7  90078344.97845  21998040.594
  21998043.746          46.100          33.400
 21  5 10  0 42 30.0000000  0  7G18G29G26G09G16G05G20
 111911249.982 7  87203605.850 8  21295998.766    21296003.156
  21296003.000          47.300          49.100
 112331599.730 7  87531142.193 7  21375987.016    21375990.977
  21375990.559          46.200          47.600
 111492629.450 7  86877422.896 8  21216340.383    21216347.371
  21216347.621          46.600          49.500
 129674143.042 6 101044818.169 6  24676171.156    24676178.098
  24676178.063          39.600          39.800
 114170585.797 7  88964117.46045  21725936.578
  21725940.332          45.300          33.800
 114440952.699 7  89174792.668 7  21777385.773    21777389.617
  21777390.086          46.500          46.100
 115535155.680 7  90027426.35745  21985605.336
  21985609.352          45.400          34.000
 21  5 10  0 43  0.0000000  0  7G18G29G26G09G16G05G20
 111841446.774 7  87149213.769 8  21282715.469    21282719.625
  21282719.887          47.000          49.800
 112401228.070 7  87585398.028 7  21389236.789    21389240.938
  21389240.902          46.800          47.000
 111499755.383 7  86882975.565 8  21217696.664    21217703.438
  21217703.555          47.600          49.900
 129746226.754 6 101100987.283 6  24689888.563    24689894.762
  24689894.727          37.100          39.700
 114114463.476 7  88920385.78745  21715256.969
  21715260.164          45.200          34.800
 114446588.652 7  89179184.325 7  21778458.320    21778462.191
  21778462.023          46.200          45.300
 115470298.332 7  89976888.18545  21973263.008
  21973267.516          45.400          33.500
 21  5 10  0 43 30.0000000  0  7G18G29G26G09G16G05G20
 111772104.039 7  87095180.484 8  21269519.711    21269524.664
  21269524.691          47.700          49.800
 112471289.577 7  87639991.400 7  21402569.070    21402572.988
  21402573.063          46.600          46.700
 111507496.291 7  86889007.436 8  21219169.180    21219176.672
  21219176.801          46.000          49.800
 129818749.474 6 101157498.513 6  24703688.828    24703695.070
  24703694.543          41.000          38.800
 114058905.459 7  88877093.84245  21704684.414
  21704688.125          45.200          34.500
 114452888.310 7  89184093.148 7  21779657.195    21779661.051
  21779660.965          46.000          45.600
 115405931.768 7  89926732.43945  21961014.805
  21961018.957          45.600          33.600
 21  5 10  0 44  0.0000000  0  7G18G29G26G09G16G05G20
 111703223.474 7  87041507.327 8  21256412.438    21256416.742
  21256417.090          47.700          49.600
 112541782.892 7  87694921.246 7  21415983.344    21415987.281
  21415987.492          46.300          47.200
 111515851.965 7  86895518.356 8  21220759.039    21220766.559
  21220766.711          45.400          49.800
 129891708.618 6 101214349.775 6  24717572.594    24717578.902
  24717579.371          41.200          39.900
 114003914.015 7  88834243.36545  21694220.406
  21694223.297          44.300          34.700
 114459851.958 7  89189519.349 7  21780982.188    21780985.789
  21780985.766          45.000          44.700
 115342057.882 7  89876960.60545  21948859.773
  21948863.797          44.700          33.500
 21  5 10  0 44 30.0000000  0  7G18G29G26G09G16G05G20
 111634806.654 7  86988195.531 8  21243393.172    21243397.309
  21243397.527          47.300          50.200
 112612706.318 7  87750186.245 7  21429479.438    21429483.234
  21429483.055          47.000          46.400
 111524822.142 7  86902508.097 8  21222466.648    21222473.238
  21222473.500          45.700          49.700
 129965101.438 6 101271538.998 6  24731538.758    24731545.316
  24731545.148          40.500          39.200
 113949490.547 7  88791835.49145  21683863.383
  21683866.633          44.800          35.100
 114467478.600 7  89195462.179 7  21782433.375    21782437.508
  21782436.945          44.100          45.200
 115278678.511 7  89827574.09145  21936799.508
  21936803.359          46.000          33.600
 21  5 10  0 45  0.0000000  0  7G18G29G26G09G16G05G20
 111566856.269 7  86935247.198 8  21230462.289    21230466.762
  21230466.941          47.500          49.800
 112684059.081 7  87805785.782 7  21443057.805    21443061.270
  21443061.352          45.600          46.400
 111534407.604 7  86909977.287 8  21224290.477    21224297.691
  21224297.957          47.000          50.300
 130038926.474 6 101329064.958 6  24745586.750    24745593.074
  24745593.539          39.400          38.200
 113895638.190 7  88749872.63145  21673615.703
  21673619.129          45.300          34.900
 114475768.862 7  89201922.115 7  21784010.938    21784014.715
  21784014.836          46.200          45.800
 115215796.928 7  89778575.45645  21924833.266
  21924837.012          45.900          33.500
 21  5 10  0 45 30.0000000  0  7G18G29G26G09G16G05G20
 111499372.976 8  86882662.815 8  21217620.633    21217625.445
  21217625.520          48.100          50.100
 112755838.555 7  87861717.832 7  21456717.086    21456720.930
  21456720.773          46.900          46.600
 111544607.155 7  86917924.984 8  21226231.625    21226238.262
  21226238.621          47.600          50.200
 130113180.025 6 101386924.937 6  24759714.961    24759723.590
  24759723.352          36.900          38.300
 113842357.893 7  88708355.54045  21663476.648
  21663480.063          45.800          35.700
 114484721.501 7  89208898.188 7  21785714.445    21785719.074
  21785719.043          45.100          46.600
 115153413.870 7  89729965.28645  21912961.977
  21912965.840          46.100          33.100
 21  5 10  0 46  0.0000000  0  7G18G29G26G09G16G05G20
 111432358.379 7  86830443.667 8  21204867.891    21204872.355
  21204872.684          47.800          49.600
 112828042.896 7  87917980.951 7  21470456.898    21470460.918
  21470460.930          47.000          46.400
 111555420.433 7  86926350.906 8  21228289.367    21228296.313
  21228296.699          47.000          49.800
 130187859.462 6 101445116.628 6  24773927.469    24773935.289
  24773935.625          38.800          38.400
 113789651.359 7  88667285.51645  21653447.219
  21653450.699          46.100          35.900
 114494336.098 7  89216390.073 7  21787543.750    21787548.055
  21787548.250          44.100          46.000
 115091531.505 7  89681745.26845  21901186.313
  21901190.109          46.200          34.400
 21  5 10  0 46 30.0000000  0  6G18G29G26G16G05G20
 111365813.643 7  86778590.646 8  21192205.109    21192209.941
  21192209.758          47.900          49.900
 112900669.961 8  87974573.459 7  21484277.836    21484281.195
  21484281.516          48.000          47.200
 111566846.729 7  86935254.517 8  21230463.742    21230470.387
  21230470.684          46.800          49.900
 113737519.837 7  88626663.55746  21643526.945
  21643530.117          44.600          36.000
 114504611.893 7  89224397.177 7  21789499.086    21789503.883
  21789503.867          43.900          45.600
 115030151.126 7  89633916.40745  21889506.297
  21889509.152          46.500          34.000
 21  5 10  0 47  0.0000000  0  6G18G29G26G16G05G20
 111299740.996 7  86727105.486 8  21179631.945    21179636.570
  21179636.609          47.300          49.100
 112973718.621 7  88031494.488 7  21498178.078    21498182.273
  21498182.188          47.100          46.800
 111578886.315 7  86944636.005 8  21232754.852    21232761.855
  21232761.980          47.700          50.200
 113685965.808 7  88586491.59646  21633716.367
  21633719.984          45.800          36.200
 114515548.670 7  89232919.319 7  21791580.383    21791584.797
  21791584.625          45.300          46.000
 114969275.571 7  89586480.90245  21877921.820
  21877924.863          46.200          34.600
 21  5 10  0 47 30.0000000  0  7G18G07G29G26G16G05G20
 111234142.119 7  86675989.486 8  21167148.789    21167153.066
  21167153.195          47.700          49.900
 131624487.50616 102564558.08316  25047307.359    25047312.848
  25047313.543          38.900          39.800
 113047187.389 7  88088742.856 7  21512158.797    21512162.957
  21512163.086          47.600          47.000
 111591538.951 7  86954495.192 8  21235162.406    21235169.082
  21235169.313          46.700          49.400
 113634991.465 7  88546771.34045  21624016.547
  21624019.676          45.400          35.800
 114527146.179 7  89241956.331 7  21793787.883    21793792.238
  21793792.141          44.600          45.800
 114908906.598 7  89539440.15745  21866434.141
  21866437.199          46.500          34.700
 21  5 10  0 48  0.0000000  0  7G18G07G29G26G16G05G20
 111169019.420 7  86625244.546 8  21154756.641    21154761.109
  21154761.012          47.600          49.600
 131542711.443 6 102500836.530 6  25031746.523    25031751.176
  25031751.578          41.000          39.500
 113121075.444 7  88146317.962 7  21526219.188    21526223.492
  21526223.301          47.900          47.000
 111604805.072 7  86964832.427 8  21237686.703    21237694.387
  21237694.504          47.100          49.600
 113584599.159 7  88507504.61346  21614427.148
  21614430.918          46.900          36.300
 114539404.709 7  89251508.415 7  21796120.406    21796124.422
  21796124.484          44.700          45.000
 114849047.189 7  89492796.47345  21855043.883
  21855046.730          46.400          34.800
 21  5 10  0 48 30.0000000  0  7G18G07G29G26G16G05G20
 111104374.822 7  86574872.155 8  21142454.992    21142459.219
  21142459.355          47.000          50.000
 131461268.011 6 102437374.186 6  25016248.063    25016253.273
  25016253.660          38.400          39.200
 113195381.045 7  88204218.422 7  21540359.391    21540363.633
  21540363.289          47.900          46.800
 111618684.661 7  86975647.682 8  21240327.969    21240334.813
  21240334.945          47.500          49.600
 113534791.116 7  88468693.16145  21604948.883
  21604952.254          47.000          35.900
 114552324.467 7  89261575.749 7  21798579.227    21798583.207
  21798582.855          45.300          45.800
 114789699.640 7  89446551.62545  21843749.789
  21843752.852          46.000          34.600
 21  5 10  0 49  0.0000000  0  7G18G07G29G26G16G05G20
 111040208.504 7  86524872.436 8  21130244.500    21130248.523
  21130248.730          46.600          49.200
 131380158.132 5 102374171.775 6  25000813.711    25000819.082
  25000818.809          35.100          38.600
 113270101.166 7  88262441.880 7  21554577.836    21554581.906
  21554581.988          47.600          47.400
 111633175.941 7  86986939.588 8  21243085.344    21243092.234
  21243092.469          47.800          49.500
 113485567.799 7  88430337.34045  21595582.164
  21595585.254          46.700          35.800
 114565902.880 7  89272156.314 7  21801162.945    21801167.316
  21801167.195          46.000          46.600
 114730864.478 7  89400706.06045  21832553.539
  21832557.156          46.300          34.600
 21  5 10  0 49 30.0000000  0  7G18G07G29G26G16G05G20
 110976521.957 7  86475246.551 8  21118125.336    21118130.047
  21118130.152          47.100          50.200
 131299384.151 6 102311230.987 6  24985442.133    24985448.004
  24985447.949          36.000          38.600
 113345233.980 7  88320986.924 7  21568875.055    21568879.266
  21568879.172          47.700          47.200
 111648278.417 7  86998707.751 8  21245959.492    21245966.340
  21245966.355          47.900          49.100
 113436930.775 7  88392438.37146  21586326.875
  21586329.789          46.100          36.000
 114580139.107 7  89283249.468 7  21803872.000    21803876.074
  21803876.094          46.000          46.200
 114672543.012 7  89355260.76845  21821455.758
  21821458.988          45.700          34.400
 21  5 10  0 50  0.0000000  0  7G18G07G29G26G16G05G20
 110913316.748 7  86425995.763 8  21106098.328    21106102.219
  21106102.484          46.700          50.000
 131218948.949 5 102248554.354 6  24970136.438    24970141.223
  24970142.094          35.800          39.500
 113420777.758 7  88379852.181 7  21583250.430    21583255.227
  21583255.230          47.300          46.900
 111663991.617 7  87010951.794 8  21248949.625    21248956.684
  21248956.941          47.500          49.600
 113388881.868 7  88354997.68246  21577183.086
  21577186.430          45.500          36.300
 114595032.596 7  89294854.763 7  21806706.320    21806710.250
  21806710.625          45.900          46.200
 114614737.580 7  89310217.58745  21810455.461
  21810459.000          46.600          34.600
 21  5 10  0 50 30.0000000  0  7G18G07G29G26G16G05G20
 110850594.836 7  86377121.556 8  21094162.609    21094166.504
  21094166.855          46.300          50.100
 131138854.675 6 102186143.271 6  24954894.938    24954899.965
  24954900.164          36.600          38.000
 113496731.308 7  88439036.762 7  21597704.125    21597708.195
  21597708.160          47.000          46.000
 111680315.466 7  87023671.679 8  21252055.953    21252062.676
  21252062.953          47.700          49.100
 113341423.300 7  88318016.98845  21568151.797
  21568155.480          45.400          35.500
 114610583.122 7  89306972.036 7  21809665.539    21809669.750
  21809669.863          46.300          45.600
 114557450.348 7  89265578.18645  21799554.320
  21799557.457          46.200          35.200
 21  5 10  0 51  0.0000000  0  7G18G07G29G26G16G05G20
 110788357.703 7  86328625.099 8  21082319.227    21082323.156
  21082323.336          47.000          50.400
 131059103.671 6 102123999.685 6  24939718.133    24939724.113
  24939724.199          38.400          37.500
 113573092.719 7  88498539.139 7  21612235.484    21612239.402
  21612239.473          46.900          46.000
 111697249.523 7  87036867.039 8  21255278.320    21255285.543
  21255285.570          47.500          49.500
 113294556.426 7  88281497.37445  21559233.641
  21559236.652          45.200          35.100
 114626790.361 7  89319601.034 7  21812749.203    21812753.820
  21812753.859          46.900          46.300
 114500683.100 7  89221343.98445  21788751.664
  21788755.156          47.200          34.900
 21  5 10  0 51 30.0000000  0  7G18G07G29G26G16G05G20
 110726606.961 7  86280507.653 8  21070568.469    21070572.590
  21070572.730          47.200          50.300
 130979698.935 6 102062125.875 6  24924609.063    24924613.797
  24924613.801          39.100          37.900
 113649860.210 7  88558357.965 7  21626843.414    21626847.203
  21626847.375          47.200          46.700
 111714793.362 8  87050537.549 8  21258617.094    21258623.898
  21258624.004          48.300          49.700
 113248283.189 7  88245440.31245  21550427.625
  21550431.395          45.200          35.500
 114643653.690 7  89332741.269 7  21815958.844    21815963.078
  21815963.039          46.800          46.700
 114444437.752 7  89177516.44945  21778049.016
  21778052.238          47.000          35.200
 21  5 10  0 52  0.0000000  0  7G18G07G29G26G16G05G20
 110665343.565 7  86232769.963 8  21058910.180    21058914.637
  21058914.789          46.700          50.200
 130900642.148 6 102000523.240 6  24909565.359    24909569.238
  24909569.344          40.900          37.200
 113727031.594 7  88618491.493 7  21641528.898    21641533.504
  21641533.477          46.800          46.600
 111732945.885 7  87064682.371 8  21262070.938    21262078.121
  21262078.230          47.600          49.100
 113202604.794 7  88209846.76845  21541735.422
  21541738.613          45.600          35.200
 114661171.219 7  89346391.281 7  21819291.859    21819296.820
  21819296.625          47.200          46.500
 114388715.957 7  89134096.88945  21767445.000
  21767448.480          46.100          34.600
 21  5 10  0 52 30.0000000  0  7G18G07G29G26G16G05G20
 110604569.820 7  86185413.801 8  21047345.109    21047349.777
  21047349.766          47.100          50.900
 130821936.207 6 101939193.972 6  24894587.555    24894592.125
  24894591.996          40.500          37.600
 113804606.020 7  88678939.088 7  21656290.867    21656295.129
  21656294.906          46.000          45.900
 111751707.325 7  87079301.672 8  21265641.203    21265648.461
  21265648.672          47.400          49.600
 113157523.678 7  88174718.64245  21533156.961
  21533160.266          45.100          35.700
 114679343.392 7  89360551.398 7  21822750.297    21822754.340
  21822754.262          46.600          45.800
 114333519.784 7  89091086.90345  21756941.242
  21756945.223          46.300          35.100
 21  5 10  0 53  0.0000000  0  7G18G07G29G26G16G05G20
 110544286.622 7  86138439.896 8  21035873.734    21035878.254
  21035878.344          46.400          50.700
 130743583.387 6 101878139.795 6  24879677.938    24879682.000
  24879681.750          40.000          36.200
 113882580.514 7  88739698.422 7  21671129.063    21671132.910
  21671132.914          46.200          45.700
 111771076.555 7  87094394.574 8  21269327.531    21269334.258
  21269334.523          46.600          49.300
 113113040.592 7  88140056.49645  21524691.992
  21524695.383          45.500          35.000
 114698168.784 7  89375220.516 7  21826332.531    21826336.758
  21826336.719          46.600          45.900
 114278850.513 7  89048487.49645  21746537.828
  21746541.840          46.000          33.900
 21  5 10  0 53 30.0000000  0  7G18G07G29G26G16G05G20
 110484495.570 7  86091849.486 8  21024495.609    21024500.613
  21024500.758          47.000          50.800
 130665586.018 6 101817362.642 6  24864834.523    24864839.293
  24864839.543          39.000          37.100
 113960953.975 7  88800768.649 7  21686043.086    21686046.957
  21686047.121          46.100          46.200
 111791053.077 7  87109960.683 8  21273128.805    21273135.676
  21273135.641          47.500          49.600
 113069157.762 7  88105862.09145  21516341.383
  21516344.512          46.000          35.600
 114717646.864 7  89390398.229 7  21830039.031    21830043.051
  21830043.180          46.100          46.000
 114224710.157 7  89006300.21845  21736235.883
  21736239.137          47.000          34.400
 21  5 10  0 54  0.0000000  0  7G18G07G29G26G16G05G20
 110425198.606 7  86045644.085 8  21013212.023    21013216.496
  21013216.609          46.800          50.900
 130587946.717 6 101756864.511 6  24850060.109    24850065.230
  24850065.379          36.500          37.200
 114039725.299 7  88862148.895 7  21701032.531    21701036.688
  21701036.551          46.100          46.100
 111811636.787 7  87125999.931 8  21277045.586    21277052.496
  21277052.633          47.000          49.300
 113025876.767 7  88072136.63645  21508105.906
  21508108.086          46.400          34.900
 114737777.180 7  89406084.177 7  21833869.977    21833873.984
  21833873.945          46.800          46.100
 114171100.908 7  88964526.79345  21726033.992
  21726037.246          46.800          34.800
 21  5 10  0 54 30.0000000  0  7G18G07G29G26G16G05G20
 110366396.726 7  85999824.442 8  21002022.344    21002027.125
  21002026.992          45.900          51.000
 130510667.792 6 101696647.225 6  24835354.820    24835359.137
  24835359.320          37.800          36.100
 114118891.742 7  88923837.010 7  21716097.492    21716101.688
  21716101.734          46.200          46.100
 111832826.586 7  87142511.448 8  21281078.172    21281084.832
  21281085.063          47.400          49.100
 112983198.905 7  88038881.15745  21499984.125
  21499987.129          46.500          35.900
 114758558.071 7  89422277.075 7  21837824.250    21837828.902
  21837828.508          46.700          46.000
 114118024.074 7  88923168.22545  21715934.180
  21715937.027          47.200          34.500
 21  5 10  0 55  0.0000000  0  7G18G07G29G26G16G05G20
 110308091.787 7  85954392.045 8  20990927.266    20990931.344
  20990931.449          46.400          50.700
 130433751.701 6 101636712.627 6  24820717.953    24820723.270
  24820723.273          38.700          37.500
 114198452.072 7  88985832.063 7  21731237.414    21731241.246
  21731241.391          46.200          47.300
 111854622.236 7  87159495.063 8  21285225.656    21285232.211
  21285232.570          46.700          48.800
 112941126.472 7  88006097.43246  21491978.359
  21491981.449          45.700          36.000
 114779989.339 7  89438976.745 7  21841902.828    21841906.637
  21841906.555          45.600          45.300
 114065481.751 7  88882226.16045  21705935.547
  21705938.551          47.200          35.000
 21  5 10  0 55 30.0000000  0  7G18G07G29G26G16G05G20
 110250284.962 7  85909347.777 8  20979927.148    20979931.590
  20979931.832          46.700          50.700
 130357200.826 6 101577062.531 6  24806150.594    24806155.969
  24806155.898          38.700          37.100
 114278404.146 7  89048132.368 7  21746451.141    21746455.938
  21746456.148          45.200          46.600
 111877022.806 7  87176950.053 8  21289488.344    21289494.578
  21289494.629          47.000          49.500
 112899660.521 7  87973786.31346  21484087.234
  21484090.609          46.400          36.500
 114802069.723 7  89456182.226 7  21846104.359    21846108.320
  21846108.125          45.800          45.300
 114013475.385 7  88841701.72045  21696038.953
  21696041.652          46.900          34.000
 21  5 10  0 56  0.0000000  0  8G18G07G29G27G26G16G05G20
 110192978.013 7  85864693.032 8  20969021.844    20969026.254
  20969026.465          47.000          50.500
 130281017.392 6 101517698.826 6  24791653.688    24791659.324
  24791658.883          40.500          37.500
 114358746.738 7  89110736.949 7  21761740.320    21761744.516
  21761744.594          44.800          46.500
 128586856.18116 100197569.90017  24469266.805    24469272.266
  24469271.938          41.600          42.200
 111900027.966 7  87194876.147 8  21293865.992    21293872.688
  21293872.648          46.700          48.700
 112858802.604 7  87941948.98846  21476312.281
  21476315.973          47.100          37.000
 114824798.812 7  89473893.204 7  21850429.211    21850433.676
  21850433.871          46.400          46.700
 113962007.084 7  88801596.56645  21686244.977
  21686247.449          46.400          33.600
 21  5 10  0 56 30.0000000  0  8G18G07G29G27G26G16G05G20
 110136172.078 7  85820428.672 8  20958211.805    20958216.113
  20958216.430          47.900          50.600
 130205204.265 6 101458623.710 6  24777227.219    24777232.047
  24777232.379          40.400          38.000
 114439477.523 7  89173644.038 7  21777103.172    21777107.629
  21777107.457          46.600          46.300
 128470712.808 5 100107068.573 6  24447163.273    24447170.824
  24447171.105          35.200          41.800
 111923636.712 7  87213272.570 8  21298358.688    21298365.535
  21298365.422          47.800          48.800
 112818554.553 7  87910586.87246  21468653.414
  21468656.871          46.800          36.500
 114848175.570 7  89492108.850 7  21854878.086    21854882.117
  21854882.258          46.400          46.300
 113911078.445 7  88761911.91345  21676553.695
  21676556.754          47.300          33.800
 21  5 10  0 57  0.0000000  0  8G18G07G29G27G26G16G05G20
 110079868.642 8  85776555.878 8  20947498.000    20947501.957
  20947502.059          48.000          50.700
 130129763.333 6 101399838.583 6  24762871.031    24762875.863
  24762875.965          40.400          38.400
 114520594.821 7  89236852.312 7  21792538.617    21792542.863
  21792542.891          45.700          45.500
 128354694.14416 100016664.83416  24425087.109    24425092.949
  24425093.277          36.400          40.900
 111947848.436 8  87232138.835 8  21302966.031    21302972.523
  21302972.742          48.000          49.100
 112778917.494 7  87879700.86546  21461110.922
  21461114.430          46.100          36.800
 114872198.403 7  89510827.925 7  21859449.484    21859453.254
  21859453.195          45.900          46.200
 113860690.884 7  88722648.89745  21666964.969
  21666968.348          47.200          34.400
 21  5 10  0 57 30.0000000  0  8G18G07G29G27G26G16G05G20
 110024069.247 7  85733075.835 8  20936879.648    20936883.914
  20936883.984          47.900          50.300
 130054697.290 6 101341345.593 6  24748586.242    24748590.570
  24748590.813          40.600          37.200
 114602097.235 7  89300360.672 7  21808048.539    21808052.527
  21808052.598          46.300          45.700
 128238800.561 6  99926358.206 7  24403031.508    24403039.375
  24403039.523          38.700          42.300
 111972662.529 7  87251474.493 8  21307688.195    21307694.641
  21307694.762          47.600          49.700
 112739893.159 7  87849292.30046  21453684.578
  21453688.379          46.500          37.600
 114896866.919 7  89530050.128 7  21864143.398    21864147.621
  21864147.473          46.400          46.100
 113810846.446 7  88683809.08945  21657479.477
  21657483.250          47.700          34.900
 21  5 10  0 58  0.0000000  0  8G18G07G29G27G26G16G05G20
 109968774.866 8  85689989.309 8  20926357.391    20926361.336
  20926361.570          48.000          50.200
 129980008.053 6 101283146.244 6  24734373.211    24734378.230
  24734378.207          39.800          38.200
 114683982.514 7  89364167.370 7  21823630.750    21823634.695
  21823634.785          46.200          45.200
 128123034.755 6  99836151.131 6  24381002.133    24381010.285
  24381010.242          37.800          41.000
 111998077.840 7  87271278.624 8  21312524.422    21312531.086
  21312531.340          46.500          48.900
 112701482.798 7  87819362.15146  21446375.242
  21446378.957          47.600          36.700
 114922179.894 7  89549774.513 7  21868960.297    21868964.961
  21868964.723          45.800          46.100
 113761546.186 7  88645393.31045  21648098.156
  21648101.441          47.500          34.500
 21  5 10  0 58 30.0000000  0  8G18G07G29G27G26G16G05G20
 109913987.105 7  85647297.566 8  20915931.813    20915935.859
  20915936.031          47.400          50.500
 129905697.884 6 101225242.254 6  24720233.008    24720237.191
  24720237.379          39.500          37.600
 114766248.818 7  89428270.972 7  21839285.313    21839289.449
  21839289.387          46.900          45.500
 128007398.678 6  99746045.131 6  24358996.914    24359004.879
  24359004.711          38.200          39.200
 112024093.767 7  87291550.765 8  21317474.953    21317481.453
  21317481.781          47.200          49.000
 112663688.212 7  87789911.83946  21439183.438
  21439186.473          47.400          36.900
 114948136.284 7  89570000.250 7  21873900.086    21873904.246
  21873904.227          46.800          46.500
 113712791.795 7  88607402.88245  21638820.766
  21638824.324          47.600          35.000
 21  5 10  0 59  0.0000000  0  8G18G07G29G27G26G16G05G20
 109859707.302 7  85605001.621 8  20905602.594    20905606.719
  20905606.809          47.000          50.300
 129831769.508 6 101167635.635 6  24706165.234    24706169.465
  24706168.953          40.700          36.300
 114848894.353 7  89492670.078 7  21855012.469    21855016.785
  21855016.871          47.400          46.000
 127891894.528 7  99656041.889 5  24337018.594    24337023.707
  24337023.781          42.500          30.400
 112050709.478 7  87312290.275 8  21322539.977    21322546.133
  21322546.293          46.900          48.800
 112626510.402 7  87760942.12946  21432108.656
  21432112.195          47.500          36.900
 114974734.771 7  89590726.330 7  21878961.586    21878965.449
  21878965.859          46.000          46.300
 113664585.109 7  88569839.23845  21629647.430
  21629650.746          47.700          35.600
 21  5 10  0 59 30.0000000  0  8G18G07G29G27G26G16G05G20
 109805936.604 7  85563102.403 8  20895370.063    20895374.625
  20895374.711          47.300          50.700
 129758225.039 6 101110328.260 6  24692170.148    24692174.605
  24692174.469          39.500          37.100
 114931917.018 7  89557363.049 7  21870810.844    21870815.184
  21870815.398          46.400          46.400
 127776524.096 7  99566142.776 6  24315064.609    24315070.715
  24315070.813          43.200          40.500
 112077923.991 7  87333496.389 8  21327718.461    21327725.090
  21327725.023          46.700          48.900
 112589950.772 7  87732454.11646  21425151.594
  21425154.984          47.200          37.100
 115001974.269 7  89611951.916 7  21884144.688    21884149.293
  21884149.352          46.300          46.800
 113616927.644 7  88532703.55745  21620578.305
  21620581.863          47.500          35.500
 21  5 10  1  0  0.0000000  0  8G18G07G29G27G26G16G05G20
 109752676.714 7  85521601.200 8  20885235.227    20885239.973
  20885239.918          47.600          50.800
 129685067.010 6 101053322.015 6  24678248.539    24678253.102
  24678252.926          40.400          37.200
 115015315.324 7  89622348.712 7  21886681.492    21886685.789
  21886685.859          46.600          45.700
 127661289.696 6  99476349.818 6  24293135.758    24293142.656
  24293142.410          39.900          40.500
 112105736.825 7  87355168.721 8  21333011.359    21333017.426
  21333017.758          46.900          49.100
 112554011.161 7  87704449.23146  21418312.453
  21418316.246          46.800          37.100
 115029854.175 7  89633676.489 7  21889450.719    21889454.551
  21889454.574          46.300          46.400
 113569821.063 7  88495997.13645  21611614.453
  21611617.879          47.800          35.700
 21  5 10  1  0 30.0000000  0  8G18G07G29G27G26G16G05G20
 109699928.750 7  85480498.904 8  20875197.578    20875201.750
  20875201.859          47.500          51.200
 129612297.598 6 100996618.527 6  24664401.180    24664405.953
  24664405.918          38.800          40.000
 115099087.369 7  89687625.618 7  21902622.859    21902626.992
  21902627.086          46.700          45.700
 127546193.172 6  99386664.285 7  24271233.180    24271240.594
  24271240.305          39.900          42.600
 112134146.938 7  87377306.469 8  21338417.406    21338424.027
  21338424.488          47.600          49.000
 112518692.328 7  87676928.07346  21411591.172
  21411594.730          46.600          37.100
 115058373.261 7  89655899.134 7  21894877.031    21894881.676
  21894881.473          45.700          46.100
 113523266.898 7  88459721.17345  21602755.375
  21602759.063          47.400          35.500
 21  5 10  1  1  0.0000000  0  8G18G07G29G27G26G16G05G20
 109647694.040 8  85439796.557 8  20865257.609    20865262.105
  20865261.984          48.000          48.300
 129539919.177 6 100940219.866 6  24650627.023    24650632.508
  24650632.875          38.900          40.700
 115183231.200 7  89753192.216 7  21918634.906    21918639.332
  21918639.129          47.200          45.700
 127431236.649 6  99297087.816 7  24249357.703    24249364.938
  24249364.926          37.100          43.200
 112163153.386 8  87399908.876 8  21343937.344    21343944.137
  21343944.184          48.300          49.000
 112483996.063 7  87649892.02646  21404988.969
  21404992.340          46.700          37.000
 115087529.862 7  89678618.546 7  21900425.578    21900430.129
  21900430.340          46.700          45.700
 113477266.925 7  88423877.03645  21594002.125
  21594005.723          47.900          35.500
 21  5 10  1  1 30.0000000  0  8G18G07G29G27G26G16G05G20
 109595973.893 7  85399495.144 8  20855415.477    20855419.945
  20855419.984          47.900          51.000
 129467934.216 6 100884127.818 6  24636928.383    24636933.895
  24636934.238          37.800          38.600
 115267745.747 7  89819047.679 7  21934717.375    21934721.750
  21934721.543          47.000          45.200
 127316422.117 6  99207622.093 7  24227509.625    24227516.805
  24227516.527          39.000          44.000
 112192755.412 7  87422975.387 8  21349570.086    21349577.590
  21349577.461          47.300          49.000
 112449923.630 7  87623342.09446  21398505.328
  21398508.938          45.400          37.000
 115117323.297 7  89701834.194 7  21906095.570    21906099.789
  21906099.555          47.000          45.000
 113431822.303 7  88388465.64646  21585354.141
  21585357.328          47.500          36.000
 21  5 10  1  2  0.0000000  0  8G18G07G29G27G26G16G05G20
 109544769.640 7  85359595.737 8  20845671.875    20845676.059
  20845676.164          47.900          50.800
 129396344.499 6 100828343.620 6  24623306.305    24623310.824
  24623310.906          41.800          37.900
 115352628.573 7  89885190.130 7  21950869.719    21950874.129
  21950873.828          46.300          45.300
 127201751.751 6  99118268.633 7  24205688.266    24205695.336
  24205695.109          40.000          43.900
 112222952.032 7  87446505.201 8  21355316.648    21355323.469
  21355323.500          47.900          49.000
 112416476.348 7  87597279.27646  21392140.609
  21392143.969          46.000          37.300
 115147752.524 7  89725545.253 7  21911885.719    21911889.672
  21911889.449          46.400          45.400
 113386934.658 7  88353488.27446  21576812.391
  21576815.789          47.900          36.900
 21  5 10  1  2 30.0000000  0  8G18G07G29G27G26G16G05G20
 109494082.494 8  85320099.270 8  20836025.891    20836030.688
  20836030.918          48.200          50.900
 129325152.508 6 100772869.354 6  24609758.969    24609763.367
  24609763.371          41.400          38.700
 115437877.634 7  89951617.956 7  21967092.273    21967096.637
  21967096.402          45.300          45.000
 127087227.579 6  99029029.079 6  24183894.883    24183902.074
  24183901.848          39.600          41.500
 112253742.293 7  87470497.611 8  21361176.266    21361182.367
  21361182.527          47.100          49.200
 112383655.465 7  87571704.57446  21385894.648
  21385898.227          45.200          37.300
 115178815.695 7  89749750.299 7  21917797.094    21917800.875
  21917800.699          45.800          45.600
 113342605.413 8  88318945.99646  21568376.875
  21568380.285          48.000          36.000
 21  5 10  1  3  0.0000000  0  8G18G07G29G27G26G16G05G20
 109443913.859 8  85281006.833 8  20826479.680    20826484.160
  20826484.324          48.100          51.300
 129254360.865 6 100717707.065 6  24596288.117    24596291.531
  24596291.203          41.700          37.700
 115523491.356 7  90018329.927 7  21983383.945    21983388.363
  21983388.402          45.500          45.400
 126972851.619 6  98939904.996 6  24162129.906    24162136.023
  24162136.160          38.500          40.200
 112285125.336 7  87494951.926 8  21367147.664    21367154.633
  21367154.891          47.000          49.100
 112351462.242 7  87546618.94946  21379768.820
  21379771.977          45.600          36.700
 115210512.111 7  89774448.804 7  21923828.641    21923832.719
  21923832.156          46.000          45.600
 113298836.244 8  88284840.14946  21560047.883
  21560050.926          48.100          36.100
 21  5 10  1  3 30.0000000  0  8G18G07G29G27G26G16G05G20
 109394265.047 8  85242319.449 8  20817031.836    20817036.320
  20817036.227          48.300          51.700
 129183971.905 6 100662858.503 6  24582892.813    24582897.910
  24582897.914          39.800          39.400
 115609468.095 7  90085324.771 7  21999744.914    21999749.027
  21999748.871          45.600          44.600
 126858626.177 6  98850898.178 6  24140392.273    24140399.992
  24140399.992          37.700          40.200
 112317100.235 7  87519867.425 8  21373231.953    21373239.383
  21373239.527          46.400          49.600
 112319898.078 7  87522023.50946  21373761.820
  21373765.527          45.600          37.100
 115242840.239 7  89799639.542 7  21929980.016    21929984.438
  21929984.184          46.200          45.100
 113255628.704 7  88251171.94046  21551825.625
  21551829.426          47.900          36.300
 21  5 10  1  4  0.0000000  0  8G18G07G29G27G26G16G05G20
 109345137.693 8  85204038.399 8  20807683.563    20807687.715
  20807687.746          48.100          51.400
 129113988.081 6 100608325.693 6  24569575.688    24569580.770
  24569580.199          39.900          37.500
 115695806.193 7  90152601.207 7  22016174.352    22016178.309
  22016178.199          45.700          44.300
 126744553.695 6  98762010.595 6  24118685.398    24118693.094
  24118692.520          39.400          41.500
 112349666.394 7  87545243.634 8  21379429.570    21379436.594
  21379436.766          46.200          49.100
 112288964.988 7  87497919.81346  21367875.891
  21367879.031          46.200          36.500
 115275799.527 7  89825322.081 7  21936252.531    21936255.672
  21936255.910          46.000          45.400
 113212984.687 7  88217942.84346  21543710.969
  21543714.059          47.300          36.000
 21  5 10  1  4 30.0000000  0  8G18G07G29G27G26G16G05G20
 109296532.362 8  85166164.136 8  20798434.016    20798438.449
  20798438.508          48.400          51.200
 129044411.168 6 100554109.962 6  24556335.539    24556339.695
  24556340.328          39.400          39.500
 115782503.312 7  90220157.391 7  22032672.656    22032676.441
  22032676.578          45.200          45.200
 126630635.635 6  98673243.319 6  24097009.219    24097014.852
  24097014.797          40.400          39.900
 112382822.171 7  87571079.299 8  21385738.789    21385746.023
  21385746.172          46.800          49.600
 112258663.050 7  87474307.91446  21362109.227
  21362112.844          46.100          36.900
 115309388.073 7  89851494.980 7  21942643.969    21942648.207
  21942648.020          46.700          45.500
 113170904.600 7  88185153.16445  21535703.289
  21535706.090          47.500          35.800
 21  5 10  1  5  0.0000000  0  8G18G07G29G27G26G16G05G20
 109248449.826 7  85128697.227 8  20789283.977    20789288.281
  20789288.492          47.800          51.300
 128975243.092 6 100500212.774 6  24543172.242    24543178.031
  24543177.918          39.200          39.600
 115869557.225 7  90287991.592 7  22049238.445    22049242.766
  22049242.676          46.000          45.300
 126516873.483 6  98584597.546 6  24075359.422    24075366.789
  24075366.605          38.400          39.800
 112416566.142 7  87597373.286 8  21392159.602    21392167.215
  21392167.363          46.200          49.300
 112228993.147 7  87451188.51646  21356463.328
  21356466.668          45.400          37.200
 115343604.233 7  89878156.901 7  21949155.078    21949158.563
  21949158.426          46.600          45.700
 113129389.674 7  88152803.87745  21527803.188
  21527806.363          47.800          35.900
 21  5 10  1  5 30.0000000  0  8G18G07G29G27G26G16G05G20
 109200891.769 8  85091639.007 8  20780233.820    20780238.480
  20780238.551          48.400          51.400
 128906486.458 6 100446636.269 6  24530089.477    24530094.152
  24530094.070          40.100          36.400
 115956966.444 7  90356102.650 7  22065871.617    22065876.352
  22065876.469          44.900          46.300
 126403270.032 6  98496075.404 6  24053741.664    24053748.637
  24053748.602          38.300          40.200
 112450897.664 7  87624125.109 8  21398693.078    21398700.109
  21398700.473          46.600          48.700
 112199956.732 7  87428562.74246  21350937.930
  21350941.352          45.800          36.800
 115378447.075 7  89905307.155 7  21955785.773    21955789.660
  21955789.797          46.600          44.600
 113088441.920 7  88120896.54646  21520011.547
  21520014.438          47.600          36.400
 21  5 10  1  6  0.0000000  0  8G18G07G29G27G26G16G05G20
 109153859.202 7  85054990.259 8  20771283.836    20771288.445
  20771288.422          47.800          51.400
 128838143.112 6 100393381.676 5  24517083.922    24517089.176
  24517088.125          40.400          34.400
 116044728.937 7  90424488.979 7  22082572.156    22082577.328
  22082577.148          45.100          46.400
 126289827.076 6  98407678.362 6  24032153.531    24032161.797
  24032160.883          36.700          39.200
 112485815.532 7  87651333.836 8  21405337.375    21405344.684
  21405344.902          47.000          49.400
 112171555.226 7  87406431.71346  21345533.258
  21345536.875          46.100          37.300
 115413914.463 7  89932944.070 7  21962534.844    21962539.023
  21962538.672          47.800          45.300
 113048062.389 7  88089431.97546  21512327.234
  21512330.727          47.600          36.400
 21  5 10  1  6 30.0000000  0  8G18G07G29G27G26G16G05G20
 109107353.540 8  85018752.098 8  20762434.117    20762438.598
  20762438.523          48.200          50.900
 128770215.806 6 100340451.251 5  24504157.469    24504161.246
  24504161.570          39.800          35.500
 116132843.173 7  90493149.381 7  22099339.828    22099344.703
  22099344.957          45.300          45.800
 126176546.781 6  98319408.076 6  24010597.945    24010604.766
  24010604.523          37.900          38.600
 112521318.775 7  87678998.691 8  21412093.641    21412100.609
  21412101.004          47.000          49.800
 112143789.603 7  87384796.16246  21340249.695
  21340253.313          45.700          37.400
 115450005.508 7  89961066.963 7  21969402.516    21969406.441
  21969406.145          46.300          45.500
 113008252.434 7  88058411.24246  21504751.328
  21504755.250          47.300          36.300
 21  5 10  1  7  0.0000000  0  8G18G07G29G27G26G16G05G20
 109061375.855 7  84982925.337 8  20753684.680    20753689.023
  20753688.973          47.600          50.900
 128702706.507 6 100287846.603 6  24491310.594    24491314.465
  24491315.656          38.900          37.100
 116221306.781 7  90562082.047 7  22116174.516    22116178.449
  22116178.582          45.500          44.700
 126063431.510 6  98231266.306 7  23989072.586    23989079.320
  23989078.930          41.200          42.500
 112557406.278 7  87707118.802 8  21418960.969    21418968.086
  21418968.223          47.300          49.000
 112116661.095 7  87363657.06746  21335087.211
  21335090.703          45.700          37.000
 115486719.055 7  89989674.905 7  21976388.984    21976393.113
  21976393.109          47.800          45.300
 112969013.588 7  88027835.51946  21497284.523
  21497288.113          47.300          36.700
 21  5 10  1  7 30.0000000  0  9G18G07G29G27G23G26G16G05G20
 109015926.808 8  84947510.501 8  20745036.242    20745040.293
  20745040.527          48.500          51.200
 128635617.074 6 100235569.118 6  24478544.398    24478548.074
  24478548.602          39.400          36.900
 116310117.903 7  90631285.496 7  22133074.273    22133078.133
  22133078.207          46.100          44.500
 125950482.719 6  98143254.345 6  23967578.703    23967586.273
  23967586.051          39.000          40.400
 129676956.40016                  24676704.227
                        40.000
 112594076.427 7  87735692.939 8  21425939.172    21425946.027
  21425946.313          47.300          49.400
 112090170.279 7  87343014.87746  21330046.328
  21330049.590          46.200          37.000
 115524052.849 7  90018766.158 7  21983493.164    21983497.676
  21983497.426          47.200          44.600
 112930346.809 7  87997705.56946  21489926.609
  21489929.355          47.900          36.800
 21  5 10  1  8  0.0000000  0  9G18G07G29G27G23G26G16G05G20
 108971007.659 7  84912508.580 8  20736488.273    20736492.711
  20736492.574          47.500          50.700
 128568949.554 6 100183620.424 6  24465856.539    24465862.848
  24465862.676          38.900          40.200
 116399275.026 7  90700758.590 7  22150040.039    22150044.633
  22150044.563          45.800          44.700
 125837702.716 6  98055373.878 7  23946117.977    23946124.902
  23946124.906          41.200          42.400
 129559525.549 6 100955490.28316  24654357.664    24654363.426
  24654363.414          39.700          39.700
 112631328.231 7  87764720.300 8  21433028.156    21433034.742
  21433034.969          47.300          49.300
 112064318.486 7  87322870.62846  21325127.023
  21325130.133          46.000          37.000
 115562005.739 7  90048339.807 7  21990715.430    21990719.457
  21990719.684          47.100          44.600
 112892253.297 8  87968022.30846  21482677.531
  21482680.574          48.300          36.000
 21  5 10  1  8 30.0000000  0  9G18G07G29G27G23G26G16G05G20
 108926619.892 8  84877920.720 8  20728041.641    20728046.070
  20728046.160          48.000          51.500
 128502706.643 6 100132002.596 6  24453252.078    24453256.711
  24453256.902          38.800          38.700
 116488776.022 7  90770499.610 7  22167071.719    22167075.430
  22167075.660          46.500          44.500
 125725093.950 6  97967626.831 7  23924687.969    23924695.980
  23924695.668          39.200          43.100
 129442187.600 6 100864058.209 6  24632028.922    24632035.523
  24632034.840          37.700          40.300
 112669160.828 8  87794200.232 8  21440227.203    21440234.285
  21440234.543          48.000          49.200
 112039106.937 7  87303225.27346  21320329.344
  21320332.695          46.800          37.300
 115600576.521 7  90078394.957 7  21998055.305    21998059.039
  21998059.125          45.800          45.100
 112854734.685 7  87938787.02945  21475538.102
  21475541.414          47.500          35.600
 21  5 10  1  9  0.0000000  0  9G18G07G29G27G23G26G16G05G20
 108882764.445 7  84843747.652 8  20719696.406    20719700.324
  20719700.453          47.300          50.500
 128436890.462 6 100080717.258 6  24440726.172    24440732.703
  24440732.758          38.500          40.200
 116578619.076 7  90840507.174 7  22184167.820    22184172.527
  22184172.402          45.300          44.500
 125612658.411 6  97880014.758 7  23903293.305    23903299.719
  23903299.996          39.700          42.400
 129324944.890 6 100772700.330 6  24609718.516    24609724.672
  24609724.461          37.000          40.100
 112707572.841 7  87824131.665 8  21447536.977    21447543.699
  21447543.906          47.600          48.900
 112014536.531 7  87284079.50346  21315653.719
  21315656.867          47.500          37.700
 115639763.837 7  90108930.496 7  22005512.063    22005516.242
  22005516.227          47.700          45.000
 112817792.031 8  87910000.55446  21468508.211
  21468511.461          48.100          36.000
 21  5 10  1  9 30.0000000  0  9G18G07G29G27G23G26G16G05G20
 108839442.293 7  84809990.136 8  20711452.438    20711456.199
  20711456.246          47.600          51.000
 128371503.438 6 100029766.408 6  24428284.398    24428289.914
  24428289.715          38.400          39.200
 116668802.232 7  90910779.737 7  22201329.586    22201334.008
  22201333.855          46.000          45.200
 125500398.074 6  97792539.225 7  23881929.563    23881937.160
  23881937.195          38.700          42.000
 129207800.040 5 100681418.709 6  24587426.461    24587432.117
  24587432.230          35.800          40.800
 112746563.045 7  87854513.628 8  21454956.477    21454963.434
  21454963.777          46.800          49.700
 111990607.819 7  87265433.75346  21311100.422
  21311103.629          46.400          37.100
 115679566.214 7  90139945.314 7  22013086.977    22013091.031
  22013090.852          46.100          44.500
 112781426.662 7  87881663.90446  21461587.875
  21461590.871          47.600          36.000
 21  5 10  1 10  0.0000000  0  9G18G07G29G27G23G26G16G05G20
 108796654.542 7  84776649.041 8  20703310.430    20703314.043
  20703314.238          47.500          51.400
 128306547.357 6  99979151.312 6  24415924.195    24415929.215
  24415929.180          39.100          37.900
 116759323.575 7  90981315.818 7  22218555.398    22218559.656
  22218559.738          46.300          45.200
 125388315.102 6  97705201.883 6  23860601.336    23860608.504
  23860608.703          37.500          40.500
 129090755.594 6 100590215.358 6  24565153.188    24565159.152
  24565159.410          36.600          40.500
 112786130.168 7  87885345.139 8  21462485.883    21462492.492
  21462493.156          47.100          48.900
 111967322.433 7  87247289.30146  21306669.063
  21306672.371          47.200          37.000
 115719981.424 7  90171437.661 7  22020777.211    22020781.930
  22020781.879          46.300          45.500
 112745639.687 7  87853777.95645  21454777.930
  21454780.980          47.900          35.800
 21  5 10  1 10 30.0000000  0  9G18G07G29G27G23G26G16G05G20
 108754402.536 7  84743725.415 8  20695269.648    20695273.957
  20695273.969          47.900          51.500
 128242024.564 6  99928873.879 6  24403645.297    24403650.387
  24403650.527          37.600          37.700
 116850181.533 7  91052114.203 7  22235845.195    22235849.398
  22235849.543          45.600          45.400
 125276411.956 6  97618004.677 6  23839307.563    23839314.527
  23839314.152          38.600          41.600
 128973814.533 6 100499092.541 6  24542899.750    24542906.305
  24542906.340          38.100          40.200
 112826273.254 7  87916625.445 8  21470124.852    21470131.402
  21470131.703          46.100          48.800
 111944681.211 7  87229646.78946  21302360.758
  21302363.977          47.000          37.000
 115761008.453 7  90203406.736 7  22028584.438    22028589.004
  22028589.223          45.500          44.900
 112710432.513 7  87826343.79946  21448077.938
  21448081.215          47.000          36.000
 21  5 10  1 11  0.0000000  0  9G18G07G29G27G23G26G16G05G20
 108712686.975 8  84711219.797 8  20687331.656    20687335.824
  20687335.891          48.000          51.700
 128177937.125 6  99878935.628 6  24391450.297    24391455.070
  24391454.879          40.000          37.100
 116941373.821 7  91123173.109 7  22253198.484    22253202.762
  22253202.340          45.100          44.700
 125164690.364 6  97530948.936 7  23818047.766    23818053.973
  23818053.996          39.200          42.000
 128856979.061 6 100408052.007 6  24520666.328    24520672.875
  24520672.918          37.700          40.300
 112866990.675 7  87948353.308 8  21477873.117    21477880.199
  21477880.258          46.400          48.500
 111922684.803 7  87212506.73346  21298174.836
  21298177.805          46.500          37.400
 115802645.711 7  90235851.350 7  22036508.164    22036512.367
  22036512.301          45.200          45.300
 112675806.061 7  87799362.15546  21441488.984
  21441492.543          47.200          36.400
 21  5 10  1 11 30.0000000  0  9G18G07G29G27G23G26G16G05G20
 108671508.892 7  84679132.990 8  20679495.898    20679499.820
  20679499.902          47.500          51.100
 128114286.776 6  99829337.944 6  24379338.445    24379342.395
  24379342.469          41.700          37.600
 117032898.695 7  91194491.170 7  22270615.133    22270619.484
  22270619.320          44.300          44.600
 125053152.569 6  97444036.412 6  23796821.367    23796829.125
  23796829.566          38.300          41.500
 128740251.897 6 100317095.846 6  24498454.500    24498460.363
  24498460.441          38.600          40.200
 112908281.193 7  87980527.716 8  21485730.289    21485737.395
  21485737.703          46.500          49.200
 111901333.991 7  87195869.73346  21294111.813
  21294114.777          46.700          37.900
 115844891.365 7  90268770.023 7  22044547.414    22044551.629
  22044551.781          46.300          46.100
 112641761.487 8  87772833.91646  21435010.789
  21435013.672          48.100          36.200
 21  5 10  1 12  0.0000000  0  9G18G07G29G27G23G26G16G05G20
 108630869.357 8  84647465.826 8  20671762.266    20671766.289
  20671766.289          48.000          51.200
 128051076.080 7  99780082.840 6  24367310.523    24367313.949
  24367314.008          42.500          38.000
 117124754.531 7  91266067.121 7  22288094.430    22288098.645
  22288098.789          44.700          44.600
 124941800.706 6  97357268.782 6  23775632.609    23775639.418
  23775639.445          41.200          41.600
 128623635.584 6 100226226.098 6  24476263.508    24476269.238
  24476269.387          38.400          41.100
 112950143.527 7  88013147.691 8  21493696.891    21493703.480
  21493703.934          46.600          49.500
 111880629.886 7  87179736.66946  21290172.430
  21290175.281          45.900          38.100
 115887743.753 7  90302161.502 7  22052701.484    22052706.105
  22052706.156          46.700          45.100
 112608299.828 7  87746759.89745  21428642.727
  21428646.008          47.500          35.500
 21  5 10  1 12 30.0000000  0  9G18G07G29G27G23G26G16G05G20
 108590769.183 7  84616218.945 8  20664131.039    20664135.441
  20664135.160          47.800          51.800
 127988306.899 7  99731171.817 6  24355365.461    24355369.773
  24355369.895          42.300          38.600
 117216939.000 7  91337899.148 7  22305636.711    22305640.969
  22305641.246          44.700          45.000
 124830636.842 6  97270647.654 7  23754479.195    23754486.008
  23754485.801          40.900          43.000
 128507132.634 6 100135444.691 6  24454093.414    24454098.840
  24454099.367          39.600          40.600
 112992576.218 7  88046212.111 8  21501771.477    21501778.094
  21501778.488          46.000          48.800
 111860573.256 7  87164108.13046  21286355.750
  21286358.789          47.300          37.700
 115931201.183 7  90336024.405 7  22060971.391    22060975.328
  22060975.496          45.000          44.900
 112575422.399 7  87721141.12545  21422386.688
  21422389.520          46.900          35.400
 21  5 10  1 13  0.0000000  0  9G18G07G29G27G23G26G16G05G20
 108551209.522 7  84585393.255 8  20656603.344    20656607.813
  20656607.664          47.600          51.400
 127925981.389 7  99682606.471 6  24343505.320    24343509.313
  24343509.430          42.300          39.200
 117309450.179 7  91409985.763 7  22323240.625    22323245.344
  22323245.875          44.500          45.300
 124719663.222 6  97184174.750 6  23733361.273    23733368.238
  23733368.180          40.600          41.900
 128390745.787 6 100044753.701 6  24431945.656    24431951.164
  24431951.863          40.900          40.600
 113035578.053 7  88079720.029 8  21509954.273    21509960.922
  21509961.109          46.600          48.500
 111841165.371 7  87148985.10246  21282662.430
  21282665.590          47.000          37.300
 115975262.112 7  90370357.568 7  22069355.531    22069359.867
  22069359.957          46.700          44.800
 112543130.229 7  87695978.40645  21416241.664
  21416244.441          46.900          35.700
 21  5 10  1 13 30.0000000  0  9G18G07G29G27G23G26G16G05G20
 108512191.333 8  84554989.479 8  20649178.227    20649182.844
  20649182.496          48.300          51.700
 127864101.693 6  99634388.566 6  24331729.563    24331734.070
  24331734.125          41.700          38.400
 117402286.244 7  91482325.525 7  22340907.273    22340911.559
  22340911.566          44.900          44.400
 124608882.007 6  97097851.739 7  23712280.023    23712287.484
  23712287.297          38.900          44.300
 128274477.712 6  99954155.271 6  24409820.703    24409826.629
  24409826.402          39.700          40.500
 113079147.638 7  88113670.355 8  21518245.117    21518252.234
  21518252.535          47.200          48.400
 111822406.463 7  87134367.77546  21279092.977
  21279095.801          47.500          37.800
 116019925.038 7  90405159.832 7  22077854.906    22077859.555
  22077859.273          46.500          45.400
 112511424.598 7  87671272.72946  21410208.523
  21410211.395          47.700          36.100
 21  5 10  1 14  0.0000000  0  9G18G07G29G27G23G26G16G05G20
 108473715.478 8  84525008.287 8  20641856.797    20641860.781
  20641860.949          48.200          51.100
 127802669.853 6  99586519.630 6  24320039.469    24320043.766
  24320044.063          41.400          38.900
 117495445.087 7  91554916.805 7  22358635.039    22358639.535
  22358639.656          45.700          45.800
 124498295.229 7  97011680.306 7  23691236.375    23691242.918
  23691242.828          42.000          42.100
 128158330.877 6  99863651.336 6  24387717.711    24387723.711
  24387723.984          38.200          41.400
 113123283.495 7  88148061.916 8  21526644.164    21526651.133
  21526651.199          46.700          48.500
 111804297.312 7  87120256.74846  21275646.750
  21275649.539          46.600          38.400
 116065188.069 7  90440429.710 7  22086467.914    22086472.551
  22086472.215          45.100          45.300
 112480306.223 7  87647024.64946  21404287.180
  21404289.684          47.800          36.700
 21  5 10  1 14 30.0000000  0  9G18G07G29G27G23G26G16G05G20
 108435783.020 8  84495450.537 8  20634638.344    20634642.773
  20634642.992          48.200          51.500
 127741687.791 7  99539001.160 6  24308435.945    24308439.891
  24308439.906          42.700          38.400
 117588925.164 7  91627758.385 7  22376423.680    22376427.973
  22376427.488          45.400          44.100
 124387905.279 6  96925662.221 7  23670229.586    23670236.742
  23670236.719          39.400          42.000
 128042308.081 6  99773244.081 6  24365639.305    24365645.754
  24365645.863          38.900          41.100
 113167984.383 7  88182893.768 8  21535150.375    21535157.242
  21535157.387          45.800          48.700
 111786839.009 7  87106652.88246  21272324.477
  21272327.559          46.500          38.300
 116111049.659 7  90476165.992 7  22095194.578    22095199.441
  22095199.313          43.900          45.300
 112449776.005 7  87623234.87746  21398476.734
  21398479.965          46.800          36.100
 21  5 10  1 15  0.0000000  0  9G18G07G29G27G23G26G16G05G20
 108398394.753 7  84466316.824 8  20627523.750    20627528.137
  20627528.168          46.800          51.200
 127681157.743 7  99491834.851 6  24296917.484    24296920.852
  24296920.848          42.600          39.400
 117682724.500 7  91700848.783 7  22394273.172    22394277.383
  22394277.094          45.000          44.700
 124277714.111 6  96839799.022 6  23649261.273    23649266.941
  23649267.129          41.700          41.900
 127926411.834 6  99682935.409 6  24343585.094    24343590.867
  24343590.930          38.400          41.600
 113213248.832 7  88218164.761 8  21543764.102    21543770.477
  21543770.734          46.300          48.400
 111770032.200 7  87093556.66646  21269126.094
  21269129.438          46.200          38.200
 116157507.778 7  90512367.097 7  22104035.500    22104039.785
  22104039.879          45.100          45.500
 112419835.279 7  87599904.44546  21392779.344
  21392782.652          47.300          36.500
 21  5 10  1 15 30.0000000  0  9G18G07G29G27G23G26G16G05G20
 108361551.275 7  84437607.635 8  20620512.891    20620516.797
  20620516.738          47.800          52.300
 127621081.438 6  99445022.222 6  24285484.453    24285487.992
  24285488.875          40.800          38.400
 117776841.108 7  91774186.351 7  22412183.086    22412187.332
  22412187.570          45.400          44.800
 124167723.647 6  96754092.225 7  23628329.688    23628337.520
  23628337.211          40.100          42.300
 127810644.450 6  99592727.166 6  24321556.219    24321561.016
  24321561.207          39.200          41.100
 113259074.911 7  88253873.377 8  21552484.656    21552491.242
  21552491.445          46.900          48.200
 111753876.991 7  87080968.20446  21266051.891
  21266055.355          46.000          37.600
 116204560.506 7  90549031.550 7  22112989.656    22112994.129
  22112994.000          44.900          44.700
 112390484.659 7  87577033.83746  21387193.859
  21387197.313          47.500          36.500
 21  5 10  1 16  0.0000000  0  9G18G07G29G27G23G26G16G05G20
 108325254.306 7  84409324.283 8  20613605.320    20613609.973
  20613609.863          47.400          51.800
 127561461.542 6  99398565.159 6  24274139.078    24274143.891
  24274143.871          40.600          37.800
 117871273.383 7  91847769.943 7  22430152.391    22430156.875
  22430156.520          45.200          43.800
 124057936.890 6  96668544.150 7  23607439.211    23607445.434
  23607445.375          41.100          42.200
 127695009.389 6  99502622.025 6  24299550.961    24299556.215
  24299555.555          39.600          39.900
 113305462.091 8  88290019.238 8  21561311.734    21561318.668
  21561318.773          48.400          49.300
 111738375.095 7  87068888.80746  21263101.938
  21263105.148          46.900          38.400
 116252206.875 7  90586158.557 7  22122056.508    22122060.742
  22122060.777          46.300          45.400
 112361725.932 7  87554624.44046  21381721.742
  21381724.758          47.000          36.600
 21  5 10  1 16 30.0000000  0  9G18G07G29G27G23G26G16G05G20
 108289504.069 7  84381466.959 8  20606802.352    20606806.789
  20606806.730          47.800          52.100
 127502299.608 6  99352465.007 6  24262880.938    24262885.109
  24262885.438          37.600          38.600
 117966019.026 7  91921597.672 7  22448181.844    22448186.563
  22448186.547          43.900          44.900
 123948355.340 6  96583155.975 6  23586585.820    23586592.668
  23586592.152          39.900          41.800
 127579508.652 6  99412621.511 6  24277571.906    24277577.207
  24277577.176          40.400          38.100
 113352408.272 7  88326600.652 8  21570245.203    21570251.863
  21570252.512          46.300          48.600
 111723526.666 7  87057318.61046  21260276.406
  21260279.465          46.500          37.600
 116300444.405 7  90623746.210 7  22131236.242    22131240.438
  22131240.277          46.500          44.500
 112333559.602 7  87532676.66145  21376361.320
  21376365.027          46.100          35.800
 21  5 10  1 17  0.0000000  0  9G18G07G29G27G23G26G16G05G20
 108254301.533 7  84354036.417 8  20600103.695    20600107.141
  20600107.660          47.800          52.400
 127443597.596 6  99306723.207 6  24251710.203    24251714.395
  24251714.746          39.900          39.200
 118061076.008 7  91995668.015 7  22466270.742    22466275.066
  22466275.117          44.800          43.200
 123838981.280 6  96497929.492 7  23565771.961    23565779.531
  23565779.539          40.200          43.100
 127464144.989 6  99322727.781 6  24255618.555    24255624.266
  24255624.180          40.900          37.700
 113399911.982 7  88363616.513 8  21579284.688    21579291.754
  21579291.668          47.100          48.800
 111709332.184 7  87046257.97746  21257575.398
  21257578.602          46.000          37.900
 116349271.260 7  90661793.071 7  22140527.773    22140531.738
  22140531.859          45.100          44.700
 112305986.378 7  87511191.03346  21371114.742
  21371117.773          46.900          36.200
 21  5 10  1 17 30.0000000  0  9G18G07G29G27G23G26G16G05G20
 108219647.419 7  84327033.212 8  20593509.266    20593513.379
  20593513.395          47.600          52.000
 127385357.490 6  99261341.354 6  24240626.641    24240631.715
  24240631.988          38.400          38.800
 118156442.392 7  92069979.479 7  22484418.617    22484422.520
  22484422.551          45.700          44.000
 123729816.792 6  96412866.303 7  23544999.273    23545005.688
  23545005.719          41.300          42.400
 127348920.883 6  99232942.790 6  24233692.211    24233697.273
  24233697.676          40.400          39.100
 113447971.707 7  88401065.621 8  21588430.555    21588437.438
  21588437.672          46.400          48.700
 111695792.421 7  87035707.51746  21254998.953
  21255001.988          46.600          37.800
 116398685.695 7  90700297.803 7  22149930.969    22149934.555
  22149934.574          46.300          44.700
 112279007.218 7  87490168.31246  21365980.844
  21365983.840          47.000          37.000
 21  5 10  1 18  0.0000000  0  9G18G07G29G27G23G26G16G05G20
 108185542.545 7  84300457.982 8  20587019.336    20587023.449
  20587023.676          47.400          52.200
 127327581.080 6  99216320.745 6  24229632.938    24229637.012
  24229637.406          40.200          37.900
 118252116.385 7  92144530.610 7  22502624.367    22502628.973
  22502629.570          44.500          44.600
 123620864.086 6  96327968.121 7  23524267.359    23524272.945
  23524273.109          41.900          42.300
 127233839.057 6  99143268.682 6  24211793.250    24211798.715
  24211798.699          40.000          41.100
 113496585.818 7  88438946.732 8  21597680.766    21597688.238
  21597688.555          47.200          48.700
 111682907.568 7  87025667.37446  21252546.602
  21252550.133          46.700          37.500
 116448685.989 7  90739259.074 7  22159445.539    22159449.484
  22159449.316          46.400          44.400
 112252622.783 7  87469609.01546  21360959.875
  21360963.070          46.400          36.800
 21  5 10  1 18 30.0000000  0  9G18G07G29G27G23G26G16G05G20
 108151987.745 7  84274311.392 8  20580634.055    20580638.246
  20580638.398          47.500          52.800
 127270270.479 6  99171663.168 6  24218728.094    24218730.930
  24218731.219          40.200          38.000
 118348095.884 7  92219319.778 7  22520889.109    22520893.289
  22520893.543          44.600          44.300
 123512125.297 7  96243236.662 7  23503574.359    23503580.238
  23503580.250          42.500          42.400
 127118902.053 6  99053707.477 7  24189920.859    24189927.195
  24189927.320          36.800          42.200
 113545752.797 7  88477258.651 7  21607037.406    21607044.645
  21607044.781          46.300          47.900
 111670678.648 7  87016138.35146  21250219.984
  21250223.090          46.700          37.600
 116499270.143 7  90778675.269 7  22169071.164    22169075.789
  22169075.336          46.600          44.500
 112226834.140 7  87449513.97245  21356052.109
  21356055.316          46.600          35.900
 21  5 10  1 19  0.0000000  0  9G18G07G29G27G23G26G16G05G20
 108118983.747 7  84248593.998 8  20574353.289    20574357.996
  20574358.246          47.200          52.300
 127213427.799 6  99127370.180 6  24207910.406    24207914.348
  24207914.098          38.400          36.700
 118444379.241 7  92294345.759 7  22539211.344    22539215.754
  22539215.746          45.200          44.300
 123403602.676 6  96158673.583 7  23482922.539    23482929.977
  23482929.473          41.400          42.700
 127004112.461 5  98964261.211 7  24168076.531    24168082.711
  24168082.691          35.700          43.200
 113595471.054 7  88516000.139 7  21616498.719    21616505.781
  21616505.945          47.200          47.900
 111659106.008 7  87007120.71746  21248017.273
  21248020.797          46.700          38.700
 116550436.274 7  90818544.957 7  22178808.195    22178812.320
  22178812.230          46.700          44.500
 112201642.089 7  87429883.80546  21351258.539
  21351261.438          47.300          36.100
 21  5 10  1 19 30.0000000  0  9G18G07G29G27G23G26G16G05G20
 108086531.580 7  84223306.604 8  20568178.172    20568182.500
  20568182.699          46.300          52.400
 127157054.954 6  99083443.293 6  24197182.617    24197187.070
  24197187.082          39.100          37.900
 118540964.423 7  92369606.914 7  22557590.500    22557595.039
  22557595.215          45.200          44.200
 123295298.581 7  96074280.852 7  23462313.656    23462319.699
  23462319.547          42.900          42.600
 126889473.269 6  98874932.138 7  24146261.227    24146268.395
  24146268.074          37.300          44.100
 113645739.247 7  88555170.142 8  21626064.430    21626071.746
  21626071.926          46.100          48.400
 111648190.472 7  86998615.09946  21245940.602
  21245943.828          47.800          38.100
 116602182.421 7  90858866.604 7  22188655.016    22188658.738
  22188658.762          44.700          43.900
 112177047.413 7  87410719.12546  21346578.320
  21346581.055          47.100          36.000
 21  5 10  1 20  0.0000000  0  9G18G07G29G27G23G26G16G05G20
 108054631.812 7  84198449.648 8  20562107.859    20562112.031
  20562112.098          46.700          52.400
 127101153.534 6  99039883.755 6  24186545.000    24186549.730
  24186549.531          39.800          37.500
 118637849.400 7  92445101.683 7  22576027.047    22576031.645
  22576031.516          45.200          43.400
 123187215.045 7  95990059.946 7  23441745.617    23441752.285
  23441752.195          42.200          43.400
 126774986.888 6  98785722.068 7  24124475.664    24124481.820
  24124482.094          40.400          43.100
 113696555.540 7  88594767.236 8  21635734.547    21635741.242
  21635741.441          47.000          48.100
 111637932.100 7  86990621.56146  21243988.453
  21243991.574          47.800          38.200
 116654506.630 7  90899638.700 7  22198611.828    22198616.082
  22198616.047          45.600          44.300
 112153051.026 7  87392020.64546  21342011.383
  21342014.871          47.000          36.400
 21  5 10  1 20 30.0000000  0  9G18G07G29G27G23G26G16G05G20
 108023285.067 7  84174023.615 8  20556142.336    20556147.180
  20556147.328          46.000          52.600
 127045725.607 6  98996693.195 6  24175997.438    24176002.141
  24176002.402          40.000          39.100
 118735032.181 7  92520828.474 7  22594520.984    22594525.320
  22594525.484          44.700          44.400
 123079354.108 6  95906012.536 7  23421220.305    23421227.332
  23421227.418          41.400          44.300
 126660655.947 7  98696633.118 6  24102719.586    24102725.000
  24102725.355          42.400          41.400
 113747918.216 7  88634790.082 8  21645508.320    21645515.563
  21645515.594          45.700          48.100
 111628331.460 7  86983140.55346  21242161.469
  21242164.289          47.800          38.000
 116707406.830 7  90940859.634 7  22208678.313    22208682.520
  22208682.543          45.000          44.200
 112129653.473 7  87373788.78446  21337559.367
  21337562.629          47.600          36.500
 21  5 10  1 21  0.0000000  0 10G18G07G29G27G23G26G13G16G05G20
 107992492.005 7  84150029.015 8  20550282.578    20550287.391
  20550287.535          46.600          52.600
 126990772.941 6  98953872.958 6  24165540.547    24165544.996
  24165545.301          40.600          39.400
 118832510.718 7  92596785.751 7  22613070.203    22613074.883
  22613075.082          44.600          44.500
 122971717.944 6  95822140.237 7  23400737.203    23400744.672
  23400744.496          41.400          44.100
 126546482.889 6  98607667.144 6  24080993.125    24080997.965
  24080998.078          41.400          38.200
 113799825.574 7  88675237.343 8  21655385.656    21655392.563
  21655393.008          46.600          48.400
 128967335.83616                  24541667.852
                        37.100
 111619388.937 7  86976172.35946  21240459.734
  21240462.930          47.200          38.100
 116760881.274 7  90982528.021 7  22218854.359    22218858.523
  22218858.496          45.300          44.500
 112106855.464 7  87356024.11146  21333221.094
  21333224.504          47.800          36.900
 21  5 10  1 21 30.0000000  0 10G18G07G29G27G23G26G13G16G05G20
 107962253.491 7  84126466.540 8  20544528.875    20544533.164
  20544533.602          46.700          52.300
 126936297.583 6  98911424.682 6  24155174.438    24155178.867
  24155178.996          40.900          39.700
 118930283.508 7  92672972.296 7  22631675.625    22631680.180
  22631680.422          42.900          43.500
 122864308.914 7  95738444.949 7  23380298.594    23380305.602
  23380305.602          42.000          43.400
 126432470.558 7  98518826.374 6  24059297.141    24059301.160
  24059301.848          42.800          36.900
 113852276.134 7  88716107.900 7  21665366.664    21665374.102
  21665373.977          46.800          47.600
 128874736.181 6 100421893.13753  24524046.898
  24524052.512          36.700          18.600
 111611104.913 7  86969717.27946  21238883.211
  21238886.816          47.200          38.600
 116814928.054 7  91024642.388 7  22229139.172    22229143.449
  22229143.625          46.300          44.900
 112084658.030 7  87338727.40846  21328997.148
  21329000.297          46.600          37.400
 21  5 10  1 22  0.0000000  0 10G18G07G29G27G23G26G13G16G05G20
 107932570.697 7  84103337.090 8  20538880.289    20538884.766
  20538885.023          47.200          53.300
 126882301.734 6  98869350.038 6  24144899.195    24144903.930
  24144904.070          41.400          40.500
 119028348.507 7  92749386.542 7  22650337.297    22650341.809
  22650341.691          44.400          43.500
 122757129.686 6  95654928.723 7  23359902.563    23359909.117
  23359909.070          40.500          42.600
 126318622.098 6  98430113.279 6  24037632.758    24037637.281
  24037637.742          40.200          39.600
 113905268.652 7  88757400.754 7  21675451.047    21675458.387
  21675458.488          46.900          47.800
 128782462.201 6 100349991.39143  24506487.172
  24506492.719          37.200          19.000
 111603480.445 7  86963776.13646  21237432.094
  21237435.551          46.700          37.500
 116869545.455 7  91067201.376 7  22239532.594    22239536.387
  22239536.602          45.700          45.000
 112063062.263 7  87321899.54646  21324887.625
  21324891.121          47.200          37.600
 21  5 10  1 22 30.0000000  0 10G18G07G29G27G23G26G13G16G05G20
 107903443.877 7  84080640.875 8  20533337.594    20533341.891
  20533342.242          46.900          53.000
 126828786.957 6  98827650.233 6  24134715.180    24134719.617
  24134720.027          40.500          40.500
 119126703.578 7  92826026.814 7  22669053.297    22669057.652
  22669057.594          43.900          43.100
 122650182.053 7  95571592.963 7  23339551.461    23339558.492
  23339558.457          42.400          43.700
 126204939.585 6  98341529.599 6  24015999.367    24016005.066
  24016005.238          37.700          40.900
 113958801.037 7  88799114.281 8  21685638.156    21685645.043
  21685645.133          47.700          48.100
 128690516.494 6 100278345.43143  24488990.398
  24488996.203          38.100          20.400
 111596515.472 7  86958348.88946  21236106.922
  21236110.250          46.700          37.400
 116924731.170 7  91110203.223 7  22250033.938    22250038.676
  22250038.578          45.900          44.700
 112042068.503 7  87305540.77946  21320892.688
  21320896.473          46.700          37.200
 21  5 10  1 23  0.0000000  0 10G18G07G29G27G23G26G13G16G05G20
 107874873.760 7  84058378.446 8  20527901.016    20527905.539
  20527905.789          46.100          52.700
 126775755.143 6  98786326.843 6  24124624.141    24124628.113
  24124628.188          40.800          39.200
 119225346.808 7  92902891.670 7  22687824.813    22687828.336
  22687828.566          45.800          43.200
 122543468.329 7  95488439.410 7  23319244.781    23319250.523
  23319250.605          42.500          42.200
 126091425.913 6  98253077.525 7  23994397.766    23994403.930
  23994404.324          38.100          42.800
 114012871.647 7  88841247.216 8  21695927.805    21695934.117
  21695934.449          45.200          48.400
 128598902.828 6 100206958.14443  24471557.117
  24471562.203          37.900          21.800
 111590210.559 7  86953435.96546  21234906.734
  21234910.348          47.200          37.900
 116980483.126 7  91153646.265 7  22260643.414    22260647.816
  22260647.730          44.100          44.900
 112021677.278 7  87289651.51846  21317012.633
  21317015.832          46.700          37.400
 21  5 10  1 23 30.0000000  0 10G18G07G29G27G23G26G13G16G05G20
 107846860.596 7  84036550.015 8  20522570.078    20522574.582
  20522574.516          47.000          52.900
 126723207.706 7  98745380.751 6  24114624.695    24114628.680
  24114628.688          42.200          39.200
 119324275.946 7  92979979.295 7  22706650.047    22706654.031
  22706654.098          44.300          43.100
 122436990.300 7  95405469.550 7  23298982.508    23298989.449
  23298989.578          43.300          43.700
 125978083.329 6  98164758.734 7  23972830.055    23972835.598
  23972836.102          39.900          44.100
 114067478.397 7  88883797.897 7  21706318.695    21706325.664
  21706325.824          47.600          47.900
 128507623.893 6 100135831.75543  24454188.008
  24454192.125          36.600          19.600
 111584565.025 7  86949036.84646  21233832.703
  21233835.832          46.800          37.200
 117036799.223 7  91197528.911 7  22271360.055    22271364.379
  22271364.438          45.500          44.100
 112001889.082 7  87274232.14946  21313247.164
  21313250.473          46.300          36.700
 21  5 10  1 24  0.0000000  0 10G18G07G29G27G23G26G13G16G05G20
 107819405.232 7  84015156.231 8  20517345.523    20517350.246
  20517350.355          46.400          53.200
 126671146.378 7  98704813.487 6  24104717.945    24104722.289
  24104722.004          42.500          39.600
 119423489.399 7  93057288.437 7  22725529.992    22725534.227
  22725534.301          44.900          44.000
 122330750.391 6  95322685.254 7  23278764.852    23278771.863
  23278771.602          40.500          43.800
 125864914.732 7  98076575.475 7  23951294.344    23951300.293
  23951300.883          42.500          43.300
 114122619.688 7  88926765.132 8  21716811.656    21716818.340
  21716818.551          44.300          48.000
 128416682.473 5 100064968.41642  24436881.219
  24436886.449          32.800          15.600
 111579579.603 7  86945152.09346  21232883.773
  21232886.945          47.200          37.300
 117093677.232 7  91241849.440 7  22282183.648    22282187.738
  22282187.754          43.800          44.900
 111982704.448 7  87259283.08546  21309596.094
  21309599.391          47.200          36.900
 21  5 10  1 24 30.0000000  0 10G18G07G29G27G23G26G13G16G05G20
 107792508.205 7  83994197.506 8  20512227.242    20512231.738
  20512231.961          46.400          52.300
 126619573.579 6  98664626.903 6  24094903.586    24094907.563
  24094907.734          41.300          40.100
 119522985.165 7  93134817.578 7  22744462.844    22744467.805
  22744467.918          44.100          43.600
 122224750.790 6  95240088.199 7  23258594.219    23258600.973
  23258601.059          41.900          43.200
 125751922.607 6  97988529.737 7  23929792.891    23929797.992
  23929798.250          40.600          42.400
 114178293.726 7  88970147.472 7  21727405.516    21727412.887
  21727413.000          45.600          47.200
 128326082.036 6  99994370.80042  24419640.344
  24419646.293          36.800          17.800
 111575254.818 7  86941782.13446  21232061.297
  21232064.355          47.100          37.800
 117151115.130 7  91286606.238 7  22293113.516    22293117.887
  22293117.762          43.900          44.500
 111964124.045 7  87244804.84946  21306060.070
  21306063.117          47.000          37.000
 21  5 10  1 25  0.0000000  0 10G18G07G29G27G23G26G13G16G05G20
 107766171.013 7  83973675.024 8  20507215.328    20507219.941
  20507220.137          46.700          52.600
 126568491.632 6  98624822.828 6  24085182.719    24085187.473
  24085187.352          41.400          39.900
 119622761.934 7  93212565.661 7  22763450.063    22763454.801
  22763454.781          43.700          42.800
 122118994.526 7  95157680.759 7  23238469.211    23238476.375
  23238476.316          42.100          43.900
 125639110.517 6  97900624.261 6  23908325.492    23908329.805
  23908330.531          39.000          40.200
 114234499.666 7  89013944.292 8  21738101.836    21738109.043
  21738109.008          46.400          48.000
 128235826.171 5  99924041.60642  24402465.961
  24402470.172          35.900          17.800
 111571591.853 7  86938927.87946  21231364.008
  21231367.270          47.000          38.600
 117209111.605 7  91331798.271 7  22304150.031    22304154.324
  22304154.301          45.000          45.000
 111946149.633 7  87230798.81346  21302639.625
  21302643.227          47.500          37.100
 21  5 10  1 25 30.0000000  0 10G18G07G29G27G23G26G13G16G05G20
 107740392.930 7  83953588.216 8  20502309.789    20502314.695
  20502314.730          46.300          52.700
 126517900.984 6  98585401.575 6  24075555.492    24075559.895
  24075560.250          40.500          40.300
 119722816.460 7  93290530.206 7  22782489.508    22782494.238
  22782494.410          44.200          43.600
 122013482.653 6  95075463.768 7  23218390.945    23218397.840
  23218397.945          41.500          44.400
 125526479.878 6  97812860.196 6  23886892.367    23886896.637
  23886897.457          38.900          39.700
 114291234.363 7  89058153.129 7  21748897.805    21748905.219
  21748905.121          46.300          47.300
 128145916.710 6  99853982.35043  24385355.930
  24385361.340          37.500          19.600
 111568589.250 7  86936588.18546  21230792.914
  21230796.234          47.100          37.900
 117267663.478 7  91377423.077 7  22315291.945    22315296.355
  22315296.090          46.300          44.400
 111928780.062 7  87217264.07946  21299334.383
  21299337.844          47.100          37.400
 21  5 10  1 26  0.0000000  0 10G18G07G29G27G23G26G13G16G05G20
 107715174.666 7  83933937.624 8  20497510.906    20497515.305
  20497515.617          47.600          52.600
 126467803.393 6  98546364.511 6  24066022.109    24066027.070
  24066026.813          39.700          39.500
 119823147.189 7  93368709.970 7  22801581.734    22801586.680
  22801586.672          43.400          42.200
 121908217.600 6  94993439.111 7  23198359.352    23198366.492
  23198366.371          41.800          44.500
 125414033.563 6  97725239.746 6  23865494.602    23865499.215
  23865499.660          39.600          41.200
 114348496.297 7  89102772.792 8  21759794.742    21759801.910
  21759801.988          45.000          48.200
 128056357.060 6  99784195.66143  24368313.688
  24368318.293          37.900          18.600
 111566247.926 7  86934763.78446  21230347.102
  21230350.371          46.500          37.900
 117326768.730 7  91423479.075 7  22326539.266    22326543.246
  22326543.402          43.300          43.900
 111912016.362 7  87204201.45646  21296144.625
  21296148.008          47.400          37.500
 21  5 10  1 26 30.0000000  0 10G18G07G29G27G23G26G13G16G05G20
 107690517.322 7  83914724.103 8  20492819.156    20492823.367
  20492823.531          47.200          52.500
 126418201.116 6  98507713.452 6  24056583.125    24056587.605
  24056587.543          40.800          38.600
 119923752.588 7  93447103.762 7  22820727.055    22820731.195
  22820731.164          44.500          43.100
 121803201.892 7  94911608.759 7  23178376.438    23178382.848
  23178382.773          42.900          45.000
 125301774.673 6  97637765.344 7  23844132.570    23844137.301
  23844137.852          40.900          43.000
 114406283.992 7  89147802.146 7  21770791.063    21770798.012
  21770798.102          46.800          47.700
 127967150.732 6  99714684.32343  24351338.156
  24351343.223          37.400          21.800
 111564567.980 7  86933454.72646  21230027.711
  21230030.637          46.800          38.100
 117386425.631 7  91469964.960 7  22337891.906    22337896.148
  22337896.227          46.000          44.300
 111895859.514 7  87191611.69946  21293070.469
  21293073.574          47.400          37.100
 21  5 10  1 27  0.0000000  0 10G18G07G29G27G23G26G13G16G05G20
 107666421.165 7  83895947.885 8  20488233.883    20488237.895
  20488237.910          47.500          52.300
 126369095.841 6  98469449.603 6  24047239.398    24047242.969
  24047243.316          41.400          38.400
 120024630.181 7  93525709.653 7  22839922.898    22839928.242
  22839928.160          43.400          43.000
 121698437.675 7  94829974.339 7  23158439.430    23158446.277
  23158446.457          42.500          45.000
 125189705.607 6  97550438.877 7  23822806.313    23822811.918
  23822812.133          41.900          43.400
 114464595.490 7  89193239.672 7  21781887.914    21781894.504
  21781894.801          46.300          47.200
 127878300.391 6  99645450.36143  24334430.438
  24334435.887          39.300          20.100
 111563549.384 7  86932661.01946  21229833.414
  21229836.930          47.600          37.500
 117446631.851 7  91516878.859 7  22349348.867    22349352.887
  22349352.734          45.700          43.300
 111880309.562 7  87179494.85046  21290110.883
  21290114.852          47.300          37.600
 21  5 10  1 27 30.0000000  0 10G18G07G29G27G23G26G13G16G05G20
 107642888.113 7  83877610.434 8  20483755.367    20483759.895
  20483759.738          47.200          52.400
 126320490.501 7  98431575.273 6  24037990.211    24037994.078
  24037994.234          42.600          39.100
 120125779.602 7  93604527.325 7  22859171.695    22859175.988
  22859176.105          44.500          43.000
 121593928.535 7  94748538.685 7  23138552.609    23138559.012
  23138559.059          43.700          43.700
 125077830.470 6  97463263.535 7  23801517.250    23801521.789
  23801522.820          40.400          42.300
 114523430.270 7  89239084.945 7  21793083.563    21793090.340
  21793090.707          46.500          47.800
 127789810.472 6  99576497.14743  24317591.461
  24317597.094          40.200          21.800
 111563193.714 7  86932383.87946  21229765.672
  21229769.262          46.200          37.600
 117507387.011 7  91564220.517 7  22360910.102    22360914.070
  22360914.277          45.700          44.400
 111865368.394 7  87167852.38846  21287267.547
  21287271.375          47.200          37.100
 21  5 10  1 28  0.0000000  0 10G18G07G29G27G23G26G13G16G05G20
 107619917.176 7  83859711.017 8  20479384.195    20479388.406
  20479388.523          47.800          52.900
 126272385.308 6  98394090.745 6  24028835.359    24028839.941
  24028839.934          41.700          38.800
 120227197.178 7  93683554.000 7  22878470.758    22878474.695
  22878474.996          45.700          43.300
 121489675.248 7  94667302.413 7  23118713.711    23118720.836
  23118720.676          42.400          44.200
 124966150.402 6  97376240.242 6  23780263.789    23780271.008
  23780270.699          38.300          41.600
 114582785.040 7  89285335.402 7  21804378.000    21804385.199
  21804385.473          45.700          47.000
 127701682.937 6  99507826.38943  24300821.945
  24300826.090          40.400          21.100
 111563499.725 7  86932622.32746  21229824.156
  21229827.527          47.200          37.200
 117568686.808 7  91611986.593 7  22372574.977    22372579.020
  22372578.953          45.700          43.500
 111851035.097 7  87156683.57846  21284540.031
  21284543.703          47.100          37.000
 21  5 10  1 28 30.0000000  0 10G18G07G29G27G23G26G13G16G05G20
 107597509.126 7  83842250.189 8  20475120.086    20475124.758
  20475124.762          47.200          52.100
 126224782.428 7  98356997.630 6  24019777.180    24019781.375
  24019781.660          42.200          39.900
 120328881.901 7  93762788.808 7  22897820.734    22897825.117
  22897825.262          44.800          43.300
 121385680.336 6  94586267.446 7  23098924.391    23098930.809
  23098930.449          41.100          42.900
 124854668.285 6  97289371.158 6  23759049.906    23759055.117
  23759055.227          39.900          39.300
 114642658.109 7  89331989.717 7  21815771.578    21815778.605
  21815778.688          43.800          47.200
 127613920.859 6  99439440.36843  24284121.555
  24284125.688          40.200          19.600
 111564467.763 7  86933376.63946  21230008.141
  21230011.934          46.400          38.100
 117630529.333 7  91660175.566 7  22384342.797    22384347.215
  22384347.008          43.000          43.400
 111837310.339 7  87145988.96546  21281928.414
  21281931.863          46.700          36.400
 21  5 10  1 29  0.0000000  0 10G18G07G29G27G23G26G13G16G05G20
 107575663.783 7  83825227.845 8  20470963.297    20470967.156
  20470967.336          47.200          52.500
 126177683.036 7  98320296.825 6  24010814.914    24010818.973
  24010819.082          42.000          40.000
 120430830.935 7  93842229.576 7  22917221.000    22917225.176
  22917225.305          44.600          43.200
 121281945.444 7  94505435.112 7  23079184.156    23079190.953
  23079190.543          42.900          44.300
 124743386.316 7  97202657.949 6  23737874.617    23737878.910
  23737878.555          42.800          41.200
 114703047.057 7  89379046.006 7  21827263.758    21827270.574
  21827270.699          45.300          47.600
 127526526.839 6  99371341.20542  24267488.977
  24267495.063          36.200          17.800
 111566097.111 7  86934646.26646  21230317.953
  21230322.043          46.300          38.100
 117692912.186 7  91708785.574 7  22396214.156    22396218.121
  22396218.176          43.900          43.700
 111824193.979 7  87135768.43146  21279432.375
  21279435.434          47.000          36.500
 21  5 10  1 29 30.0000000  0 10G18G07G29G27G23G26G13G16G05G20
 107554382.084 7  83808644.707 8  20466913.844    20466917.379
  20466917.531          46.600          52.300
 126131088.895 6  98283989.760 6  24001947.344    24001952.418
  24001952.328          41.600          38.600
 120533042.553 7  93921874.979 7  22936670.563    22936675.512
  22936675.328          43.500          42.300
 121178473.245 7  94424807.473 7  23059493.445    23059500.316
  23059500.055          42.700          44.900
 124632307.595 7  97116103.173 7  23716736.602    23716741.738
  23716742.066          43.700          42.600
 114763950.437 7  89426503.175 7  21838852.961    21838860.281
  21838860.508          45.400          47.300
 127439504.038 6  99303531.27143  24250930.492
  24250936.090          37.700          18.600
 111568388.376 7  86936431.66146  21230754.148
  21230757.992          46.600          37.900
 117755833.395 7  91757815.038 7  22408187.859    22408191.809
  22408191.813          44.500          44.500
 111811687.029 7  87126022.75846  21277052.719
  21277055.711          47.100          37.100
 21  5 10  1 30  0.0000000  0 10G18G07G29G27G23G26G13G16G05G20
 107533664.403 7  83792501.064 8  20462970.953    20462975.211
  20462975.488          47.600          52.500
 126085001.721 7  98248077.735 6  23993177.461    23993182.074
  23993182.043          42.300          38.100
 120635514.931 6  94001723.525 7  22956170.461    22956175.391
  22956175.313          41.800          42.500
 121075265.884 7  94344386.197 7  23039854.484    23039861.133
  23039861.059          43.000          44.500
 124521434.661 6  97029708.731 7  23695638.180    23695643.703
  23695643.629          41.800          43.200
 114825366.154 7  89474359.555 7  21850540.344    21850547.309
  21850547.480          47.000          47.800
 127352855.630 6  99236013.03943  24234441.672
  24234446.227          38.500          19.900
 111571341.430 7  86938732.73946  21231316.492
  21231319.836          46.400          38.500
 117819290.696 7  91807262.257 7  22420263.477    22420267.809
  22420267.641          45.800          43.800
 111799789.288 7  87116751.79346  21274788.570
  21274791.734          47.000          36.600
 21  5 10  1 30 30.0000000  0 10G18G07G29G27G23G26G13G16G05G20
 107513511.329 7  83776797.369 8  20459136.141    20459140.000
  20459140.230          47.600          53.000
 126039423.213 7  98212562.014 6  23984504.898    23984508.801
  23984508.504          42.800          38.900
 120738246.081 7  94081773.741 7  22975720.383    22975724.258
  22975724.324          43.400          42.400
 120972325.887 7  94264173.264 7  23020265.523    23020271.578
  23020271.602          42.800          44.500
 124410770.332 6  96943476.901 7  23674579.203    23674585.148
  23674584.766          40.300          44.300
 114887292.565 7  89522613.867 7  21862324.414    21862331.434
  21862331.754          45.300          47.900
 127266584.859 6  99168789.08643  24218024.797
  24218029.652          38.300          18.600
 111574956.515 7  86941549.68146  21232004.461
  21232007.742          47.300          37.900
 117883282.282 7  91857125.800 7  22432440.828    22432444.984
  22432444.949          45.800          44.000
 111788501.622 7  87107956.21146  21272640.313
  21272643.793          47.200          36.600
 21  5 10  1 31  0.0000000  0 10G18G07G29G27G23G26G13G16G05G20
 107493923.052 7  83761533.772 8  20455408.484    20455413.086
  20455413.066          47.000          52.100
 125994354.921 7  98177443.848 6  23975927.789    23975932.723
  23975932.270          42.000          37.700
 120841234.255 7  94162024.225 7  22995317.984    22995322.359
  22995322.164          43.300          42.200
 120869655.199 7  94184170.165 7  23000728.461    23000734.715
  23000734.789          42.900          45.300
 124300317.111 6  96857409.585 7  23653560.594    23653566.141
  23653566.055          40.500          42.800
 114949727.425 7  89571264.396 7  21874204.891    21874212.270
  21874212.289          45.300          47.500
 127180694.503 6  99101861.53843  24201680.711
  24201685.359          39.200          19.000
 111579233.420 7  86944882.32646  21232818.555
  21232821.508          47.100          38.300
 117947805.088 7  91907403.280 7  22444719.313    22444723.258
  22444723.129          46.400          44.500
 111777824.135 7  87099636.09546  21270608.555
  21270611.727          47.200          36.900
 21  5 10  1 31 30.0000000  0 10G18G07G29G27G23G26G13G16G05G20
 107474900.217 7  83746710.786 8  20451788.516    20451792.906
  20451793.063          46.600          53.000
 125949798.470 7  98142724.520 6  23967448.883    23967453.305
  23967453.473          42.100          39.500
 120944477.431 7  94242473.420 7  23014964.977    23014969.180
  23014969.348          43.700          42.400
 120767256.418 7  94104378.966 7  22981241.914    22981248.242
  22981248.301          42.600          44.900
 124190077.968 7  96771509.054 7  23632583.141    23632588.031
  23632587.906          42.200          42.100
 115012669.110 7  89620309.824 7  21886182.586    21886189.750
  21886190.348          43.300          47.800
 127095187.909 6  99035233.03843  24185409.125
  24185414.145          38.100          18.600
 111584172.427 7  86948730.90046  21233758.617
  21233761.793          47.200          38.100
 118012857.466 7  91958093.378 7  22457097.805    22457102.191
  22457102.320          44.200          45.000
 111767757.299 7  87091791.80746  21268692.984
  21268696.238          47.800          37.600
 21  5 10  1 32  0.0000000  0 10G18G07G29G27G23G26G13G16G05G20
 107456442.634 7  83732328.252 8  20448276.211    20448280.281
  20448280.355          46.500          52.400
 125905755.160 6  98108405.096 6  23959067.258    23959072.301
  23959072.453          39.700          39.700
 121047972.804 7  94323119.130 7  23034658.992    23034664.098
  23034664.043          43.800          43.400
 120665131.227 7  94024800.926 7  22961808.133    22961814.734
  22961814.840          42.600          44.700
 124080055.051 7  96685776.941 6  23611646.836    23611651.051
  23611650.496          42.400          39.300
 115076115.050 7  89669748.195 7  21898255.891    21898263.043
  21898263.191          45.500          47.200
 127010067.460 6  98968905.46243  24169209.750
  24169216.250          36.900          19.600
 111589772.378 7  86953094.50846  21234823.781
  21234827.148          46.700          38.300
 118078436.660 7  92009194.009 7  22469577.008    22469581.789
  22469581.707          45.500          44.700
 111758300.600 7  87084422.94646  21266893.523
  21266896.609          47.300          37.500
 21  5 10  1 32 30.0000000  0 10G18G07G29G27G23G26G13G16G05G20
 107438551.163 7  83718386.848 8  20444871.422    20444875.348
  20444875.500          46.800          53.400
 125862227.039 6  98074487.140 6  23950783.992    23950789.410
  23950789.695          41.100          39.200
 121151719.340 7  94403960.531 7  23054400.969    23054405.969
  23054406.004          42.600          42.500
 120563282.398 7  93945438.231 7  22942427.563    22942433.328
  22942433.543          42.600          45.600
 123970251.451 6  96600215.712 6  23590751.430    23590754.953
  23590754.957          39.400          39.500
 115140063.769 7  89719578.350 7  21910424.852    21910432.012
  21910432.063          44.700          46.900
 126925336.402 6  98902881.32043  24153086.742
  24153092.211          38.300          20.100
 111596033.788 7  86957973.52646  21236015.266
  21236018.738          47.100          38.300
 118144540.704 7  92060703.642 7  22482156.539    22482161.168
  22482160.992          45.800          43.500
 111749455.345 7  87077530.54446  21265210.180
  21265213.652          47.900          37.300
 21  5 10  1 33  0.0000000  0 10G18G07G29G27G23G26G13G16G05G20
 107421226.188 7  83704886.867 8  20441574.641    20441578.660
  20441578.914          47.000          52.300
 125819215.363 6  98040971.570 6  23942600.094    23942604.754
  23942604.582          41.200          40.800
 121255714.824 7  94484995.943 6  23074191.523    23074195.418
  23074195.258          43.900          41.700
 120461712.127 7  93866292.635 7  22923098.867    22923105.309
  22923105.539          43.300          45.300
 123860669.750 6  96514827.488 7  23569897.391    23569902.773
  23569902.824          37.100          42.200
 115204513.265 7  89769798.727 7  21922689.477    21922696.438
  21922696.855          45.400          47.000
 126840998.087 6  98837163.19043  24137038.750
  24137042.785          39.300          21.300
 111602957.012 7  86963368.24446  21237332.883
  21237336.375          46.500          38.300
 118211167.713 7  92112620.777 7  22494835.391    22494839.578
  22494839.699          45.700          43.600
 111741221.539 7  87071114.59946  21263643.602
  21263646.836          47.300          37.500
 21  5 10  1 33 30.0000000  0 10G18G07G29G27G23G26G13G16G05G20
 107404467.896 7  83691828.465 8  20438385.875    20438389.703
  20438389.969          46.000          52.700
 125776721.704 7  98007859.643 6  23934514.563    23934518.855
  23934518.691          42.700          40.600
 121359957.343 7  94566223.860 7  23094027.891    23094032.707
  23094032.711          43.700          42.900
 120360422.682 7  93787365.823 7  22903823.984    22903830.785
  22903830.719          43.000          45.200
 123751312.651 6  96429614.280 7  23549088.391    23549093.301
  23549092.941          40.100          43.000
 115269461.368 7  89820407.613 7  21935048.508    21935055.910
  21935056.215          45.500          47.300
 126757055.341 6  98771753.32343  24121065.273
  24121070.152          39.600          21.800
 111610540.980 7  86969277.82246  21238776.180
  21238779.527          46.600          38.000
 118278314.793 7  92164943.199 7  22507612.234    22507617.102
  22507617.016          44.800          43.500
 111733599.074 7  87065175.01246  21262192.547
  21262196.051          47.400          37.400
 21  5 10  1 34  0.0000000  0 10G18G07G29G27G23G26G13G16G05G20
 107388276.401 7  83679211.708 8  20435304.422    20435308.789
  20435309.012          46.400          53.200
 125734747.396 7  97975152.408 6  23926526.344    23926530.961
  23926531.039          42.400          40.400
 121464444.792 7  94647642.601 7  23113910.781    23113916.051
  23113916.070          43.600          43.800
 120259416.065 7  93708659.409 7  22884603.297    22884609.488
  22884609.539          43.600          45.100
 123642182.646 7  96344577.982 7  23528321.805    23528326.492
  23528326.098          42.400          42.100
 115334905.902 7  89871403.335 7  21947502.367    21947509.574
  21947509.898          45.300          47.900
 126673510.847 6  98706653.69643  24105166.148
  24105171.547          39.900          21.700
 111618785.705 7  86975702.27846  21240344.938
  21240348.258          46.000          38.100
 118345979.592 7  92217669.006 7  22520488.828    22520492.910
  22520493.227          45.100          42.600
 111726588.077 7  87059711.89346  21260858.695
  21260861.711          47.000          36.800
 21  5 10  1 34 30.0000000  0 10G18G07G29G27G23G26G13G16G05G20
 107372652.138 7  83667036.962 8  20432331.125    20432335.422
  20432335.613          46.900          53.100
 125693293.978 7  97942851.050 6  23918638.109    23918641.871
  23918642.285          42.400          39.400
 121569175.597 7  94729250.964 7  23133840.172    23133845.449
  23133845.824          43.400          43.400
 120158694.725 7  93630175.272 7  22865436.125    22865442.789
  22865442.801          43.000          44.700
 123533282.600 7  96259720.844 6  23507598.578    23507603.125
  23507602.625          42.400          40.500
 115400844.959 7  89922784.392 7  21960050.023    21960057.027
  21960057.387          45.300          47.100
 126590367.626 6  98641866.79543  24089345.164
  24089349.805          38.600          22.000
 111627691.324 7  86982641.72246  21242039.688
  21242042.945          46.400          38.400
 118414159.745 7  92270796.355 7  22533463.477    22533467.996
  22533467.742          45.600          43.000
 111720189.153 7  87054725.72046  21259641.063
  21259643.961          46.900          37.300
 21  5 10  1 35  0.0000000  0 10G18G07G29G27G23G26G13G16G05G20
 107357595.287 7  83655304.347 8  20429466.117    20429470.438
  20429470.473          47.200          53.400
 125652362.926 7  97910956.713 6  23910849.469    23910853.516
  23910853.711          42.000          41.100
 121674147.699 6  94811047.344 7  23153816.273    23153821.590
  23153821.309          41.900          42.400
 120058260.833 7  93551915.152 7  22846324.523    22846330.164
  22846330.367          43.400          45.000
 123424614.966 6  96175044.791 6  23486920.117    23486924.477
  23486924.215          40.300          41.200
 115467276.399 7  89974549.139 7  21972691.328    21972699.051
  21972698.875          43.200          47.300
 126507628.909 6  98577395.15843  24073599.875
  24073604.785          39.500          19.900
 111637257.143 7  86990095.60646  21243859.477
  21243863.492          46.700          38.400
 118482853.016 7  92324323.519 7  22546535.094    22546539.418
  22546539.406          43.300          43.500
 111714402.387 7  87050216.56346  21258540.047
  21258543.363          47.800          37.400
 21  5 10  1 35 30.0000000  0 10G18G07G29G27G23G26G13G16G05G20
 107343106.288 7  83644014.223 8  20426708.594    20426713.246
  20426713.258          46.900          52.600
 125611955.961 6  97879470.780 6  23903159.719    23903164.668
  23903164.770          41.100          40.200
 121779358.605 7  94893029.823 7  23173837.422    23173841.848
  23173841.613          43.600          42.300
 119958116.853 7  93473880.926 7  22827267.445    22827273.797
  22827273.914          42.800          45.000
 123316182.561 6  96090552.078 7  23466284.758    23466290.539
  23466290.367          38.800          42.700
 115534198.302 7  90026696.045 7  21985426.313    21985433.816
  21985433.754          45.300          47.300
 126425297.564 6  98513240.93543  24057933.063
  24057937.352          39.400          20.900
 111647483.647 7  86998064.31746  21245805.516
  21245809.313          46.800          38.100
 118552057.418 7  92378249.002 7  22559704.617    22559708.852
  22559708.539          46.000          43.300
 111709227.669 7  87046184.31046  21257555.008
  21257558.676          47.500          37.500
 21  5 10  1 36  0.0000000  0 10G18G07G29G27G23G26G13G16G05G20
 107329185.428 7  83633166.804 8  20424059.945    20424064.020
  20424064.129          47.300          52.600
 125572074.386 6  97848394.274 6  23895570.266    23895575.480
  23895575.711          41.600          41.900
 121884806.927 7  94975197.320 7  23193904.148    23193908.453
  23193908.590          43.600          42.100
 119858265.086 7  93396074.381 7  22808266.586    22808273.055
  22808273.074          43.000          44.300
 123207988.172 6  96006244.852 7  23445696.703    23445702.977
  23445703.207          41.800          44.600
 115601608.646 7  90079223.551 7  21998254.438    21998261.527
  21998261.699          44.900          47.500
 126343376.652 6  98449406.48743  24042343.391
  24042348.418          38.400          20.100
 111658370.045 7  87006547.22146  21247877.164
  21247880.566          47.100          37.700
 118621770.130 7  92432570.561 7  22572970.703    22572974.594
  22572974.660          44.900          43.200
 111704665.237 7  87042629.16346  21256686.969
  21256690.133          47.900          37.100
 21  5 10  1 36 30.0000000  0 10G18G07G29G27G23G26G13G16G05G20
 107315832.775 7  83622762.148 8  20421519.102    20421523.023
  20421523.137          47.200          52.700
 125532719.434 7  97817728.133 6  23888081.805    23888086.141
  23888085.992          42.800          41.700
 121990490.428 7  95057548.070 6  23214014.719    23214018.660
  23214018.652          42.900          40.400
 119758707.629 7  93318497.193 7  22789320.992    22789327.172
  22789327.203          44.000          45.300
 123100034.341 7  95922125.042 7  23425154.008    23425159.766
  23425159.813          43.500          45.800
 115669505.173 7  90132129.902 7  22011174.469    22011181.547
  22011181.844          46.100          47.500
 126261869.068 6  98385894.17743  24026833.320
  24026838.066          38.100          19.900
 111669915.835 7  87015543.93646  21250074.758
  21250077.598          47.000          37.600
 118691988.946 7  92487286.503 7  22586332.445    22586337.043
  22586337.371          45.100          43.700
 111700715.236 7  87039551.24246  21255935.359
  21255938.500          47.100          37.300
 21  5 10  1 37  0.0000000  0 10G18G07G29G27G23G26G13G16G05G20
 107303048.501 7  83612800.374 8  20419086.016    20419090.773
  20419091.031          46.800          52.900
 125493892.868 7  97787473.641 6  23880693.625    23880697.969
  23880697.840          42.000          41.200
 122096407.227 7  95140080.620 6  23234169.969    23234174.039
  23234174.402          43.400          40.100
 119659446.731 7  93241151.081 7  22770432.625    22770438.785
  22770439.074          42.800          45.800
 122992323.686 6  95838194.712 7  23404657.547    23404662.848
  23404663.344          41.700          45.600
 115737885.730 7  90185413.420 7  22024187.125    22024193.660
  22024193.805          45.800          47.500
 126180777.264 6  98322705.77043  24011401.477
  24011406.680          36.600          19.000
 111682120.670 7  87025054.19446  21252397.078
  21252400.313          47.200          37.600
 118762711.284 7  92542394.789 7  22599790.539    22599795.000
  22599795.059          45.500          44.200
 111697377.461 7  87036950.38146  21255299.852
  21255303.637          46.700          37.100
 21  5 10  1 37 30.0000000  0 11G18G07G29G27G23G26G13G15G16G05G20
 107290832.648 7  83603281.529 8  20416761.805    20416765.902
  20416765.871          46.800          52.800
 125455595.778 6  97757631.785 6  23873405.352    23873410.199
  23873410.477          41.500          41.100
 122202555.244 7  95222793.347 6  23254369.297    23254373.480
  23254373.707          43.000          41.400
 119560484.598 7  93164037.745 7  22751600.141    22751606.629
  22751607.148          43.300          45.900
 122884858.688 6  95754455.826 7  23384207.125    23384212.266
  23384213.098          40.900          44.400
 115806748.116 7  90239072.400 7  22037291.016    22037298.133
  22037298.746          45.700          47.300
 126100104.327 6  98259843.77843  23996050.227
  23996055.109          38.700          20.400
 128349225.82616 100012408.43916  24424045.680    24424050.598
  24424050.387          38.100          39.900
 111694984.026 7  87035077.58846  21254845.227
  21254848.180          47.300          37.700
 118833934.756 7  92597893.576 7  22613343.719    22613348.402
  22613348.711          44.100          44.600
 111694651.924 7  87034826.59446  21254781.211
  21254785.137          47.000          36.900
 21  5 10  1 38  0.0000000  0 11G18G07G29G27G23G26G13G15G16G05G20
 107279185.737 7  83594206.008 8  20414545.375    20414549.711
  20414549.613          47.300          52.500
 125417829.540 6  97728203.601 6  23866218.633    23866223.418
  23866223.238          40.200          41.100
 122308932.681 7  95305684.820 7  23274612.406    23274616.691
  23274616.887          42.800          42.500
 119461823.741 7  93087159.188 7  22732825.570    22732832.613
  22732832.695          43.300          45.700
 122777642.426 6  95670910.730 7  23363804.609    23363809.430
  23363810.172          41.200          43.700
 115876090.489 7  90293105.390 7  22050486.648    22050493.633
  22050493.609          46.200          47.200
 126019853.671 6  98197310.79443  23980778.891
  23980783.816          38.000          19.000
 128247366.486 6  99933037.618 6  24404661.688    24404667.809
  24404667.605          37.800          39.700
 111708505.944 7  87045614.15346  21257417.883
  21257421.297          47.000          37.400
 118905657.364 7  92653781.284 7  22626991.906    22626996.516
  22626996.949          43.300          44.500
 111692538.973 8  87033180.13546  21254379.359
  21254383.047          48.200          36.700
 21  5 10  1 38 30.0000000  0 11G18G07G29G27G23G26G13G15G16G05G20
 107268107.600 7  83585573.692 8  20412437.422    20412440.859
  20412441.063          46.500          52.500
 125380595.367 6  97699189.957 6  23859132.844    23859138.059
  23859137.664          39.800          40.800
 122415537.494 6  95388753.445 7  23294898.055    23294903.531
  23294903.570          41.800          42.700
 119363466.168 7  93010516.960 7  22714109.234    22714116.121
  22714116.305          44.200          45.600
 122670677.224 7  95587561.266 7  23343449.883    23343454.371
  23343454.645          42.900          44.100
 115945910.316 7  90347510.442 7  22063772.422    22063780.035
  22063780.410          45.000          46.700
 125940027.805 6  98135108.89443  23965588.945
  23965593.477          37.900          19.300
 128145770.599 6  99853872.058 6  24385329.023    24385334.273
  24385334.500          40.200          39.400
 111722686.359 7  87056663.81846  21260116.539
  21260119.773          47.000          38.100
 118977875.896 7  92710055.437 7  22640735.359    22640740.035
  22640740.148          44.300          43.800
 111691038.143 7  87032010.67146  21254093.773
  21254096.867          47.000          37.100
 21  5 10  1 39  0.0000000  0 11G18G07G29G27G23G26G13G15G16G05G20
 107257598.491 7  83577384.772 8  20410437.164    20410441.320
  20410441.508          47.500          52.400
 125343894.740 6  97670592.119 6  23852148.656    23852153.105
  23852153.055          40.000          39.200
 122522367.826 6  95471997.807 7  23315227.531    23315232.859
  23315232.895          41.000          42.800
 119265414.274 7  92934112.921 7  22695450.164    22695456.395
  22695456.223          43.600          45.300
 122563965.910 7  95504409.646 7  23323143.289    23323148.031
  23323148.484          43.300          44.400
 116016205.670 7  90402286.000 7  22077149.742    22077156.578
  22077156.695          45.000          46.600
 125860629.583 6  98073240.19843  23950479.766
  23950484.664          39.200          20.400
 128044441.391 6  99774914.304 6  24366047.000    24366051.633
  24366051.887          39.900          37.700
 111737523.739 7  87068225.40946  21262939.828
  21262943.160          47.600          37.900
 119050588.118 7  92766714.272 7  22654571.781    22654576.535
  22654576.422          44.500          43.800
 111690149.750 7  87031318.41946  21253924.688
  21253927.629          46.900          36.600
 21  5 10  1 39 30.0000000  0 11G18G07G29G27G23G26G13G15G16G05G20
 107247658.358 7  83569639.207 8  20408545.820    20408549.750
  20408549.918          47.400          53.000
 125307728.969 6  97642411.008 6  23845266.922    23845271.297
  23845271.027          40.900          39.700
 122629421.339 6  95555416.064 7  23335599.094    23335604.238
  23335604.426          41.700          43.100
 119167670.209 7  92857948.743 7  22676850.633    22676857.473
  22676857.422          43.500          47.000
 122457510.930 7  95421457.784 7  23302885.172    23302890.180
  23302890.422          42.200          43.900
 116086974.124 7  90457430.231 7  22090616.492    22090623.465
  22090623.727          45.500          47.000
 125781661.731 6  98011706.82043  23935452.859
  23935457.129          39.600          20.100
 127943381.986 6  99696166.786 6  24346815.703    24346821.109
  24346821.332          39.200          38.200
 111753017.910 7  87080298.79046  21265888.250
  21265891.496          46.600          38.000
 119123791.656 7  92823755.959 7  22668502.109    22668506.422
  22668506.621          45.000          43.400
 111689873.354 7  87031103.04446  21253871.781
  21253874.934          47.400          36.600
 21  5 10  1 40  0.0000000  0 11G18G07G29G27G23G26G13G15G16G05G20
 107238287.604 7  83562337.321 8  20406762.758    20406766.742
  20406766.703          46.700          53.000
 125272099.633 6  97614647.900 6  23838487.250    23838491.199
  23838491.387          41.600          40.100
 122736696.348 7  95639006.921 7  23356012.734    23356018.453
  23356018.590          42.200          42.900
 119070236.445 7  92782026.378 7  22658309.203    22658315.977
  22658316.066          43.000          46.500
 122351315.181 7  95338707.942 7  23282676.570    23282681.512
  23282682.145          42.100          44.100
 116158213.821 7  90512941.655 7  22104172.984    22104179.988
  22104180.141          45.200          46.600
 125703127.640 6  97950511.46043  23920508.945
  23920512.719          39.700          20.600
 127842596.147 6  99617632.408 6  24327636.797    24327642.145
  24327642.117          38.800          39.000
 111769168.739 7  87092883.85546  21268961.867
  21268965.301          46.300          37.700
 119197484.194 7  92881178.673 7  22682525.461    22682529.461
  22682529.418          44.500          42.800
 111690209.383 7  87031364.88046  21253935.734
  21253938.980          46.900          37.200
 21  5 10  1 40 30.0000000  0 11G18G07G29G27G23G26G13G15G16G05G20
 107229486.302 7  83555479.169 8  20405087.773    20405092.047
  20405092.191          47.000          53.300
 125237007.675 6  97587303.540 6  23831809.336    23831813.879
  23831813.711          41.000          40.900
 122844191.072 7  95722768.994 6  23376469.305    23376473.035
  23376473.152          42.100          41.600
 118973115.294 7  92706347.601 7  22639827.445    22639834.512
  22639834.852          42.800          46.300
 122245381.340 7  95256162.127 6  23262518.477    23262521.898
  23262522.695          43.600          41.500
 116229922.527 7  90568818.541 7  22117818.719    22117825.980
  22117826.250          43.700          46.600
 125625030.039 6  97889656.18843  23905646.438
  23905651.508          41.300          22.800
 127742086.843 6  99539313.523 6  24308510.070    24308515.203
  24308514.930          39.300          37.000
 111785975.643 7  87105980.13646  21272160.141
  21272163.328          47.200          37.000
 119271663.340 7  92938980.554 7  22696641.414    22696644.949
  22696645.055          42.300          43.200
 111691157.743 7  87032103.86146  21254116.789
  21254119.848          46.200          37.100
 21  5 10  1 41  0.0000000  0 11G18G07G29G27G23G26G13G15G16G05G20
 107221254.463 7  83549064.757 8  20403521.391    20403525.578
  20403525.676          46.800          53.200
 125202454.317 6  97560378.868 6  23825234.141    23825238.672
  23825238.793          41.700          41.300
 122951903.357 7  95806700.621 6  23396965.969    23396970.594
  23396970.496          43.500          40.600
 118876308.963 7  92630914.122 7  22621406.109    22621412.328
  22621412.523          43.900          45.800
 122139712.040 7  95173822.408 7  23242410.297    23242414.711
  23242414.621          43.400          42.100
 116302097.984 7  90625059.124 7  22131553.766    22131560.383
  22131560.563          45.800          46.600
 125547371.624 6  97829143.22843  23890868.352
  23890874.199          39.700          22.600
 127641857.176 6  99461212.526 6  24289437.438    24289442.688
  24289442.355          38.700          37.300
 111803438.099 7  87119587.24246  21275482.703
  21275486.066          47.200          37.700
 119346326.245 7  92997159.371 7  22710848.867    22710853.359
  22710853.195          44.700          42.500
 111692718.048 7  87033319.68446  21254413.477
  21254416.613          47.500          37.400
 21  5 10  1 41 30.0000000  0 11G18G07G29G27G23G26G13G15G16G05G20
 107213592.026 7  83543094.022 8  20402063.539    20402067.672
  20402067.801          46.300          52.800
 125168440.968 6  97533874.990 6  23818760.758    23818766.055
  23818766.164          40.900          41.100
 123059831.614 7  95890800.540 6  23417504.461    23417508.645
  23417508.965          43.400          41.400
 118779819.654 7  92555727.667 7  22603045.008    22603051.074
  22603050.984          44.400          45.300
 122034309.829 6  95091690.837 7  23222352.922    23222357.520
  23222357.930          41.300          44.100
 116374737.865 7  90681661.605 7  22145376.383    22145383.270
  22145383.313          45.400          46.500
 125470155.161 6  97768974.58943  23876174.672
  23876180.020          38.700          20.900
 127541910.213 6  99383331.826 6  24270417.383    24270423.512
  24270423.203          37.300          36.600
 111821555.271 7  87133704.51146  21278930.656
  21278933.750          47.300          38.300
 119421470.729 7  93055713.511 7  22725148.203    22725152.711
  22725152.699          44.900          42.300
 111694890.231 7  87035012.29346  21254826.539
  21254829.996          47.300          37.500
 21  5 10  1 42  0.0000000  0 11G18G07G29G27G23G26G13G15G16G05G20
 107206499.087 7  83537567.057 8  20400713.656    20400718.086
  20400718.379          47.600          53.000
 125134969.146 6  97507793.078 6  23812390.953    23812396.238
  23812396.465          39.400          41.100
 123167973.544 7  95975066.933 7  23438083.109    23438087.410
  23438087.570          43.500          42.600
 118683649.667 7  92480790.019 7  22584744.492    22584750.449
  22584750.301          44.700          45.000
 121929177.353 6  95009769.504 7  23202346.320    23202351.867
  23202352.230          40.900          44.500
 116447839.979 7  90738624.262 7  22159287.102    22159294.363
  22159294.352          45.300          46.400
 125393383.653 6  97709152.63043  23861566.102
  23861570.285          40.100          22.200
 127442249.361 6  99305674.083 6  24251453.203    24251457.781
  24251458.102          37.100          37.100
 111840326.636 7  87148331.54846  21282502.336
  21282505.594          47.500          37.600
 119497094.258 7  93114640.929 7  22739539.172    22739543.805
  22739543.750          44.200          42.600
 111697674.157 7  87037181.58346  21255356.352
  21255359.383          46.800          37.100
 21  5 10  1 42 30.0000000  0 11G18G07G29G27G23G26G13G15G16G05G20
 107199975.724 7  83532483.916 8  20399471.852    20399476.449
  20399476.637          46.700          53.200
 125102039.655 6  97482133.736 6  23806125.422    23806130.105
  23806130.039          40.500          40.400
 123276327.255 6  96059498.328 6  23458701.555    23458706.605
  23458706.875          41.900          41.900
 118587801.405 7  92406103.095 7  22566504.688    22566511.273
  22566511.461          44.600          46.400
 121824317.387 7  94928060.535 7  23182392.328    23182397.359
  23182397.930          42.400          44.500
 116521402.180 7  90795945.416 7  22173285.453    22173292.609
  22173292.660          45.100          46.700
 125317059.760 6  97649679.49843  23847041.945
  23847046.566          37.900          20.900
 127342877.964 6  99228241.891 5  24232543.695    24232548.512
  24232548.516          36.900          35.800
 111859751.861 7  87163468.07946  21286199.188
  21286202.504          47.900          37.900
 119573194.168 7  93173939.527 7  22754021.234    22754025.023
  22754025.555          43.900          43.200
 111701069.782 7  87039827.52146  21256002.820
  21256006.055          47.800          37.400
 21  5 10  1 43  0.0000000  0 11G18G07G29G27G23G26G13G15G16G05G20
 107194021.939 7  83527844.595 8  20398339.383    20398343.379
  20398343.574          46.400          53.400
 125069653.914 6  97456898.143 6  23799962.977    23799967.262
  23799967.211          41.400          39.200
 123384890.883 6  96144093.292 6  23479360.461    23479365.453
  23479365.680          41.000          41.400
 118492277.117 7  92331668.625 7  22548327.320    22548333.566
  22548333.426          43.900          46.200
 121719732.600 7  94846565.963 7  23162490.328    23162495.375
  23162495.793          42.400          44.400
 116595422.168 7  90853623.288 7  22187370.914    22187378.289
  22187378.625          43.800          46.800
 125241186.379 6  97590557.46843  23832603.859
  23832608.090          38.900          21.100
 127243799.202 6  99151037.671 6  24213688.867    24213694.320
  24213693.961          38.200          36.900
 111879829.957 7  87179113.33846  21290019.953
  21290023.207          47.600          38.200
 119649768.192 7  93233607.575 7  22768592.297    22768596.742
  22768596.898          44.100          43.300
 111705076.876 7  87042949.93146  21256765.570
  21256768.371          46.600          37.100
 21  5 10  1 43 30.0000000  0 11G18G07G29G27G23G26G13G15G16G05G20
 107188637.737 7  83523649.119 8  20397314.727    20397319.008
  20397319.238          47.200          53.100
 125037812.821 7  97432086.887 6  23793903.914    23793907.762
  23793908.156          42.200          39.400
 123493662.100 6  96228850.046 6  23500058.992    23500063.594
  23500063.828          40.100          39.900
 118397079.061 7  92257488.358 7  22530210.742    22530217.516
  22530217.914          43.600          46.000
 121615425.599 6  94765287.854 7  23142640.977    23142645.758
  23142646.102          41.700          43.600
 116669897.757 7  90911656.186 7  22201543.750    22201550.648
  22201550.273          45.200          46.200
 125165766.466 6  97531788.74843  23818251.305
  23818255.988          39.200          21.100
 127145016.201 6  99074063.931 6  24194891.375    24194896.609
  24194896.387          38.200          37.100
 111900560.573 7  87195267.06146  21293964.883
  21293967.957          47.500          38.200
 119726813.626 7  93293642.921 7  22783253.445    22783257.844
  22783258.035          45.600          43.100
 111709695.073 8  87046548.52646  21257643.875
  21257647.211          48.000          37.100
 21  5 10  1 44  0.0000000  0 11G18G07G29G27G23G26G13G15G16G05G20
 107183822.925 7  83519897.314 8  20396398.492    20396402.754
  20396402.863          47.000          53.200
 125006517.583 6  97407700.999 6  23787948.477    23787953.316
  23787952.875          41.800          39.700
 123602639.327 6  96313767.320 6  23520796.766    23520801.867
  23520801.656          41.600          39.600
 118302209.312 7  92183563.910 7  22512158.398    22512164.820
  22512164.855          43.000          46.000
 121511398.881 7  94684228.160 7  23122845.695    23122850.406
  23122850.738          42.100          44.300
 116744826.451 7  90970042.152 7  22215801.164    22215809.098
  22215809.313          44.000          46.500
 125090802.574 6  97473375.39243  23803986.414
  23803991.102          40.600          21.100
 127046532.183 6  98997323.200 6  24176151.094    24176156.133
  24176155.555          40.200          37.800
 111921942.887 8  87211928.59846  21298033.820
  21298036.828          48.500          38.200
 119804327.847 7  93354043.603 7  22798003.805    22798008.438
  22798008.539          45.000          42.900
 111714923.981 8  87050622.98846  21258639.047
  21258642.070          48.300          37.500
 21  5 10  1 44 30.0000000  0 11G18G07G29G27G23G26G13G15G16G05G20
 107179577.626 7  83516589.295 8  20395590.555    20395594.734
  20395594.805          46.600          52.800
 124975769.461 6  97383741.418 6  23782096.484    23782101.723
  23782101.695          41.100          40.800
 123711820.543 7  96398843.565 6  23541573.273    23541577.668
  23541577.883          42.200          40.600
 118207670.419 7  92109897.259 7  22494168.156    22494174.547
  22494174.723          44.400          46.400
 121407655.266 7  94603389.029 7  23103103.938    23103109.215
  23103109.316          44.100          44.900
 116820206.108 7  91028779.505 7  22230146.125    22230153.414
  22230153.551          43.500          45.700
 125016297.640 6  97415319.60743  23789808.453
  23789813.508          39.200          20.600
 126948350.536 6  98920818.042 6  24157467.188    24157472.535
  24157472.129          39.700          38.000
 111943975.878 7  87229097.15946  21302226.648
  21302229.895          47.600          37.800
 119882308.529 7  93414807.758 7  22812842.602    22812847.410
  22812847.922          43.600          42.300
 111720763.439 8  87055173.21146  21259750.328
  21259753.594          48.100          37.100
 21  5 10  1 45  0.0000000  0 11G18G07G29G27G23G26G13G15G16G05G20
 107175901.642 7  83513724.891 8  20394891.266    20394895.328
  20394895.488          47.200          52.700
 124945569.336 6  97360208.883 6  23776350.055    23776354.680
  23776354.883          41.000          40.200
 123821203.483 6  96484076.981 6  23562388.570    23562393.281
  23562393.047          41.700          41.100
 118113464.487 7  92036490.051 7  22476241.500    22476247.813
  22476248.000          44.600          46.800
 121304197.291 7  94522772.512 7  23083416.578    23083421.586
  23083421.961          43.600          45.000
 116896034.396 7  91087866.456 7  22244575.672    22244582.953
  22244583.266          44.200          46.000
 124942254.309 6  97357623.52843  23775718.594
  23775723.930          39.700          21.700
 126850474.223 6  98844550.827 6  24138841.758    24138847.031
  24138847.086          39.200          39.700
 111966659.016 7  87246772.32946  21306542.648
  21306546.000          47.400          36.800
 119960752.834 7  93475933.161 7  22827770.563    22827774.863
  22827774.836          43.800          42.000
 111727213.273 8  87060199.05346  21260977.867
  21260980.902          48.000          37.300
 21  5 10  1 45 30.0000000  0 11G18G07G29G27G23G26G13G15G16G05G20
 107172794.793 7  83511303.971 8  20394299.422    20394303.605
  20394303.688          46.400          52.700
 124915918.252 6  97337104.171 6  23770707.102    23770712.133
  23770712.348          41.000          41.300
 123930786.541 6  96569466.315 6  23583240.867    23583245.984
  23583246.148          41.200          41.400
 118019593.642 7  91963343.953 7  22458378.313    22458384.555
  22458384.660          43.900          46.400
 121201027.433 7  94442380.463 7  23063784.047    23063788.289
  23063788.949          43.800          43.500
 116972308.773 7  91147301.010 7  22259090.461    22259097.461
  22259097.617          44.600          45.500
 124868675.244 6  97300289.21043  23761716.992
  23761721.520          41.300          21.700
 126752906.970 6  98768524.439 6  24120275.250    24120280.402
  24120280.547          40.200          40.600
 111989991.220 7  87264953.25846  21310983.141
  21310985.973          47.400          37.500
 120039658.308 7  93537417.926 7  22842786.000    22842790.293
  22842790.586          44.100          42.500
 111734273.035 8  87065700.16846  21262321.125
  21262324.602          48.100          38.100
 21  5 10  1 46  0.0000000  0 11G18G07G29G27G23G26G13G15G16G05G20
 107170257.372 7  83509326.766 8  20393817.141    20393820.980
  20393820.902          45.500          53.200
 124886817.776 7  97314428.532 6  23765169.945    23765173.785
  23765174.633          42.100          40.200
 124040567.761 6  96655010.053 6  23604131.555    23604136.555
  23604137.074          41.200          41.300
 117926060.637 7  91890461.143 7  22440579.750    22440585.969
  22440585.816          44.100          46.100
 121098148.723 7  94362215.277 7  23044206.289    23044211.293
  23044211.480          42.600          43.500
 117049027.421 7  91207081.738 7  22273689.164    22273696.578
  22273696.855          44.100          45.700
 124795563.512 7  97243319.05043  23747804.148
  23747808.305          42.000          22.300
 126655651.498 6  98692740.986 6  24101768.273    24101773.617
  24101773.813          40.000          40.800
 112013972.310 7  87283639.82046  21315546.297
  21315549.563          46.800          37.500
 120119022.675 7  93599260.242 7  22857888.109    22857892.766
  22857892.902          43.200          42.400
 111741942.552 8  87071676.40246  21263781.258
  21263783.992          48.000          37.300
 21  5 10  1 46 30.0000000  0 11G18G07G29G27G23G26G13G15G16G05G20
 107168288.794 7  83507792.808 8  20393442.875    20393446.289
  20393446.488          46.500          53.200
 124858268.647 7  97292182.471 6  23759737.352    23759741.797
  23759742.086          42.600          40.600
 124150544.968 6  96740706.531 6  23625059.758    23625064.723
  23625064.945          41.800          40.800
 117832867.246 7  91817842.947 7  22422845.633    22422852.223
  22422852.375          43.900          47.300
 120995563.403 7  94282278.745 7  23024685.625    23024689.840
  23024690.363          43.600          44.100
 117126187.478 7  91267206.422 7  22288372.117    22288379.746
  22288380.121          43.600          46.600
 124722921.485 6  97186714.95843  23733981.047
  23733985.410          40.900          21.500
 126558711.056 6  98617203.030 6  24083321.305    24083326.457
  24083326.488          38.700          40.600
 112038600.986 7  87302830.98546  21320233.016
  21320236.141          46.800          37.900
 120198842.867 7  93661457.757 7  22873077.539    22873082.035
  22873082.020          43.800          42.700
 111750221.204 7  87078127.29446  21265355.977
  21265359.371          47.600          36.900
 21  5 10  1 47  0.0000000  0 11G18G07G29G27G23G26G13G15G16G05G20
 107166889.194 7  83506702.209 8  20393176.336    20393180.391
  20393180.574          46.400          52.900
 124830271.705 7  97270366.684 6  23754410.188    23754413.813
  23754413.742          42.500          39.900
 124260716.348 7  96826554.331 6  23646025.375    23646029.738
  23646029.680          43.000          40.500
 117740015.986 7  91745491.352 7  22405177.055    22405182.656
  22405182.484          44.600          46.400
 120893274.331 7  94202573.041 7  23005219.586    23005225.027
  23005225.414          42.700          43.800
 117203786.904 7  91327673.482 7  22303139.031    22303146.754
  22303147.043          44.700          46.700
 124650751.950 6  97130478.93143  23720247.914
  23720251.133          41.200          21.500
 126462089.054 6  98541913.179 6  24064934.461    24064940.164
  24064940.141          40.500          41.100
 112063876.628 7  87322526.29046  21325043.148
  21325046.219          46.900          37.100
 120279116.630 7  93724008.714 7  22888353.219    22888357.723
  22888357.625          44.300          42.200
 111759108.705 7  87085052.60746  21267047.000
  21267050.641          47.900          37.100
 21  5 10  1 47 30.0000000  0 11G18G07G29G27G23G26G13G15G16G05G20
 107166058.528 7  83506054.935 8  20393017.719    20393021.703
  20393021.781          46.200          52.600
 124802828.159 6  97248982.131 6  23749187.953    23749191.609
  23749191.676          41.900          39.200
 124371080.031 6  96912551.974 6  23667026.508    23667031.293
  23667030.930          41.600          40.500
 117647509.256 7  91673408.220 7  22387572.961    22387578.820
  22387578.816          44.300          46.100
 120791284.162 7  94123100.243 7  22985812.227    22985816.758
  22985817.148          42.700          43.800
 117281823.436 7  91388481.141 7  22317988.594    22317996.699
  22317997.113          44.300          46.800
 124579057.845 6  97074613.44743  23706605.055
  23706609.215          41.000          22.500
 126365788.682 6  98466873.972 6  24046609.547    24046614.652
  24046614.605          39.600          40.900
 112089798.203 7  87342724.91946  21329975.852
  21329978.563          46.900          37.300
 120359841.231 7  93786910.937 7  22903715.336    22903719.605
  22903719.445          44.600          42.400
 111768604.707 7  87092452.08446  21268854.188
  21268857.090          47.700          37.100
 21  5 10  1 48  0.0000000  0 11G18G07G29G27G23G26G13G15G16G05G20
 107165796.609 7  83505850.842 8  20392968.070    20392972.160
  20392972.102          46.800          52.900
 124775939.344 7  97228029.819 6  23744070.781    23744074.285
  23744074.691          42.100          39.300
 124481634.122 6  96998697.960 6  23688064.305    23688069.590
  23688069.656          40.500          40.600
 117555349.308 7  91601595.276 7  22370035.555    22370041.445
  22370041.543          43.800          46.600
 120689595.570 7  94043862.444 7  22966461.023    22966465.855
  22966466.195          43.500          44.300
 117360294.745 7  91449627.574 7  22332921.648    22332929.238
  22332929.398          43.900          46.400
 124507841.497 6  97019120.25343  23693052.445
  23693057.133          40.400          22.000
 126269812.965 6  98392087.756 6  24028345.719    24028350.906
  24028350.672          40.800          41.200
 112116365.138 7  87363426.42446  21335031.234
  21335034.086          46.800          37.600
 120441014.732 7  93850162.996 7  22919161.852    22919166.055
  22919165.961          45.000          42.100
 111778709.160 8  87100325.67446  21270776.992
  21270780.195          48.200          37.100
 21  5 10  1 48 30.0000000  0 11G18G07G29G27G23G26G13G15G16G05G20
 107166102.637 7  83506089.295 8  20393026.492    20393030.289
  20393030.363          45.200          52.500
 124749605.696 6  97207510.121 6  23739059.367    23739062.984
  23739063.105          41.600          38.700
 124592376.036 6  97084990.284 7  23709137.219    23709142.910
  23709142.945          40.500          42.200
 117463537.784 7  91530053.849 7  22352563.984    22352570.051
  22352570.207          43.900          46.200
 120588210.523 7  93964861.140 7  22947168.242    22947172.363
  22947172.582          44.200          43.700
 117439197.714 7  91511110.360 7  22347936.117    22347943.852
  22347944.012          44.500          46.600
 124437105.608 6  96964001.39843  23679590.922
  23679596.586          39.300          21.500
 126174165.095 6  98317556.991 6  24010144.695    24010149.746
  24010149.836          39.800          39.800
 112143575.817 7  87384629.54346  21340209.109
  21340211.848          47.300          37.200
 120522633.356 7  93913761.925 6  22934692.945    22934697.289
  22934697.211          45.400          41.800
 111789420.587 7  87108672.24046  21272815.453
  21272818.355          47.900          37.300
 21  5 10  1 49  0.0000000  0 11G18G07G29G27G23G26G13G15G16G05G20
 107166977.293 7  83506770.857 8  20393192.508    20393196.523
  20393196.516          46.400          52.500
 124723828.514 7  97187424.023 6  23734154.172    23734158.293
  23734158.398          42.700          39.200
 124703304.506 7  97171427.983 7  23730246.664    23730251.926
  23730252.223          42.400          42.400
 117372077.792 7  91458786.365 7  22335159.875    22335166.480
  22335166.496          42.500          47.200
 120487132.517 7  93886099.094 7  22927934.336    22927938.516
  22927938.516          43.700          44.300
 117518530.969 7  91572928.466 7  22363032.734    22363040.758
  22363040.891          42.800          46.500
 124366853.587 6  96909259.65143  23666222.586
  23666227.844          39.100          21.700
 126078848.802 6  98243284.651 6  23992006.102    23992010.969
  23992011.230          38.900          38.500
 112171430.146 7  87406334.20946  21345509.773
  21345512.855          47.000          37.500
 120604694.865 7  93977705.954 7  22950308.867    22950313.313
  22950312.957          43.600          42.000
 111800739.623 7  87117492.26646  21274969.664
  21274972.855          47.800          37.100
 21  5 10  1 49 30.0000000  0 11G18G07G29G27G23G26G13G15G16G05G20
 107168419.876 7  83507894.956 8  20393467.242    20393471.367
  20393471.375          46.700          52.500
 124698608.359 6  97167771.979 6  23729355.359    23729358.813
  23729358.898          41.100          40.400
 124814417.446 7  97258009.417 6  23751390.813    23751395.797
  23751396.113          42.300          41.600
 117280971.151 7  91387794.211 7  22317823.219    22317829.426
  22317829.656          43.700          47.300
 120386363.731 7  93807578.004 7  22908758.719    22908763.395
  22908763.699          44.100          45.400
 117598291.542 7  91635079.518 7  22378211.438    22378218.539
  22378219.094          43.900          46.000
 124297087.315 6  96854896.34443  23652946.750
  23652951.492          38.900          21.300
 125983866.749 6  98169272.743 6  23973931.570    23973936.477
  23973936.785          37.200          37.500
 112199926.444 7  87428539.10646  21350932.547
  21350935.758          46.900          37.600
 120687196.704 7  94041993.067 7  22966008.133    22966012.746
  22966012.797          43.400          42.600
 111812665.225 8  87126784.94646  21277238.648
  21277241.996          48.200          36.500
 21  5 10  1 50  0.0000000  0 11G18G07G29G27G23G26G13G15G16G05G20
 107170430.434 7  83509461.619 8  20393849.672    20393854.277
  20393854.160          45.300          52.900
 124673946.497 7  97148554.974 6  23724661.492    23724666.668
  23724666.930          42.600          41.100
 124925712.905 6  97344733.072 6  23772569.711    23772575.355
  23772575.219          40.700          39.200
 117190220.424 7  91317079.391 7  22300553.508    22300559.754
  22300559.785          44.700          46.800
 120285907.038 7  93729300.138 7  22889642.133    22889646.559
  22889646.633          43.000          45.800
 117678477.372 7  91697561.947 7  22393470.063    22393477.629
  22393478.078          44.000          46.400
 124227809.784 6  96800913.90943  23639764.234
  23639768.902          40.200          22.300
 125889222.480 6  98095524.017 5  23955921.164    23955925.738
  23955925.758          39.600          35.600
 112229064.250 7  87451243.89046  21356477.227
  21356480.211          46.500          38.000
 120770136.478 7  94106621.411 7  22981791.711    22981796.023
  22981796.031          43.000          42.600
 111825197.231 7  87136550.14246  21279623.305
  21279626.973          47.700          37.100
 21  5 10  1 50 30.0000000  0 11G18G07G29G27G23G26G13G15G16G05G20
 107173008.467 7  83511470.478 8  20394340.672    20394344.605
  20394344.719          45.200          53.200
 124649843.627 7  97129773.543 6  23720075.297    23720079.406
  23720079.895          43.200          40.200
 125037188.849 6  97431597.389 5  23793782.367    23793787.930
  23793788.074          39.600          35.500
 117099827.615 7  91246643.475 7  22283352.914    22283359.238
  22283359.156          44.800          47.200
 120185764.776 7  93651267.260 7  22870585.281    22870590.273
  22870590.691          43.300          45.100
 117759085.781 7  91760373.665 7  22408809.109    22408816.723
  22408816.867          43.200          46.100
 124159023.327 6  96747314.11643  23626674.031
  23626679.238          40.100          22.600
 125794918.875 6  98022040.672 6  23937976.055    23937980.137
  23937980.551          41.200          36.000
 112258842.354 7  87474447.60646  21362143.516
  21362146.867          45.800          37.100
 120853511.492 7  94171588.912 7  22997657.586    22997661.613
  22997661.797          43.800          43.000
 111838334.934 7  87146787.30646  21282123.320
  21282126.797          47.800          37.500
 21  5 10  1 51  0.0000000  0 11G18G07G29G27G23G26G13G15G16G05G20
 107176153.780 7  83513921.366 8  20394939.125    20394943.117
  20394943.277          47.200          52.900
 124626300.707 7  97111428.452 6  23715595.344    23715599.855
  23715599.605          43.000          39.900
 125148843.466 6  97518601.019 5  23815029.672    23815033.207
  23815033.699          40.300          35.300
 117009795.091 7  91176488.273 7  22266219.805    22266226.250
  22266226.277          43.900          46.800
 120085939.606 7  93573481.449 7  22851589.219    22851594.086
  22851594.109          43.500          45.000
 117840114.477 6  91823512.887 7  22424228.672    22424235.809
  22424235.801          41.800          45.900
 124090730.962 6  96694099.32243  23613678.195
  23613682.656          40.500          22.300
 125700959.086 6  97948825.262 6  23920096.039    23920101.027
  23920100.813          41.800          37.000
 112289259.636 7  87498149.37946  21367932.148
  21367934.723          47.000          37.200
 120937319.155 7  94236893.552 7  23013605.539    23013610.371
  23013610.434          43.000          43.100
 111852077.735 7  87157495.98146  21284738.852
  21284742.258          47.600          37.200
 21  5 10  1 51 30.0000000  0 11G18G07G29G27G23G26G13G15G16G05G20
 107179866.327 7  83516814.256 8  20395645.430    20395649.852
  20395649.918          46.100          52.600
 124603318.650 6  97093520.387 6  23711221.852    23711226.273
  23711225.883          41.700          39.500
 125260674.876 7  97605742.333 6  23836311.125    23836315.738
  23836315.770          42.300          40.200
 116920125.223 7  91106615.666 7  22249156.398    22249162.523
  22249162.223          44.300          46.200
 119986434.390 7  93495944.938 7  22832653.844    22832658.813
  22832658.727          43.100          43.600
 117921561.166 7  91886977.798 7  22439726.992    22439734.879
  22439735.176          42.300          46.900
 124022934.959 6  96641271.28343  23600777.297
  23600782.051          41.500          23.200
 125607346.484 6  97875880.415 6  23902282.547    23902286.977
  23902287.191          40.700          39.200
 112320315.184 7  87522348.49546  21373841.656
  21373844.203          46.600          36.400
 121021556.787 7  94302533.214 7  23029634.695    23029640.191
  23029640.230          42.800          43.100
 111866425.052 7  87168675.69846  21287469.008
  21287472.664          47.600          37.500
 21  5 10  1 52  0.0000000  0 11G18G07G29G27G23G26G13G15G16G05G20
 107184145.524 7  83520148.701 8  20396459.469    20396463.848
  20396463.945          46.500          52.000
 124580898.309 6  97076050.040 6  23706955.734    23706959.211
  23706959.410          41.300          39.400
 125372680.867 7  97693019.658 7  23857625.742    23857630.504
  23857630.719          43.000          42.100
 116830820.103 7  91037027.290 7  22232162.180    22232168.457
  22232168.371          43.800          47.200
 119887251.407 7  93418659.563 7  22813780.500    22813784.820
  22813784.719          43.300          44.600
 118003423.213 7  91950766.375 7  22455304.953    22455312.605
  22455312.746          43.600          46.300
 123955637.769 6  96588831.96043  23587971.453
  23587975.910          41.400          22.600
 125514084.131 6  97803208.498 6  23884535.086    23884540.008
  23884540.078          40.900          40.800
 112352008.089 7  87547044.25846  21379872.477
  21379875.445          45.600          36.400
 121106221.408 7  94368505.588 7  23045746.336    23045751.309
  23045751.348          43.800          43.000
 111881376.230 8  87180325.95646  21290313.727
  21290317.301          48.300          37.500
 21  5 10  1 52 30.0000000  0 11G18G07G29G27G23G26G13G15G16G05G20
 107188991.159 7  83523924.519 8  20397381.914    20397386.051
  20397386.305          46.800          52.900
 124559040.568 6  97059018.042 6  23702796.078    23702800.074
  23702800.230          41.200          40.500
 125484859.645 7  97780431.631 7  23878972.469    23878977.473
  23878977.715          43.400          42.900
 116741882.040 7  90967724.911 7  22215237.773    22215243.867
  22215244.023          44.900          47.500
 119788393.339 7  93341627.355 7  22794968.250    22794972.633
  22794972.832          43.300          44.100
 118085698.218 7  92014876.744 7  22470961.039    22470968.656
  22470969.039          42.900          45.300
 123888842.334 6  96536783.52543  23575260.570
  23575264.223          40.900          22.500
 125421175.216 6  97730812.022 6  23866854.602    23866860.438
  23866860.344          39.400          41.000
 112384336.989 7  87572235.59346  21386024.406
  21386027.555          46.000          37.100
 121191310.481 7  94434808.731 7  23061938.484    23061943.352
  23061943.539          43.000          42.500
 111896930.887 7  87192446.46846  21293274.055
  21293277.238          47.800          37.100
 21  5 10  1 53  0.0000000  0 11G18G07G29G27G23G26G13G15G16G05G20
 107194402.730 7  83528141.339 8  20398411.813    20398415.996
  20398416.121          47.500          52.900
 124537745.703 6  97042424.650 6  23698743.211    23698747.898
  23698748.074          41.300          40.100
 125597209.043 7  97867976.548 7  23900351.438    23900356.605
  23900356.895          42.400          42.700
 116653313.163 7  90898710.232 7  22198383.406    22198390.094
  22198389.922          45.100          46.800
 119689862.691 7  93264850.257 7  22776218.070    22776222.551
  22776222.645          44.100          44.000
 118168383.585 7  92079306.873 7  22486695.680    22486703.770
  22486703.852          43.300          45.800
 123822550.726 6  96485127.76243  23562646.125
  23562650.480          41.400          22.600
 125328622.832 6  97658693.369 6  23849242.469    23849247.977
  23849248.047          39.900          40.900
 112417300.448 7  87597921.39446  21392297.422
  21392300.199          46.300          36.900
 121276821.477 7  94501440.620 7  23078211.094    23078215.180
  23078215.004          43.700          42.700
 111913087.889 8  87205036.33246  21296348.570
  21296352.078          48.600          37.700
 21  5 10  1 53 30.0000000  0 11G18G07G29G27G23G26G13G15G16G05G20
 107200380.122 7  83532799.052 8  20399548.703    20399553.340
  20399553.516          47.000          53.400
 124517014.847 7  97026270.785 6  23694798.664    23694802.773
  23694803.117          42.300          41.100
 125709727.778 6  97955653.413 7  23921762.578    23921768.625
  23921768.473          39.100          42.500
 116565115.917 7  90829985.144 7  22181599.648    22181607.086
  22181606.969          43.600          46.700
 119591662.215 7  93188330.435 7  22757531.352    22757536.148
  22757536.113          43.200          44.300
 118251477.094 7  92144055.011 7  22502508.297    22502515.848
  22502516.309          43.000          45.900
 123756766.049 6  96433866.95643  23550127.688
  23550131.219          41.300          22.800
 125236430.390 6  97586855.158 6  23831698.367    23831704.047
  23831703.719          40.500          40.100
 112450897.762 7  87624101.10846  21398690.609
  21398693.625          46.400          37.000
 121362751.892 7  94568399.353 7  23094563.203    23094567.223
  23094567.289          44.300          42.100
 111929847.140 8  87218095.48246  21299537.539
  21299541.313          48.600          37.800
 21  5 10  1 54  0.0000000  0 11G18G07G29G27G23G26G13G15G16G05G20
 107206922.841 7  83537897.265 8  20400794.039    20400798.590
  20400798.820          46.600          53.200
 124496848.746 7  97010556.981 6  23690961.180    23690965.406
  23690965.473          42.100          40.500
 125822413.247 6  98043460.142 6  23943206.516    23943212.340
  23943212.180          37.000          40.300
 116477292.463 7  90761551.293 7  22164888.023    22164894.125
  22164894.086          45.000          46.900
 119493794.326 7  93112069.776 7  22738907.391    22738912.051
  22738912.313          43.900          44.800
 118334976.094 7  92209119.126 7  22518397.289    22518404.832
  22518405.387          43.500          45.700
 123691490.850 6  96383003.18943  23537705.289
  23537710.168          40.400          21.800
 125144600.740 6  97515299.653 6  23814224.633    23814229.023
  23814229.199          40.800          40.200
 112485127.414 7  87650773.55846  21405204.352
  21405207.785          46.300          37.000
 121449098.751 7  94635682.590 6  23110993.578    23110998.727
  23110998.563          44.100          41.400
 111947207.749 8  87231623.21746  21302841.398
  21302844.922          48.000          37.500
 21  5 10  1 54 30.0000000  0 11G18G07G29G27G23G26G13G15G16G05G20
 107214030.641 7  83543435.807 8  20402146.664    20402150.992
  20402151.156          47.200          53.200
 124477248.216 6  96995283.873 6  23687231.242    23687235.625
  23687235.746          41.300          41.100
 125935263.757 6  98131395.498 6  23964681.781    23964686.215
  23964686.406          39.700          37.500
 116389845.109 7  90693410.522 7  22148247.414    22148253.215
  22148253.289          44.400          46.800
 119396261.778 7  93036070.410 7  22720347.594    22720352.375
  22720352.469          43.900          45.100
 118418878.308 7  92274497.453 7  22534363.539    22534371.004
  22534371.582          43.000          45.400
 123626727.257 6  96332538.05543  23525381.539
  23525387.395          38.400          20.400
 125053137.413 6  97444029.580 6  23796819.625    23796824.117
  23796824.594          41.400          39.200
 112519988.405 7  87677937.95646  21411838.086
  21411841.309          47.000          36.600
 121535859.657 7  94703288.471 6  23127503.711    23127508.523
  23127508.539          43.800          40.900
 111965169.113 7  87245619.07246  21306259.227
  21306262.852          47.900          37.900
 21  5 10  1 55  0.0000000  0 11G18G07G29G27G23G26G13G15G16G05G20
 107221702.987 7  83549414.262 8  20403606.492    20403610.945
  20403611.137          47.200          53.600
 124458213.761 6  96980451.832 6  23683608.813    23683613.992
  23683613.777          41.800          41.300
 126048277.234 6  98219457.907 5  23986187.617    23986191.477
  23986191.809          41.700          35.800
 116302776.013 7  90625564.501 7  22131678.367    22131684.758
  22131684.770          45.000          47.800
 119299067.039 7  92960334.298 7  22701852.305    22701857.141
  22701857.441          44.400          45.700
 118503181.092 7  92340187.888 7  22550405.953    22550413.566
  22550413.945          42.400          46.100
 123562477.845 6  96282473.61443  23513155.039
  23513160.262          37.100          20.400
 124962043.350 6  97373047.229 6  23779484.930    23779489.555
  23779489.223          40.600          38.400
 112555479.449 7  87705593.31046  21418592.148
  21418595.027          46.400          36.500
 121623031.825 7  94771214.812 6  23144092.398    23144097.258
  23144097.102          42.600          40.800
 111983730.435 7  87260082.43446  21309791.406
  21309794.977          47.700          37.300
 21  5 10  1 55 30.0000000  0 11G18G07G29G27G23G26G13G15G16G05G20
 107229939.716 7  83555832.494 8  20405173.914    20405178.418
  20405178.441          46.000          53.300
 124439746.193 6  96966061.524 6  23680094.523    23680099.438
  23680099.539          40.400          41.100
 126161452.087 7  98307646.141 5  24007724.164    24007727.543
  24007727.434          42.800          34.900
 116216087.629 7  90558015.127 7  22115182.195    22115188.332
  22115188.105          44.700          47.200
 119202212.823 7  92884863.502 7  22683421.836    22683425.871
  22683425.516          43.900          45.000
 118587882.160 7  92406188.697 7  22566524.359    22566531.594
  22566531.676          43.400          45.500
 123498744.872 6  96232811.60143  23501027.266
  23501032.086          40.100          22.000
 124871321.794 6  97302355.141 6  23762220.906    23762226.180
  23762226.277          40.900          39.500
 112591599.933 7  87733739.14246  21425465.555
  21425468.676          46.300          37.000
 121710612.577 7  94839459.524 6  23160758.555    23160763.539
  23160763.598          43.300          41.800
 112002891.063 7  87275012.78546  21313437.438
  21313441.063          47.300          37.600
 21  5 10  1 56  0.0000000  0 11G18G07G29G27G23G26G13G15G16G05G20
 107238740.185 7  83562689.992 8  20406848.906    20406852.703
  20406852.859          47.200          52.900
 124421846.105 6  96952113.411 6  23676688.188    23676693.293
  23676693.395          41.000          40.700
 126274786.247 7  98395958.452 6  24029291.125    24029295.301
  24029295.355          42.500          37.700
 116129782.088 7  90490764.080 7  22098758.797    22098765.371
  22098765.328          44.600          47.300
 119105701.562 7  92809659.954 7  22665055.828    22665060.434
  22665060.316          43.800          45.100
 118672978.895 7  92472497.802 7  22582717.836    22582725.805
  22582725.719          42.600          46.100
 123435531.280 6  96183554.27843  23488998.313
  23489002.473          38.400          22.500
 124780975.648 6  97231955.596 6  23745028.555    23745033.816
  23745033.531          39.800          39.500
 112628347.736 7  87762373.78546  21432457.977
  21432461.008          46.800          36.500
 121798599.053 7  94908020.385 6  23177501.469    23177506.457
  23177506.703          42.600          41.100
 112022650.245 7  87290409.54346  21317197.516
  21317200.598          47.300          37.300
 21  5 10  1 56 30.0000000  0 11G18G07G29G27G23G26G13G15G16G05G20
 107248103.754 7  83569986.275 8  20408630.695    20408635.156
  20408635.465          46.300          53.700
 124404514.121 6  96938608.010 6  23673390.023    23673394.465
  23673394.859          41.500          41.100
 126388277.173 6  98484392.889 6  24050887.578    24050892.934
  24050892.813          41.700          39.000
 116043861.285 7  90423812.823 7  22082408.336    22082414.695
  22082414.621          45.500          47.200
 119009535.576 7  92734725.470 7  22646756.328    22646761.039
  22646760.867          44.500          45.000
 118758468.496 7  92539113.038 7  22598986.078    22598993.313
  22598993.746          42.500          45.500
 123372839.077 6  96134703.23744  23477068.492
  23477073.102          40.900          25.300
 124691007.977 6  97161850.974 6  23727909.086    23727913.418
  23727913.348          40.700          39.500
 112665721.548 7  87791496.23246  21439570.266
  21439573.492          47.000          36.500
 121886988.514 7  94976895.291 6  23194321.945    23194326.352
  23194326.453          42.800          41.400
 112043006.623 7  87306271.65046  21321071.188
  21321074.469          46.700          36.300
 21  5 10  1 57  0.0000000  0 12G18G07G29G27G23G26G13G15G16G30G05G20
 107258030.563 7  83577721.458 8  20410519.680    20410523.961
  20410524.285          46.600          53.400
 124387751.259 6  96925546.064 6  23670200.117    23670204.520
  23670205.164          41.700          41.400
 126501924.285 6  98572949.001 6  24072513.242    24072518.910
  24072518.742          39.600          39.600
 115958328.162 7  90357163.671 7  22066131.836    22066138.363
  22066138.277          43.900          47.600
 118913718.043 7  92660062.493 7  22628522.633    22628526.906
  22628526.957          43.800          45.700
 118844349.079 7  92606032.939 7  22615328.750    22615336.090
  22615336.332          43.400          45.600
 123310671.193 7  96086260.75044  23465238.250
  23465242.969          42.200          26.400
 124601422.493 6  97092044.134 6  23710860.297    23710865.039
  23710865.199          39.900          39.200
 112703720.877 7  87821106.08746  21446801.680
  21446804.859          47.300          37.300
 131074295.66816 102135848.76215  24942607.766    24942616.469
  24942615.875          38.700          35.600
 121975778.496 7  95046082.230 6  23211217.922    23211222.531
  23211222.484          43.500          41.300
 112063960.725 7  87322599.50546  21325058.414
  21325061.945          47.100          36.900
 21  5 10  1 57 30.0000000  0 12G18G07G29G27G23G26G13G15G16G30G05G20
 107268519.673 7  83585894.786 8  20412515.273    20412519.688
  20412519.961          47.200          52.800
 124371557.735 7  96912927.743 6  23667119.031    23667123.031
  23667123.609          42.200          41.300
 126615724.605 6  98661624.498 6  24094168.328    24094174.484
  24094174.426          38.600          40.300
 115873184.396 7  90290817.881 7  22049929.469    22049936.070
  22049936.105          45.000          47.700
 118818251.008 7  92585672.623 7  22610355.727    22610360.457
  22610360.227          43.800          44.700
 118930617.654 7  92673255.171 7  22631745.070    22631752.242
  22631752.438          42.900          45.400
 123249029.691 7  96038228.43144  23453508.281
  23453512.645          43.500          27.200
 124512221.708 6  97022537.079 6  23693886.430    23693890.926
  23693890.555          41.100          38.600
 112742343.692 7  87851201.77946  21454150.875
  21454154.270          47.200          37.300
 131000563.141 6 102078394.673 6  24928578.102    24928585.813
  24928585.402          37.300          40.200
 122064966.218 7  95115579.088 7  23228189.742    23228195.047
  23228194.398          44.000          42.200
 112085510.511 7  87339391.53946  21329159.313
  21329162.840          46.900          36.900
 21  5 10  1 58  0.0000000  0 12G18G07G29G27G23G26G13G15G16G30G05G20
 107279570.761 7  83594506.019 8  20414618.516    20414622.563
  20414622.707          47.200          52.900
 124355934.314 6  96900753.666 6  23664145.930    23664150.285
  23664150.473          40.700          41.300
 126729676.358 6  98750417.970 6  24115852.508    24115858.348
  24115858.027          39.300          40.200
 115788432.480 7  90224777.442 7  22033802.125    22033808.141
  22033807.727          45.300          47.300
 118723137.127 7  92511557.950 7  22592256.250    22592260.934
  22592260.680          43.800          44.700
 119017271.855 7  92740777.897 7  22648234.625    22648242.141
  22648242.484          43.300          46.100
 123187917.008 6  95990608.15944  23441879.539
  23441883.371          41.400          26.000
 124423408.979 6  96953332.382 6  23676985.922    23676990.406
  23676990.004          41.400          37.700
 112781589.014 7  87881782.54046  21461619.117
  21461622.547          46.600          36.900
 130927235.305 6 102021256.013 6  24914624.641    24914632.703
  24914632.828          38.300          40.600
 122154548.919 7  95185383.727 6  23245237.086    23245241.852
  23245241.352          43.600          41.800
 112107655.742 7  87356647.55646  21333373.805
  21333376.953          47.600          36.400
 21  5 10  1 58 30.0000000  0 12G18G07G29G27G23G26G13G15G16G30G05G20
 107291183.388 7  83603554.809 8  20416828.195    20416832.371
  20416832.488          47.500          52.700
 124340881.339 6  96889024.108 7  23661281.578    23661286.078
  23661286.246          41.700          42.100
 126843777.803 6  98839328.113 6  24137566.109    24137571.133
  24137571.363          39.900          39.000
 115704074.681 7  90159044.107 7  22017749.461    22017755.734
  22017755.707          46.300          47.800
 118628379.138 7  92437720.579 7  22574224.016    22574228.758
  22574229.008          44.100          45.100
 119104309.259 7  92808599.203 7  22664796.898    22664804.879
  22664805.313          42.500          46.000
 123127335.678 7  95943401.92944  23430350.859
  23430354.750          42.600          24.400
 124334987.502 6  96884432.557 6  23660159.828    23660164.688
  23660164.809          40.000          38.900
 112821455.517 7  87912847.34046  21469205.523
  21469209.004          47.100          37.300
 130854314.680 6 101964434.877 6  24900748.063    24900755.957
  24900756.023          39.200          39.000
 122244524.123 7  95255494.222 6  23262358.398    23262363.285
  23262362.863          43.000          40.600
 112130395.362 8  87374366.72946  21337701.008
  21337704.117          48.200          36.400
 21  5 10  1 59  0.0000000  0 12G18G07G29G27G23G26G13G15G16G30G05G20
 107303357.257 7  83613040.950 8  20419145.172    20419149.258
  20419149.184          47.500          52.700
 124326399.781 7  96877739.814 6  23658525.680    23658530.141
  23658530.578          42.500          41.400
 126958027.109 6  98928353.474 6  24159306.836    24159312.203
  24159312.070          41.100          39.400
 115620113.361 7  90093619.706 7  22001771.875    22001778.180
  22001778.270          45.400          47.500
 118533979.705 7  92364162.609 7  22556260.789    22556265.090
  22556265.180          43.900          45.600
 119191727.487 6  92876717.266 7  22681431.555    22681439.480
  22681439.684          41.300          45.400
 123067288.310 7  95896611.81144  23418924.563
  23418928.973          44.000          27.700
 124246960.620 6  96815840.219 6  23643408.688    23643414.195
  23643413.820          41.000          39.700
 112861941.812 7  87944395.09546  21476910.148
  21476913.406          47.300          36.900
 130781803.637 6 101907932.731 6  24886949.641    24886957.434
  24886957.020          37.200          38.900
 122334889.390 7  95325908.672 6  23279553.898    23279559.273
  23279559.078          42.400          41.800
 112153728.832 7  87392548.65246  21342141.086
  21342144.633          47.800          37.400
 21  5 10  1 59 30.0000000  0 12G18G07G29G27G23G26G13G15G16G30G05G20
 107316091.513 7  83622963.745 8  20421568.375    20421572.516
  20421572.387          46.700          52.700
 124312489.800 6  96866900.897 6  23655878.594    23655883.066
  23655883.234          41.700          41.800
 127072422.311 6  99017492.536 6  24181076.305    24181081.273
  24181081.156          41.400          38.500
 115536550.549 7  90028505.855 7  21985870.156    21985876.328
  21985876.367          45.600          47.500
 118439941.072 7  92290885.777 7  22538365.945    22538370.395
  22538370.402          43.700          45.500
 119279523.768 6  92945129.894 7  22698139.625    22698146.824
  22698147.141          41.300          44.800
 123007776.497 6  95850238.98344  23407599.797
  23407604.480          41.300          26.000
 124159331.137 6  96747557.574 6  23626733.125    23626738.492
  23626738.676          41.100          41.200
 112903046.157 7  87976424.43946  21484732.063
  21484735.492          47.800          37.500
 130709703.886 6 101851750.648 6  24873229.383    24873238.035
  24873237.738          38.000          40.500
 122425641.431 6  95396624.513 6  23296823.750    23296829.066
  23296828.746          41.600          40.800
 112177654.967 7  87411192.38846  21346694.242
  21346697.219          47.600          37.900
 21  5 10  2  0  0.0000000  0 12G18G07G29G27G23G26G13G15G16G30G05G20
 107329385.419 7  83633322.626 8  20424098.227    20424101.922
  20424101.961          46.600          52.800
 124299151.884 6  96856507.738 6  23653340.383    23653344.816
  23653344.738          41.000          40.900
 127186960.945 6  99106743.359 6  24202872.188    24202877.184
  24202877.090          40.900          38.400
 115453388.265 7  89963704.096 7  21970044.773    21970051.426
  21970051.410          45.700          47.600
 118346265.579 7  92217891.918 7  22520539.867    22520544.488
  22520544.559          43.600          45.300
 119367695.282 6  93013834.935 7  22714918.305    22714925.723
  22714925.633          41.400          44.500
 122948803.154 6  95804285.74843  23396377.125
  23396381.457          40.500          22.900
 124072102.019 6  96679586.874 6  23610134.102    23610138.930
  23610139.277          41.100          41.300
 112944767.012 7  88008934.18446  21492670.656
  21492674.371          47.000          37.000
 130638019.360 6 101795892.845 6  24859588.867    24859596.664
  24859596.695          40.800          40.700
 122516777.488 7  95467639.560 6  23314167.453    23314171.250
  23314171.582          42.500          40.500
 112202172.782 7  87430297.17146  21351359.883
  21351363.188          47.000          37.000
 21  5 10  2  0 30.0000000  0 12G18G07G29G27G23G26G13G15G16G30G05G20
 107343238.522 7  83644117.250 8  20426734.023    20426738.500
  20426738.672          46.300          52.700
 124286386.691 7  96846560.858 6  23650911.461    23650915.883
  23650915.930          42.500          41.600
 127301641.549 6  99196104.827 6  24224695.031    24224699.563
  24224699.551          40.700          38.400
 115370628.727 7  89899216.167 7  21954296.438    21954302.895
  21954302.352          46.500          47.300
 118252955.793 7  92145183.011 7  22502783.492    22502788.020
  22502788.016          43.100          44.800
 119456239.571 7  93082830.459 7  22731767.469    22731774.883
  22731775.199          42.000          45.600
 122890370.264 6  95758753.64844  23385257.648
  23385262.426          40.400          25.300
 123985276.265 6  96611930.475 6  23593612.047    23593616.813
  23593616.914          41.700          41.100
 112987103.110 7  88041923.34146  21500727.086
  21500730.203          45.700          36.100
 130566751.683 6 101740359.892 6  24846026.773    24846034.320
  24846033.941          38.300          37.500
 122608294.972 7  95538951.850 6  23331582.531    23331586.426
  23331587.000          42.900          40.900
 112227281.234 7  87449862.18646  21356137.523
  21356141.434          47.200          37.200
 21  5 10  2  1  0.0000000  0 12G18G07G29G27G23G26G13G15G16G30G05G20
 107357650.597 7  83655347.443 8  20429476.359    20429481.004
  20429481.238          46.900          52.800
 124274194.544 6  96837060.481 6  23648591.188    23648595.762
  23648595.723          41.200          41.700
 127416462.487 6  99285575.624 6  24246544.352    24246550.359
  24246549.668          39.000          38.700
 115288274.585 7  89835044.120 7  21938625.172    21938631.477
  21938631.535          46.400          47.300
 118160014.639 7  92072761.363 7  22485097.766    22485102.371
  22485102.266          44.100          45.300
 119545154.429 7  93152114.726 7  22748687.484    22748694.770
  22748695.180          42.200          45.500
 122832480.636 6  95713644.88743  23374240.766
  23374246.309          41.100          22.000
 123898857.143 6  96544590.951 6  23577166.430    23577172.070
  23577172.031          40.800          40.200
 113030053.409 7  88075391.09446  21508900.469
  21508903.652          47.300          36.700
 130495902.835 6 101685152.996 6  24832544.992    24832552.039
  24832551.578          40.500          38.000
 122700191.445 7  95610559.430 6  23349069.984    23349074.238
  23349074.629          43.400          41.400
 112252979.714 7  87469886.96346  21361027.719
  21361031.559          46.900          36.900
 21  5 10  2  1 30.0000000  0 12G18G07G29G27G23G26G13G15G16G30G05G20
 107372620.901 7  83667012.606 8  20432325.117    20432329.703
  20432329.828          46.600          52.500
 124262576.129 6  96828007.203 7  23646379.844    23646384.973
  23646385.125          41.700          42.300
 127531421.770 6  99375154.207 6  24268420.953    24268426.152
  24268425.871          38.900          38.900
 115206327.931 7  89771189.593 8  21923030.789    21923037.055
  21923037.070          46.000          48.200
 118067444.504 7  92000628.825 7  22467481.945    22467486.313
  22467486.227          44.900          45.200
 119634437.203 6  93221685.691 7  22765677.344    22765685.266
  22765685.254          41.700          45.100
 122775136.308 6  95668961.01343  23363328.164
  23363333.742          39.900          22.800
 123812847.902 6  96477570.791 6  23560799.273    23560804.152
  23560803.949          40.700          39.400
 113073615.975 7  88109335.94846  21517190.305
  21517193.129          47.700          37.000
 130425475.535 6 101630274.583 6  24819142.352    24819150.125
  24819150.160          40.900          40.400
 122792464.064 7  95682460.141 6  23366628.945    23366632.547
  23366632.234          43.700          41.600
 112279267.289 7  87490370.78246  21366030.289
  21366033.457          46.700          37.000
 21  5 10  2  2  0.0000000  0 12G18G07G29G27G23G26G13G15G16G30G05G20
 107388148.773 7  83679112.244 8  20435280.102    20435284.586
  20435284.625          47.500          52.900
 124251531.635 6  96819401.127 6  23644278.898    23644283.422
  23644283.559          41.700          41.300
 127646517.148 6  99464838.837 6  24290322.898    24290328.551
  24290328.477          40.300          38.700
 115124790.839 7  89707654.227 7  21907514.781    21907521.113
  21907520.727          46.100          47.000
 117975247.752 7  91928787.228 7  22449936.992    22449941.695
  22449942.031          44.600          45.500
 119724085.205 7  93291541.236 7  22782737.000    22782744.508
  22782744.621          42.100          45.100
 122718339.540 6  95624703.80543  23352520.313
  23352524.813          40.100          21.300
 123727251.415 7  96410872.245 6  23544511.609    23544516.012
  23544515.703          43.100          40.400
 113117789.202 8  88143756.63746  21525596.070
  21525599.082          48.100          36.000
 130355472.038 6 101575726.427 6  24805821.273    24805828.969
  24805828.113          39.100          39.000
 122885109.794 7  95754651.580 6  23384258.625    23384262.539
  23384262.203          43.300          40.600
 112306143.285 7  87511313.10646  21371144.594
  21371147.711          46.500          36.200
 21  5 10  2  2 30.0000000  0 12G18G07G29G27G23G26G13G15G16G30G05G20
 107404233.454 7  83691645.766 8  20438341.086    20438345.332
  20438345.539          47.300          52.800
 124241061.321 6  96811242.445 6  23642285.984    23642290.457
  23642290.500          40.600          41.600
 127761746.930 6  99554628.205 6  24312250.711    24312255.730
  24312255.684          40.800          39.400
 115043665.414 7  89644439.640 8  21892077.164    21892083.652
  21892083.879          46.000          48.200
 117883426.880 7  91857238.526 7  22432464.336    22432468.582
  22432468.598          44.700          45.200
 119814095.810 6  93361679.328 7  22799864.898    22799873.109
  22799872.836          41.100          44.600
 122662092.382 6  95580874.84243  23341817.430
  23341822.020          40.400          22.800
 123642070.941 7  96344497.863 6  23528301.734    23528307.074
  23528307.016          42.800          41.800
 113162571.444 7  88178651.87346  21534117.875
  21534120.898          47.800          36.900
 130285894.841 6 101521510.442 6  24792580.758    24792588.496
  24792588.930          39.200          39.000
 122978126.211 7  95827131.838 6  23401958.555    23401963.305
  23401963.035          43.400          39.900
 112333605.884 7  87532712.51946  21376370.695
  21376374.047          47.000          36.400
 21  5 10  2  3  0.0000000  0 12G18G07G29G27G23G26G13G15G16G30G05G20
 107420874.372 7  83704612.715 8  20441507.500    20441512.152
  20441512.227          47.300          53.500
 124231165.666 6  96803531.553 6  23640402.977    23640407.484
  23640407.551          41.600          41.300
 127877108.859 6  99644520.553 6  24334203.117    24334208.844
  24334208.551          41.100          38.700
 114962953.923 7  89581547.580 8  21876718.516    21876724.930
  21876724.898          45.800          48.100
 117791984.275 7  91785984.576 7  22415063.453    22415067.980
  22415067.746          44.600          45.900
 119904466.359 7  93432097.887 7  22817062.813    22817069.824
  22817070.230          42.200          44.100
 122606397.224 6  95537476.04243  23331219.547
  23331223.629          40.900          22.300
 123557309.034 6  96278449.673 7  23512172.406    23512177.254
  23512177.152          40.500          42.400
 113207961.668 7  88214020.87446  21542755.102
  21542758.180          47.800          36.500
 130216746.409 6 101467628.603 6  24779422.258    24779430.777
  24779430.480          37.500          39.700
 123071510.406 7  95899898.683 6  23419728.609    23419733.773
  23419733.406          42.700          40.800
 112361654.368 7  87554568.47346  21381708.047
  21381711.355          45.900          36.700
 21  5 10  2  3 30.0000000  0 12G18G07G29G27G23G26G13G15G16G30G05G20
 107438071.102 7  83718012.762 8  20444779.898    20444784.551
  20444784.457          46.700          52.600
 124221845.311 6  96796268.957 6  23638628.844    23638633.664
  23638634.117          41.300          41.700
 127992601.661 6  99734514.877 6  24356180.758    24356185.656
  24356185.465          39.400          38.900
 114882658.843 7  89518980.011 7  21861439.055    21861445.277
  21861445.070          47.000          47.300
 117700922.770 7  91715027.601 7  22397734.938    22397739.328
  22397739.488          45.000          46.700
 119995194.623 7  93502795.216 7  22834327.508    22834334.480
  22834334.707          42.400          44.500
 122551256.346 6  95494509.17943  23320726.148
  23320730.563          41.200          21.800
 123472969.141 6  96212730.353 6  23496122.805    23496127.609
  23496127.555          40.900          41.700
 113253958.223 8  88249862.34046  21551507.992
  21551511.188          48.400          36.700
 130148028.964 5 101414082.580 6  24766345.656    24766353.805
  24766353.551          35.400          39.700
 123165259.887 7  95972950.180 6  23437568.938    23437573.637
  23437574.016          42.500          40.300
 112390287.541 7  87576880.02446  21387156.523
  21387160.242          47.000          36.600
 21  5 10  2  4  0.0000000  0 12G18G07G29G27G23G26G13G15G16G30G05G20
 107455822.842 7  83731845.284 8  20448158.047    20448162.375
  20448162.613          47.000          53.000
 124213100.351 6  96789454.711 6  23636965.148    23636970.004
  23636970.070          41.800          41.000
 128108223.246 6  99824609.560 6  24378182.734    24378187.762
  24378188.035          38.900          37.400
 114802782.158 7  89456738.445 7  21846238.570    21846244.699
  21846244.879          46.400          47.800
 117610244.616 7  91644369.324 7  22380479.594    22380484.352
  22380484.258          44.500          45.700
 120086277.829 7  93573769.096 7  22851659.750    22851667.637
  22851667.492          42.100          44.000
 122496671.800 6  95451975.79443  23310339.070
  23310343.594          41.600          22.800
 123389054.412 7  96147342.314 6  23480154.625    23480158.879
  23480159.328          42.200          40.400
 113300558.779 7  88286174.44546  21560375.820
  21560378.836          47.900          36.800
 130079744.747 5 101360874.108 6  24753350.430    24753359.578
  24753359.543          35.900          40.300
 123259371.679 7  96046284.001 6  23455478.516    23455483.145
  23455483.324          42.600          40.300
 112419504.699 8  87599646.62846  21392716.453
  21392720.039          48.000          36.800
 21  5 10  2  4 30.0000000  0 13G18G07G29G27G23G26G13G15G16G30G05G20
                                G10
 107474128.751 7  83746109.632 8  20451641.719    20451646.223
  20451646.363          46.000          52.300
 124204930.868 6  96783088.887 6  23635410.078    23635415.488
  23635415.531          41.900          41.800
 128223971.308 6  99914802.770 6  24400208.750    24400214.563
  24400214.281          37.900          38.100
 114723325.893 7  89394824.493 8  21831118.820    21831125.133
  21831125.227          46.000          48.000
 117519952.189 7  91574011.629 7  22363297.539    22363301.980
  22363302.469          44.900          46.000
 120177713.155 6  93645017.376 7  22869059.289    22869066.941
  22869066.824          41.000          43.900
 122442645.882 6  95409877.71943  23300058.125
  23300062.133          40.300          21.500
 123305567.629 7  96082287.709 6  23464268.047    23464272.184
  23464272.344          42.100          40.200
 113347762.318 7  88322956.41746  21569358.508
  21569361.773          47.200          36.100
 130011896.130 5 101308005.083 6  24740439.383    24740449.035
  24740448.844          34.800          40.100
 123353842.879 7  96119897.890 6  23473455.945    23473460.055
  23473460.691          42.100          40.800
 112449304.333 7  87622867.11845  21398387.344
  21398390.324          47.000          35.900
 130581986.48216 101752217.23716  24848926.742    24848934.875
  24848934.539          41.600          41.900
 21  5 10  2  5  0.0000000  0 13G18G07G29G27G23G26G13G15G16G30G05G20
                                G10
 107492988.494 7  83760805.531 8  20455230.469    20455235.020
  20455235.313          47.300          52.200
 124197337.795 6  96777172.204 6  23633965.750    23633970.137
  23633970.301          41.100          41.100
 128339844.592 6 100005093.558 6  24422259.313    24422264.230
  24422264.316          39.400          38.000
 114644292.673 7  89333240.188 8  21816079.359    21816085.047
  21816085.184          46.600          48.100
 117430048.341 7  91503956.702 7  22346189.414    22346193.480
  22346193.598          45.400          46.000
 120269498.471 6  93716538.350 7  22886525.609    22886533.844
  22886533.836          40.200          44.300
 122389180.939 6  95368216.73244  23289884.063
  23289888.680          40.800          24.300
 123222511.838 6  96017568.906 6  23448462.461    23448466.883
  23448466.578          41.400          39.000
 113395567.493 7  88360207.18546  21578455.180
  21578458.367          47.300          36.200
 129944485.655 5 101255477.383 6  24727612.320    24727621.281
  24727620.465          35.600          37.300
 123448671.369 7  96193790.191 6  23491501.422    23491505.371
  23491505.758          42.100          40.600
 112479685.736 7  87646540.93346  21404168.375
  21404171.504          46.400          36.400
 130466657.031 6 101662350.221 7  24826979.930    24826988.293
  24826987.816          39.900          42.200
 21  5 10  2  5 30.0000000  0 13G18G07G29G27G23G26G13G15G16G30G05G20
                                G10
 107512401.205 7  83775932.310 8  20458924.383    20458928.969
  20458928.949          46.800          52.600
 124190320.847 7  96771704.456 6  23632630.523    23632634.875
  23632634.840          42.500          40.800
 128455840.677 6 100095480.055 6  24444332.203    24444337.148
  24444337.137          39.400          37.000
 114565684.439 7  89271987.033 7  21801120.398    21801126.672
  21801126.941          47.300          47.800
 117340535.335 7  91434206.311 7  22329155.844    22329159.820
  22329159.809          44.300          45.400
 120361630.952 6  93788329.837 7  22904057.828    22904065.355
  22904065.457          39.900          44.600
 122336278.820 7  95326994.29843  23279817.406
  23279821.543          42.300          22.200
 123139889.985 6  95953188.256 6  23432739.656    23432744.059
  23432743.699          41.300          39.600
 113443972.093 8  88397925.03946  21587666.734
  21587669.688          48.300          36.100
 129877515.712 6 101203293.060 6  24714868.453    24714877.141
  24714876.520          36.300          40.900
 123543854.263 7  96267958.706 6  23509614.180    23509618.020
  23509618.211          42.800          39.900
 112510647.811 7  87670667.19645  21410060.234
  21410063.305          45.700          35.500
 130351408.296 6 101572546.141 7  24805048.375    24805056.805
  24805056.605          38.100          42.000
 21  5 10  2  6  0.0000000  0 13G18G07G29G27G23G26G13G15G16G30G05G20
                                G10
 107532366.177 7  83791489.426 8  20462723.781    20462728.145
  20462728.215          46.900          52.500
 124183880.544 7  96766686.055 7  23631404.953    23631409.480
  23631409.324          42.500          42.100
 128571957.871 6 100185960.906 6  24466428.531    24466434.242
  24466433.914          40.100          38.100
 114487503.437 7  89211066.783 8  21786243.719    21786249.227
  21786249.395          47.000          48.200
 117251415.639 7  91364762.426 7  22312196.281    22312200.625
  22312200.859          43.400          46.300
 120454108.045 7  93860389.868 7  22921655.688    22921663.297
  22921663.730          42.200          44.100
 122283941.789 7  95286212.18044  23269857.805
  23269861.867          42.700          25.300
 123057705.225 6  95889148.211 6  23417100.016    23417104.875
  23417104.973          39.800          39.700
 113492974.870 7  88436109.00346  21596991.539
  21596994.672          46.800          36.100
 129810988.462 6 101151453.639 6  24702208.852    24702217.066
  24702216.957          36.900          40.100
 123639388.521 7  96342400.947 6  23527793.578    23527797.695
  23527797.512          42.900          39.900
 112542189.453 7  87695245.08645  21416062.789
  21416066.023          47.000          35.900
 130236242.641 5 101482806.800 6  24783132.945    24783141.285
  24783141.148          34.100          38.600
 21  5 10  2  6 30.0000000  0 14G18G07G29G27G23G26G13G15G16G30G05G20
                                G10G08
 107552882.237 7  83807475.970 8  20466627.922    20466632.023
  20466632.172          47.000          52.600
 124178016.613 7  96762116.746 6  23630288.930    23630293.625
  23630293.699          42.100          41.300
 128688194.073 6 100276534.480 6  24488548.219    24488553.809
  24488553.383          40.500          38.700
 114409751.352 7  89150480.758 8  21771447.516    21771453.789
  21771453.832          47.100          48.400
 117162691.280 7  91295626.594 7  22295312.773    22295317.289
  22295317.488          44.100          46.400
 120546926.593 7  93932715.968 7  22939318.680    22939326.332
  22939326.855          42.600          44.700
 122232171.378 7  95245871.60644  23260006.156
  23260010.246          42.800          25.800
 122975960.024 6  95825450.712 6  23401545.172    23401549.531
  23401549.617          40.500          40.300
 113542573.346 7  88474757.14445  21606429.492
  21606433.117          47.600          35.600
 129744905.985 6 101099960.899 6  24689633.844    24689642.078
  24689641.516          38.600          39.700
 123735271.299 7  96417114.721 6  23546039.234    23546043.133
  23546042.836          42.400          39.200
 112574308.931 7  87720273.23646  21422174.914
  21422178.188          45.700          36.500
 130121161.898 5 101393133.633 5  24761234.227    24761241.289
  24761241.691          33.900          34.300
 129038795.38015 100549769.45916  24555270.641    24555279.895
  24555279.605          35.800          41.700
 21  5 10  2  7  0.0000000  0 14G18G07G29G27G23G26G13G15G16G30G05G20
                                G10G08
 107573949.434 7  83823891.954 8  20470637.078    20470641.277
  20470641.539          47.000          53.200
 124172729.998 6  96757997.311 7  23629283.414    23629287.434
  23629287.512          41.800          42.000
 128804548.069 6 100367199.868 6  24510689.648    24510694.398
  24510694.457          40.400          39.000
 114332431.152 7  89090231.264 7  21756733.773    21756739.996
  21756739.660          47.100          47.700
 117074365.470 7  91226801.321 7  22278504.672    22278509.113
  22278509.371          44.100          46.400
 120640084.830 7  94005306.766 7  22957046.781    22957053.578
  22957054.004          43.200          44.600
 122180970.584 7  95205974.86444  23250263.383
  23250267.863          42.400          25.400
 122894658.200 7  95762098.666 6  23386073.531    23386078.402
  23386078.609          43.200          40.200
 113592766.770 7  88513868.88845  21615981.289
  21615984.094          47.100          35.500
 129679271.077 6 101048816.949 6  24677143.563    24677151.957
  24677151.367          37.300          37.200
 123831500.330 6  96492098.307 6  23564350.289    23564355.461
  23564355.422          41.500          40.300
 112607005.986 7  87745751.44945  21428397.055
  21428400.832          45.800          35.700
 130006169.266 6 101303528.976 5  24739352.180    24739358.758
  24739358.699          38.600          35.200
 128927124.242 6 100462753.061 6  24534020.547    24534029.375
  24534028.988          36.100          39.900
 21  5 10  2  7 30.0000000  0 14G18G07G29G27G23G26G13G15G16G30G05G20
                                G10G08
 107595566.345 7  83840736.296 8  20474750.461    20474754.762
  20474754.848          47.000          52.800
 124168020.376 7  96754327.492 6  23628386.406    23628391.680
  23628391.285          42.000          41.700
 128921017.078 6 100457954.860 6  24532852.945    24532857.953
  24532857.723          40.200          37.000
 114255544.443 7  89030319.555 8  21742102.742    21742108.758
  21742108.879          46.700          48.100
 116986440.046 7  91158288.022 7  22261773.242    22261777.250
  22261777.754          43.500          45.800
 120733579.507 7  94078159.728 7  22974838.242    22974844.922
  22974845.383          42.400          44.500
 122130340.860 7  95166523.14244  23240628.852
  23240632.973          42.000          26.200
 122813802.210 7  95699093.977 6  23370687.375    23370691.426
  23370691.625          42.700          39.800
 113643552.989 7  88553442.56145  21625645.367
  21625648.559          47.700          35.700
 129614085.515 6 100998023.065 6  24664739.367    24664747.508
  24664747.582          39.000          38.000
 123928072.356 6  96567349.164 6  23582728.164    23582733.023
  23582732.914          41.900          40.900
 112640278.842 7  87771678.33945  21434728.625
  21434731.996          45.800          35.800
 129891266.473 6 101213994.377 6  24717487.047    24717494.238
  24717493.852          40.100          38.700
 128815587.967 6 100375841.750 6  24512795.930    24512804.105
  24512803.852          36.800          38.700
 21  5 10  2  8  0.0000000  0 14G18G07G29G27G23G26G13G15G16G30G05G20
                                G10G08
 107617732.508 7  83858008.627 8  20478968.500    20478972.695
  20478972.906          47.000          52.500
 124163888.015 6  96751107.472 6  23627600.453    23627604.793
  23627604.750          41.400          40.500
 129037599.592 6 100548798.317 6  24555037.508    24555042.117
  24555042.395          39.300          36.900
 114179093.596 7  88970747.498 7  21727554.688    21727560.746
  21727560.574          46.200          47.400
 116898917.748 7  91090088.859 7  22245118.227    22245122.734
  22245123.344          43.900          46.500
 120827408.354 7  94151273.077 7  22992692.500    22992699.996
  22992700.246          42.300          43.800
 122080284.583 7  95127518.23044  23231103.438
  23231107.402          42.800          25.800
 122733395.262 6  95636439.217 6  23355386.820    23355390.684
  23355390.453          41.400          39.800
 113694930.099 7  88593476.66345  21635422.563
  21635425.266          46.900          35.800
 129549351.622 6 100947581.055 6  24652421.234    24652428.148
  24652427.691          39.200          37.200
 124024984.836 6  96642865.288 6  23601169.688    23601174.820
  23601175.059          41.800          41.600
 112674126.564 7  87798053.17746  21441169.742
  21441172.910          46.800          36.200
 129776455.978 6 101124531.721 6  24695638.867    24695646.555
  24695646.598          40.700          41.200
 128704187.938 6 100289036.580 5  24491598.172    24491605.273
  24491604.871          39.900          35.900
 21  5 10  2  8 30.0000000  0 14G18G07G29G27G23G26G13G15G16G30G05G20
                                G10G08
 107640446.760 7  83875708.046 8  20483290.766    20483295.047
  20483295.434          46.600          52.500
 124160332.778 6  96748337.166 6  23626924.203    23626928.410
  23626928.578          41.100          41.600
 129154293.628 6 100639728.683 6  24577243.789    24577248.902
  24577248.715          39.200          36.500
 114103080.493 7  88911516.529 8  21713089.883    21713095.789
  21713095.605          46.800          48.200
 116811800.607 7  91022205.389 7  22228540.867    22228544.844
  22228545.281          45.000          46.600
 120921568.331 6  94224644.445 7  23010610.266    23010618.590
  23010618.496          41.400          44.000
 122030803.510 6  95088961.59844  23221687.281
  23221692.277          41.700          25.700
 122653439.729 6  95574136.256 6  23340171.250    23340175.598
  23340175.855          41.000          40.000
 113746896.163 7  88633969.68846  21645311.117
  21645314.629          46.700          36.200
 129485071.518 6 100897492.713 6  24640189.047    24640195.898
  24640195.785          38.100          37.700
 124122234.961 6  96718644.516 6  23619675.898    23619681.152
  23619680.816          41.300          41.800
 112708547.190 7  87824874.44446  21447719.563
  21447722.789          46.600          36.700
 129661739.765 6 101035142.571 7  24673809.195    24673816.691
  24673816.547          40.300          43.200
 128592926.264 6 100202339.111 5  24470425.406    24470431.777
  24470431.395          41.100          34.500
 21  5 10  2  9  0.0000000  0 14G18G07G29G27G23G26G13G15G16G30G05G20
                                G10G08
 107663708.187 7  83893833.831 8  20487717.383    20487721.652
  20487721.828          46.600          52.300
 124157355.010 6  96746016.818 6  23626357.445    23626362.020
  23626361.793          41.900          41.600
 129271097.308 6 100730744.478 6  24599471.469    24599476.020
  24599475.895          38.700          36.200
 114027507.094 7  88852628.184 7  21698708.867    21698714.922
  21698714.762          47.200          47.500
 116725090.866 7  90954639.361 7  22212040.305    22212045.055
  22212045.336          45.100          47.100
 121016056.667 6  94298271.668 7  23028591.375    23028598.152
  23028598.465          41.100          43.200
 121981898.952 7  95050854.17244  23212380.664
  23212386.469          42.200          27.200
 122573938.713 7  95512187.430 6  23325042.680    23325047.355
  23325047.180          42.300          40.600
 113799449.169 7  88674920.05545  21655311.547
  21655314.953          46.600          35.600
 129421247.303 6 100847759.611 5  24628043.844    24628050.969
  24628050.199          39.200          35.000
 124219820.026 7  96794684.801 6  23638246.156    23638250.820
  23638250.652          42.100          40.800
 112743539.766 7  87852141.36945  21454378.305
  21454381.633          45.800          35.800
 129547119.974 6 100945828.567 7  24651997.305    24652005.137
  24652005.012          38.400          42.800
 128481804.958 6 100115751.017 6  24449279.242    24449286.637
  24449286.477          39.100          37.200
 21  5 10  2  9 30.0000000  0 14G18G07G29G27G23G26G13G15G16G30G05G20
                                G10G08
 107687516.348 7  83912385.641 8  20492248.180    20492252.574
  20492252.727          46.700          51.900
 124154954.454 6  96744146.240 6  23625900.305    23625904.863
  23625905.434          41.100          41.800
 129388008.621 6 100821844.133 5  24621717.633    24621723.859
  24621723.758          36.900          35.900
 113952375.913 7  88794084.422 8  21684412.023    21684417.629
  21684417.625          47.600          48.300
 116638791.403 7  90887393.056 7  22195618.203    22195622.770
  22195623.246          45.800          47.200
 121110871.112 7  94372153.030 7  23046634.516    23046641.883
  23046641.805          42.300          43.900
 121933574.092 6  95013198.43644  23203185.281
  23203189.230          40.800          26.500
 122494895.423 7  95450595.293 6  23310001.555    23310006.012
  23310006.293          43.200          41.900
 113852587.903 7  88716326.84245  21665423.797
  21665426.750          47.200          35.800
 129357881.260 6 100798383.432 6  24615985.141    24615992.773
  24615992.930          38.800          38.500
 124317737.411 7  96870984.025 6  23656879.188    23656883.492
  23656882.984          42.600          39.400
 112779103.152 7  87879853.07946  21461146.156
  21461149.766          45.800          36.700
 129432599.333 6 100856591.800 7  24630205.523    24630212.555
  24630212.129          38.200          42.200
 128370826.519 6 100029274.364 6  24428161.758    24428169.309
  24428168.773          38.600          41.000
 21  5 10  2 10  0.0000000  0 14G18G07G29G27G23G26G13G15G16G30G05G20
                                G10G08
 107711870.473 7  83931362.877 8  20496882.273    20496886.703
  20496886.797          47.000          52.000
 124153131.836 6  96742726.002 6  23625553.227    23625558.137
  23625558.230          41.700          41.800
 129505026.071 6 100913026.498 5  24643985.516    24643991.488
  24643991.188          36.900          35.900
 113877689.257 7  88735887.033 7  21670199.680    21670205.090
  21670205.051          47.100          47.500
 116552904.663 7  90820468.349 7  22179274.180    22179278.277
  22179278.785          44.600          47.000
 121206009.144 6  94446286.497 7  23064737.766    23064745.555
  23064746.262          40.900          43.400
 121885830.537 6  94975995.67744  23194100.023
  23194104.605          41.800          26.000
 122416312.795 7  95389362.089 6  23295047.547    23295052.383
  23295052.691          43.600          41.600
 113906310.590 7  88758188.66246  21675646.625
  21675650.176          46.700          36.000
 129294976.104 6 100749366.429 6  24604014.180    24604022.563
  24604022.516          36.400          38.900
 124415984.026 7  96947539.724 6  23675575.125    23675579.707
  23675579.066          42.600          38.700
 112815236.214 7  87908008.68446  21468021.844
  21468025.395          46.200          36.000
 129318180.132 5 100767434.085 6  24608431.359    24608438.992
  24608438.387          35.700          41.900
 128259992.912 6  99942910.576 6  24407070.141    24407077.473
  24407077.301          37.400          41.800
 21  5 10  2 10 30.0000000  0 14G18G07G29G27G23G26G13G15G16G30G05G20
                                G10G08
 107736769.422 7  83950764.650 8  20501620.484    20501624.723
  20501625.090          46.400          52.100
 124151886.725 7  96741755.764 6  23625316.305    23625321.324
  23625321.449          42.300          41.900
 129622147.643 6 101004290.001 6  24666274.438    24666279.656
  24666279.043          37.500          36.900
 113803448.863 7  88678037.398 7  21656072.242    21656077.656
  21656077.730          47.900          47.900
 116467432.709 7  90753866.840 7  22163009.719    22163014.168
  22163013.938          44.700          46.700
 121301467.749 6  94520669.793 7  23082903.680    23082910.918
  23082910.961          41.600          43.700
 121838670.005 6  94939247.24444  23185124.633
  23185130.734          41.800          26.100
 122338193.327 7  95328489.787 6  23280182.547    23280187.184
  23280186.938          44.500          41.400
 113960614.997 7  88800503.76445  21685980.359
  21685983.789          47.000          35.500
 129232533.537 6 100700709.952 6  24592133.086    24592140.461
  24592139.957          37.300          39.400
 124514557.523 6  97024350.158 6  23694332.305    23694336.652
  23694337.105          41.000          38.600
 112851937.330 7  87936606.94346  21475006.109
  21475009.484          46.800          36.600
 129203864.492 5 100678357.036 6  24586676.891    24586685.152
  24586684.953          35.600          39.900
 128149306.062 5  99856661.161 6  24386006.273    24386014.238
  24386014.051          34.200          41.000
 21  5 10  2 11  0.0000000  0 14G18G07G29G27G23G26G13G15G16G30G05G20
                                G10G08
 107762212.335 7  83970590.294 8  20506462.398    20506466.574
  20506466.551          46.900          52.100
 124151219.215 7  96741235.612 6  23625189.156    23625194.801
  23625194.426          42.000          41.800
 129739371.280 6 101095633.038 6  24688580.773    24688586.223
  24688585.820          39.000          36.900
 113729656.902 7  88620537.183 7  21642030.109    21642035.609
  21642035.684          47.500          47.900
 116382377.965 7  90687590.455 7  22146823.922    22146828.594
  22146828.559          44.400          46.700
 121397244.284 6  94595300.817 7  23101128.430    23101137.016
  23101137.336          40.500          44.700
 121792094.491 7  94902954.64644  23176262.367
  23176266.406          42.200          25.600
 122260540.157 7  95267980.833 6  23265405.242    23265409.695
  23265409.656          42.000          41.200
 114015499.407 7  88843270.82745  21696424.844
  21696427.824          47.000          35.800
 129170555.729 6 100652415.608 6  24580337.195    24580346.305
  24580345.668          37.100          38.900
 124613454.999 6  97101413.086 6  23713151.461    23713156.992
  23713156.691          39.700          38.100
 112889205.635 7  87965647.15946  21482097.813
  21482101.012          46.800          36.300
 129089654.715 5 100589362.501 6  24564943.797    24564952.043
  24564951.426          35.600          39.800
 128038767.663 5  99770527.429 7  24364971.500    24364980.348
  24364980.211          33.400          43.000
 21  5 10  2 11 30.0000000  0 14G18G07G29G27G23G26G13G15G16G30G05G20
                                G10G08
 107788198.669 7  83990839.383 8  20511407.063    20511411.457
  20511411.547          46.700          52.600
 124151129.476 6  96741165.672 6  23625172.031    23625177.324
  23625177.074          41.700          41.100
 129856695.485 6 101187054.427 6  24710907.344    24710912.020
  24710911.816          38.300          37.200
 113656315.842 7  88563388.319 8  21628073.477    21628078.957
  21628078.988          47.100          48.200
 116297743.172 7  90621641.285 7  22130718.867    22130723.039
  22130722.906          44.800          46.700
 121493336.546 6  94670177.864 7  23119414.734    23119422.914
  23119423.531          40.800          43.600
 121746106.103 6  94867119.58144  23167511.109
  23167516.141          41.800          26.400
 122183356.499 7  95207837.757 6  23250716.992    23250721.418
  23250721.461          42.100          40.700
 114070961.920 7  88886488.35745  21706978.961
  21706982.250          47.200          35.600
 129109045.488 6 100604485.583 6  24568632.961    24568641.738
  24568641.531          36.600          40.000
 124712673.521 6  97178726.143 6  23732032.227    23732037.406
  23732037.629          40.400          38.300
 112927039.735 7  87995128.26946  21489297.391
  21489300.656          46.400          36.400
 128975553.529 6 100500452.628 6  24543231.688    24543239.402
  24543239.367          38.400          38.600
 127928380.537 5  99684511.616 7  24343964.750    24343974.379
  24343973.949          34.500          44.000
 21  5 10  2 12  0.0000000  0 14G18G07G29G27G23G26G13G15G16G30G05G20
                                G10G08
 107814727.333 7  84011511.066 8  20516455.461    20516459.691
  20516459.824          47.100          52.000
 124151617.318 7  96741545.823 6  23625265.586    23625269.477
  23625270.066          42.100          40.400
 129974118.030 6 101278552.444 6  24733251.398    24733257.000
  24733256.898          38.100          36.400
 113583427.554 7  88506592.267 8  21614203.211    21614208.973
  21614209.156          47.100          48.100
 116213530.394 7  90556020.964 7  22114693.117    22114697.750
  22114698.023          44.100          46.800
 121589741.523 6  94745298.580 7  23137759.906    23137768.527
  23137768.609          41.700          44.700
 121700706.358 7  94831743.18344  23158871.789
  23158876.699          42.100          26.200
 122106644.952 6  95148062.561 7  23236119.313    23236124.230
  23236124.172          41.800          42.000
 114127000.655 7  88930154.88645  21717642.547
  21717645.848          47.300          35.200
 129048004.433 5 100556921.197 6  24557017.383    24557025.133
  24557025.191          35.800          41.700
 124812210.450 6  97256287.335 6  23750973.406    23750979.238
  23750979.355          39.900          40.000
 112965438.255 7  88025049.18345  21496604.242
  21496607.230          46.200          35.000
 128861563.016 7 100411628.909 6  24521540.266    24521547.168
  24521546.789          42.100          37.100
 127818146.976 6  99598615.420 6  24322989.250    24322997.234
  24322996.961          39.400          41.600
 21  5 10  2 12 30.0000000  0 14G18G07G29G27G23G26G13G15G16G30G05G20
                                G10G08
 107841797.188 7  84032604.460 8  20521606.844    20521611.160
  20521611.348          46.600          52.500
 124152682.774 6  96742376.041 6  23625467.938    23625472.656
  23625472.793          41.300          41.600
 130091637.089 6 101370125.688 6  24755615.055    24755620.164
  24755620.367          38.300          37.600
 113510993.904 7  88450150.475 8  21600419.820    21600425.934
  21600425.426          47.100          48.300
 116129741.811 7  90490731.194 7  22098749.055    22098753.293
  22098753.207          44.500          46.400
 121686456.455 6  94820660.804 7  23156164.031    23156172.270
  23156172.465          40.400          44.000
 121655897.037 6  94796826.86144  23150345.000
  23150349.465          41.700          25.900
 122030408.004 6  95088657.206 6  23221612.016    23221616.883
  23221616.988          41.200          41.100
 114183613.216 7  88974268.55646  21728415.688
  21728419.246          47.300          36.200
 128987434.522 6 100509723.944 6  24545491.281    24545499.684
  24545499.609          38.400          40.900
 124912063.002 6  97334094.405 6  23769975.766    23769980.789
  23769980.527          40.900          39.500
 113004399.626 7  88055408.67745  21504018.461
  21504021.781          46.800          35.200
 128747685.300 7 100322893.014 5  24499869.867    24499876.047
  24499875.840          42.400          34.400
 127708068.258 6  99512839.808 6  24302042.164    24302049.449
  24302049.297          39.900          40.400
 21  5 10  2 13  0.0000000  0 14G18G07G29G27G23G26G13G15G16G30G05G20
                                G10G08
 107869407.669 7  84054119.113 8  20526860.547    20526865.309
  20526865.281          46.600          51.800
 124154326.126 6  96743656.564 6  23625781.242    23625785.836
  23625785.824          41.300          41.700
 130209251.179 6 101461772.961 6  24777995.625    24778001.328
  24778001.133          38.800          38.100
 113439017.364 7  88394064.886 8  21586723.063    21586728.984
  21586729.016          46.800          48.300
 116046380.163 7  90425774.077 7  22082885.844    22082889.793
  22082889.934          44.500          46.600
 121783478.988 6  94896262.720 7  23174627.773    23174634.813
  23174635.238          41.000          45.000
 121611680.545 7  94762372.45344  23141931.000
  23141935.230          43.900          27.000
 121954649.061 6  95029624.308 6  23207195.953    23207200.340
  23207200.156          41.900          41.300
 114240798.298 7  89018828.34545  21739297.672
  21739300.840          47.500          35.300
 128927338.451 6 100462895.944 6  24534055.531    24534063.219
  24534063.281          38.300          41.100
 125012229.088 7  97412145.882 6  23789036.523    23789041.652
  23789041.121          42.200          39.500
 113043922.550 7  88086205.74445  21511539.461
  21511542.547          45.200          34.900
 128633922.935 6 100234247.009 6  24478221.469    24478228.039
  24478228.480          41.300          37.700
 127598147.208 6  99427187.077 6  24281124.938    24281132.395
  24281132.195          40.800          40.800
 21  5 10  2 13 30.0000000  0 13G18G07G27G23G26G13G15G16G30G05G20G10
                                G08
 107897557.673 7  84076054.179 8  20532217.430    20532221.996
  20532222.039          46.000          52.500
 124156546.822 6  96745387.012 7  23626202.500    23626208.832
  23626208.492          39.800          42.100
 113367499.934 7  88338337.020 7  21573113.461    21573119.297
  21573119.090          47.100          47.600
 115963447.578 7  90361151.299 7  22067104.359    22067108.285
  22067108.156          44.700          45.600
 121880806.212 6  94972102.085 7  23193147.805    23193156.070
  23193156.039          41.100          43.800
 121568058.667 7  94728381.37244  23133630.023
  23133633.605          42.600          24.700
 121879370.837 7  94970965.978 6  23192870.969    23192875.313
  23192875.816          42.100          40.500
 114298553.830 7  89063832.63046  21750288.266
  21750291.848          46.300          36.000
 128867717.982 6 100416438.481 6  24522710.500    24522718.109
  24522717.574          37.300          40.800
 125112704.921 7  97490438.677 6  23808156.984    23808162.332
  23808161.770          43.000          40.000
 113084005.690 7  88117439.35845  21519166.766
  21519170.148          46.400          35.700
 128520278.161 6 100145692.675 6  24456595.133    24456602.734
  24456603.199          39.600          40.000
 127488385.559 6  99341658.554 6  24260238.188    24260246.043
  24260245.492          40.500          40.400
 21  5 10  2 14  0.0000000  0 13G18G07G27G23G26G13G15G16G30G05G20G10
                                G08
 107926246.459 7  84098409.063 8  20537676.641    20537681.363
  20537681.391          47.100          52.600
 124159345.081 6  96747567.459 6  23626736.289    23626740.773
  23626740.781          41.500          41.400
 113296443.799 7  88282968.623 8  21559591.586    21559597.824
  21559597.691          46.800          48.100
 115880946.574 7  90296864.817 7  22051404.953    22051409.043
  22051409.359          45.500          46.400
 121978435.780 6  95048177.008 7  23211725.664    23211734.039
  23211734.102          40.000          43.200
 121525033.165 7  94694855.02044  23125442.500
  23125446.656          43.900          26.400
 121804576.108 7  94912684.395 6  23178638.227    23178642.031
  23178641.938          42.600          40.600
 114356878.011 7  89109280.01946  21761386.984
  21761390.574          46.700          36.500
 128808575.453 6 100370353.417 7  24511455.492    24511464.016
  24511464.008          36.400          42.600
 125213488.755 7  97568971.470 6  23827335.992    23827340.465
  23827340.082          43.600          40.400
 113124647.629 7  88149108.38245  21526900.906
  21526904.258          46.500          35.200
 128406753.376 5 100057231.910 7  24434991.938    24434999.828
  24435000.559          34.500          42.700
 127378785.479 6  99256255.867 5  24239381.766    24239387.285
  24239387.492          37.300          34.200
 21  5 10  2 14 30.0000000  0 13G18G07G27G23G26G13G15G16G30G05G20G10
                                G08
 107955472.777 7  84121182.806 8  20543238.484    20543243.105
  20543243.160          46.700          52.300
 124162720.351 6  96750197.492 6  23627378.133    23627382.680
  23627382.980          40.400          40.500
 113225850.795 7  88227961.102 8  21546158.375    21546164.500
  21546164.434          46.900          48.400
 115798879.197 7  90232916.229 7  22035788.375    22035792.336
  22035792.395          46.200          46.400
 122076364.635 6  95124485.162 7  23230361.219    23230369.230
  23230369.148          40.200          43.800
 121482605.176 7  94661794.25844  23117368.641
  23117373.125          43.700          25.400
 121730267.624 7  94854781.681 6  23164497.883    23164501.098
  23164501.289          42.900          39.200
 114415768.388 7  89155168.60745  21772593.313
  21772597.113          46.000          35.600
 128749912.567 6 100324642.078 6  24500291.359    24500300.063
  24500300.023          36.800          40.800
 125314577.087 7  97647741.533 6  23846572.117    23846577.074
  23846577.063          42.900          41.200
 113165847.038 7  88181211.80045  21534740.914
  21534744.320          46.200          35.700
 128293350.692 5  99968866.365 7  24413411.375    24413419.871
  24413420.699          35.400          44.400
 127269349.220 6  99170980.842 6  24218556.813    24218564.273
  24218563.543          38.200          39.000
 21  5 10  2 15  0.0000000  0 13G18G07G27G23G26G13G15G16G30G05G20G10
                                G08
 107985235.908 7  84144374.851 8  20548902.539    20548906.500
  20548906.594          46.700          52.100
 124166672.856 6  96753277.392 6  23628130.094    23628134.715
  23628134.648          39.900          41.700
 113155723.244 7  88173316.271 8  21532813.828    21532819.941
  21532820.117          47.400          48.800
 115717248.029 7  90169307.528 7  22020254.008    22020258.164
  22020258.535          45.500          47.200
 122174590.510 6  95201024.730 7  23249053.688    23249060.977
  23249061.055          39.500          42.300
 121440777.027 7  94629200.91644  23109408.969
  23109413.184          42.700          25.700
 121656448.565 7  94797260.331 6  23150450.211    23150454.617
  23150454.699          42.800          40.500
 114475223.187 7  89201497.01145  21783907.336
  21783910.539          46.200          35.900
 128691731.703 5 100279306.285 6  24489220.500    24489228.852
  24489228.570          34.300          40.700
 125415967.612 6  97726747.062 6  23865866.156    23865871.305
  23865871.766          41.600          41.800
 113207602.504 7  88213748.52345  21542686.844
  21542690.840          46.700          35.000
 128180072.777 6  99880597.975 7  24391855.914    24391863.918
  24391864.758          37.600          43.800
 127160078.888 5  99085835.208 6  24197762.625    24197771.105
  24197770.617          34.800          40.500
 21  5 10  2 15 30.0000000  0 13G18G07G27G23G26G13G15G16G30G05G20G10
                                G08
 108015534.520 7  84167984.154 8  20554667.789    20554672.270
  20554672.418          46.400          51.900
 124171202.178 7  96756806.698 6  23628992.586    23628996.320
  23628997.012          42.400          40.200
 113086062.870 7  88119035.481 8  21519557.680    21519563.797
  21519564.086          47.300          48.700
 115636054.995 7  90106040.253 7  22004803.219    22004808.031
  22004808.141          45.300          47.100
 122273110.175 6  95277793.249 6  23267800.656    23267808.676
  23267808.746          40.100          41.600
 121399550.134 6  94597076.06644  23101563.547
  23101567.512          40.500          24.000
 121583120.956 7  94740121.972 6  23136496.828    23136500.742
  23136501.203          42.900          41.200
 114535240.046 7  89248263.38245  21795327.828
  21795331.406          46.600          34.900
 128634034.894 5 100234347.824 6  24478240.805    24478249.500
  24478249.352          35.900          40.000
 125517657.271 6  97805985.716 6  23885217.000    23885222.359
  23885222.352          41.700          40.800
 113249912.147 7  88246717.05145  21550738.047
  21550741.570          46.900          35.800
 128066921.553 6  99792428.294 7  24370324.297    24370331.730
  24370332.184          39.400          43.700
 127050976.502 6  99000820.462 6  24177000.352    24177009.316
  24177008.719          36.800          40.400
 21  5 10  2 16  0.0000000  0 13G18G07G27G23G26G13G15G16G30G05G20G10
                                G08
 108046367.777 7  84192010.057 8  20560535.477    20560539.422
  20560539.480          47.000          51.700
 124176308.031 6  96760785.306 6  23629963.625    23629968.445
  23629968.285          41.700          41.600
 113016871.852 7  88065120.412 8  21506391.148    21506397.332
  21506397.125          47.500          48.300
 115555302.562 7  90043116.307 7  21989436.180    21989440.859
  21989441.113          45.800          47.300
 122371921.211 6  95354788.816 7  23286605.039    23286611.914
  23286612.074          40.600          43.100
 121358926.318 6  94565421.12143  23093833.320
  23093836.820          40.000          23.900
 121510287.951 7  94683368.971 6  23122636.453    23122641.105
  23122640.691          43.900          41.300
 114595817.180 7  89295466.31945  21806855.602
  21806858.762          46.300          35.700
 128576824.195 5 100189768.139 6  24467353.781    24467362.508
  24467362.242          35.000          41.100
 125619643.356 6  97885455.288 6  23904623.930    23904629.426
  23904629.309          41.000          39.900
 113292774.539 7  88280116.29846  21558894.383
  21558898.688          47.200          36.000
 127953899.552 6  99704359.272 7  24348816.969    24348824.160
  24348824.836          41.400          42.700
 126942044.451 6  98915938.331 7  24156272.422    24156280.941
  24156280.262          37.100          42.800
 21  5 10  2 16 30.0000000  0 13G18G07G27G23G26G13G15G16G30G05G20G10
                                G08
 108077734.569 7  84216451.708 8  20566504.609    20566508.965
  20566508.895          45.900          52.000
 124181990.258 6  96765213.001 6  23631044.461    23631049.656
  23631049.832          41.400          40.000
 112948152.225 7  88011572.647 8  21493314.227    21493320.305
  21493320.113          47.300          48.900
 115474992.933 7  89980537.382 7  21974154.023    21974158.602
  21974158.508          45.800          47.000
 122471020.843 6  95432009.261 7  23305462.133    23305470.531
  23305470.379          40.800          43.500
 121318907.122 6  94534237.31443  23086216.625
  23086221.996          41.100          22.300
 121437951.969 7  94627003.294 6  23108871.852    23108875.465
  23108875.676          43.700          41.400
 114656952.383 7  89343104.11445  21818489.344
  21818492.828          46.100          35.800
 128520101.550 5 100145568.855 6  24456559.719    24456568.539
  24456568.332          35.500          40.800
 125721923.443 6  97965153.949 6  23924087.359    23924092.465
  23924092.469          40.100          39.800
 113336188.616 7  88313945.42445  21567156.039
  21567159.629          46.600          35.800
 127841009.055 6  99616392.728 6  24327334.617    24327341.590
  24327342.172          41.200          41.300
 126833284.380 5  98831190.356 7  24135575.445    24135584.195
  24135583.938          35.800          43.900
 21  5 10  2 17  0.0000000  0 13G18G07G27G23G26G13G15G16G30G05G20G10
                                G08
 108109634.000 7  84241308.399 8  20572574.617    20572578.945
  20572578.945          46.100          51.800
 124188248.768 6  96770089.778 6  23632235.500    23632240.359
  23632240.652          40.600          41.200
 112879906.110 7  87958393.871 8  21480327.102    21480333.770
  21480333.633          47.500          49.300
 115395128.510 7  89918305.383 7  21958956.352    21958961.262
  21958961.293          45.200          47.400
 122570406.563 7  95509452.599 7  23324375.359    23324382.809
  23324383.176          42.400          43.600
 121279494.520 6  94503526.21743  23078717.031
  23078721.430          41.300          22.800
 121366116.250 6  94571027.430 7  23095201.031    23095205.992
  23095206.043          41.300          42.100
 114718643.688 7  89391175.24845  21830229.008
  21830232.453          46.600          35.400
 128463868.732 6 100101751.045 6  24445859.891    24445867.832
  24445867.328          36.600          38.600
 125824494.423 6  98045079.286 6  23943605.906    23943611.602
  23943612.051          39.900          39.800
 113380152.779 7  88348203.18245  21575521.836
  21575525.711          46.700          35.600
 127728252.383 6  99528530.436 6  24305877.813    24305884.797
  24305885.656          41.700          40.300
 126724698.825 6  98746578.295 7  24114913.531    24114921.039
  24114920.289          40.400          42.700
